id,bathrooms,bedrooms,price,name,lat,lng,type,desc,covered_area,carpet_area,trans_type,source
ZFJ4BLCHoylzpSvf+uAgZw==,2.0,3.0,12816817.0,3BHK Multistorey Apartment for New Property in Kumar Prospera at Hennur Main Road,13.0231661,77.6309661,,,1710.0,,New Property,MagicBricks
ff808181687aff7c01687b0f609407d2,2.0,2.0,7150000.0,2 BHK Flat  In Vm Meadows For Sale  In Horamavu,13.0248447,77.6604381,AP,,1125.0,902.0,BUY,NoBroker
8a9ff28285c832430185c872e31f23d7,2.0,2.0,4900000.0,2 BHK Flat  In Sree Dhanyatha Apartment For Sale  In Banaswadi,13.017170265670304,77.6566286441803,AP,"Sree Dhanyatha Apartments in Gopal Reddy Layout, Bangalore East by SreeReddy Properties is a residential project.
The project offers Apartment with perfect combination of contemporary architecture and features to provide comfortable living.",1119.0,913.0,BUY,NoBroker
8a9ff68389fd68e20189fdc033ea4adf,2.0,2.0,9500000.0,2 BHK Flat  In Aishwarya Apartments  For Sale  In Ulsoor,12.9764162,77.6266741,AP,,933.0,795.0,BUY,NoBroker
8a9fa6848bfc8fb2018bfca7df9d0a11,5.0,3.0,29500000.0,"3 BHK Flat  In Elegant Eden For Sale  In Cleveland Town, Pulikeshi Nagar",12.99577110565902,77.61499375767207,AP,"SUMMARY: 3 Bedrooms with attached bathrooms.  Additional Servant room with attached Servant bathroom . Additional Toilet attached to Dinning Hall. 4 BALCONIES. 2 CAR PARKS (Covered)

LUXURY ADDITION: Fenesta Soundproof windows installed. Complete  soundproofing. Italian marble flooring.

DOCUMENTATION : All documents in perfect order, especially Occupancy Certificate, No loans on the property.",2500.0,2352.0,BUY,NoBroker
8a9fb0838c676459018c67d4dc7749a4,2.0,2.0,7300000.0,2 BHK Flat  In Keerthi Royale For Sale  In Banaswadi,13.0140788,77.6613126,AP,,1200.0,,BUY,NoBroker
ff80818163ca7f280163cfb893a227a3,5.0,3.0,45000000.0,3 BHK Flat  In Chandana Apartments For Sale  In Shivaji Nagar,12.9803602,77.606757,AP,,3800.0,2160.0,BUY,NoBroker
8a9ffc8288c4852b0188c4aa6c6910ff,3.0,3.0,19000000.0,"3 BHK Flat  In Sv Grande Apartment, Banswadi For Sale  In Banswadi",13.009924,77.6554338,AP,,1670.0,1350.0,BUY,NoBroker
8a9fdd838a6844df018a69310d9c0312,2.0,2.0,8000000.0,2 BHK Flat  In Vm Meadows For Sale  In Horamavu,13.0248447,77.6604381,AP,,1610.0,1288.0,BUY,NoBroker
8a9fb6838abfd10c018ac02811b3154c,2.0,2.0,6000000.0,2 BHK Flat  In Horizon View For Sale  In Banaswadi,13.0103761,77.6481944,AP,"For sale
2 bhk flat 
2 of 2 floors 
950 sqft
East facing semi-furnished apartment
 Vijayabank colony
Banaswadi
(Now on rent - ?17000/-) 
behind Reliance smart on outer ring road
Near Baldwin school and New horizon college
All amenities available in the vicinity
Price 60lakhs ************ 
If *********** ****** contact 
********** *** **** ********* Shriyan",930.0,744.0,BUY,NoBroker
8a9fa6838bb34912018bb3aa70c958cf,3.0,2.0,3610000.0,2 BHK Flat  In Bank Auction Property - Doctors Apartment For Sale  In Kr Puram,13.006111420822812,77.65708498273553,AP,,1106.0,773.0,BUY,NoBroker
8a9fff838961a02b018962ee67543b40,2.0,2.0,6500000.0,2 BHK Flat  In Hac  & S Towers For Sale  In Hmac  Apartment,12.994087810994229,77.60754127668646,AP,,1060.0,,BUY,NoBroker
8a9fad838bea810d018beb9846310a07,2.0,2.0,7000000.0,2 BHK Flat  In Nishitas Srishantha  For Sale  In Lingarajapuram,13.008684,77.628007,AP,,1293.0,1100.0,BUY,NoBroker
8a9f99838b9e8c0d018b9fcc5c677c46,4.0,4.0,16500000.0,4 BHK Flat  In Reputed Builder Ranka D Paradise Apartments For Sale  In Ranka D Paradise,12.993502135327208,77.61559519021303,AP,,3750.0,,BUY,NoBroker
8a9f968282f86b5d0182f8bebe884b45,2.0,2.0,6800000.0,2 BHK Flat  In Ms Golden Grace For Sale  In Banaswadi ,13.005887153195108,77.64717826554669,AP,"Currently the house is given on rent. Interested person can buy for an investment purpose or can get the flat vacated based on choice. In the attached photos, check for floor plan D type apartments.",1292.0,,BUY,NoBroker
ff8081816e02e459016e068366ff0774,2.0,2.0,12500000.0,2 BHK Flat  In Karam Leo  For Sale  In Maruthi Sevanagar,13.001017414800646,77.6312919,AP,,1210.0,1000.0,BUY,NoBroker
8a9feb838a7cde42018a7f1cb9af2d86,2.0,3.0,13800000.0,3 BHK Flat  In Karthik Homes For Sale  In Banaswadi,13.0122865,77.654692,AP,"3 BHK apartment with 1490 sqft. Located in OMBR Layout a prime region in Bangalore. The property has been approved by BDA, A Katha, Along with amenities like 24/7 Security, Lift, Car Parking, Cauvery Water, Borewell water, solar facility, battery backup and few more. Special highlights are close to Rammurthy Bus stop, Presidency school kasturi nagar, New Horizon college, Metro station proximity. Flat is having good cross ventilation.",1490.0,1192.0,BUY,NoBroker
8a9fab838bf62092018bf64891fe172a,3.0,3.0,10500000.0,3 BHK Flat  In United Tulips For Sale  In Banaswadi,13.007008137571006,77.64957915991545,AP,,1520.0,1150.0,BUY,NoBroker
8a9fa6828158038d0181584d62fc2d07,3.0,3.0,18900000.0,3 BHK Flat  In Tasker Park For Sale  In Vasanth Nagar,12.9857457,77.59756209999999,AP,"3BHK - Luxury semi- furnished 3 bedroom Apartment with attached 3 washrooms with high end fixtures including room ACs in all bedrooms, closets, TV unit, electrical fixtures, geysers, fans, designer Hettich modular kitchen, crockery unit, laundry cabinet and 2 covered car parks. Cauvery water supply in all washrooms, 24 Hours security and 100 power back up",1513.0,1210.0,BUY,NoBroker
ff808181550b5e4101550bcca65b0c92,2.0,2.0,9500000.0,2 BHK Flat  In Vj Infiniti For Sale  In Banaswadi,13.007297548865337,77.65760493032874,AP,"Just 200mtrs to ring road and upcoming metro station on ring road .The house is semi furnished with wardrobes. It has easy access to market, schools, hospitals, banks and ATM's as well.
*This property can fetch 35k  rent. This apartment is bulit on A khata  Land  and Apartment is B khata .",1200.0,1000.0,BUY,NoBroker
8a9ffb848aab3fe3018aabeff62a45e8,2.0,2.0,7200000.0,2 BHK Flat  In Jb Pride Apartments  For Sale  In Jai Bharath Nagar,13.002630343429908,77.62854024767876,AP,,1000.0,800.0,BUY,NoBroker
8a9fac828437272b018437589b6f21c2,2.0,2.0,6000000.0,2 BHK Flat  In Sree Tejjan Elite  For Sale  In Banasawadi,13.00864432568436,77.64446785878894,AP,"Corner property with Good ventilation, Total of  13 units in apartment. Taxes paid upto date with seperate katha done  for the House. Ready to occupy with all fittings. presently rented out .",890.0,800.0,BUY,NoBroker
8a9ffd858b199397018b199f702c045e,3.0,3.0,15700000.0,3 BHK Flat  In Elegant Bristol For Sale  In Banaswadi,13.009618,77.648437,AP,,1900.0,1600.0,BUY,NoBroker
8a9f0183895376ab018953b193ee2522,2.0,2.0,10000000.0,2 BHK Flat  In Sai Charita Green Oaks For Sale  In Horamavu,13.0215023,77.65616229999999,AP,"Within 500 Mtrs from market, hospitals, upcoming Metro station, Ring road bus stop. Schools within 3 Kms, Manyata Tech park, MG road within 7 Kms. Gated community. sports area, gym. Walking track.",1220.0,898.0,BUY,NoBroker
ff8081816d6149ac016d62248fa871d7,2.0,2.0,8400000.0,2 BHK Flat  In Anugraha Enclave For Sale  In Lingarajapuram,13.013249785852038,77.62650908864428,AP,"24/7 -  Generator, Cauvery and Borewell Water available. Custom Built house with additional carpet space, modular kitchen and Wardrobes (EVOK Brand)",1305.0,1044.0,BUY,NoBroker
8a9ff2838adadacc018adc12f68969a8,2.0,3.0,7600000.0,"3 BHK Flat  In Pmr Homes Apartment For Sale  In Chikka Banaswadi, Banaswadi",13.0057029,77.6469915,AP,,1550.0,1500.0,BUY,NoBroker
ff8081816ce31b9f016ce6435ce42a43,2.0,2.0,7800000.0,2 BHK Flat  In Afia Abode For Sale  In Hbr Layout,13.0230007,77.6282955,AP,,1000.0,800.0,BUY,NoBroker
8a9f96838accae64018acd38f3a24207,4.0,4.0,26000000.0,4 BHK Flat  In Inclover Abode For Sale  In Cooke Town,13.0060625,77.6242144,AP,"Property is in prime location convenient to Provision shops,Bakery, ATM,bank,school. The Property has good ventilation and single flat in a floor with lift and 2 covered car parking with security.",2300.0,2050.0,BUY,NoBroker
8a9fb7838b7a7fc2018b7aaed9e21cdb,2.0,2.0,14000000.0,2 BHK Flat  In Excalibur For Sale  In Cox Town,12.994923544349753,77.62610926846337,AP,,1550.0,,BUY,NoBroker
8a9fe68287daa2120187daf47beb2c8c,3.0,3.0,14000000.0,3 BHK Flat  In Ss Comforts For Sale  In Hrbr Layout 1st Block,13.01511050000001,77.64506370582836,AP,"Beautiful property located on main road adjacent to Vijaya bank. Walking distance from Om Shakti Temple.
Large a spacious bedrooms with 2 balconies and one big utility area.",1600.0,1360.0,BUY,NoBroker
8a9fa4838ba34064018ba34ec490072e,2.0,2.0,7000000.0,"2 BHK Flat  In Sk Tulip Apartments, Banaswadi For Sale  In Banaswadi",13.014136446080082,77.64818157493619,AP,,1210.0,966.0,BUY,NoBroker
8a9f822575886a1c01758876774006ba,3.0,3.0,7900000.0,3 BHK Flat  In Behthul Hamb For Sale  In Kadugondanahalli,13.011771399605385,77.6163955065484,AP,,1200.0,1100.0,BUY,NoBroker
ff8081815890a6c101589b4feca12c6b,2.0,2.0,5800000.0,2 BHK Flat  In 9th Avenue Apartment For Sale  In Hormavu,13.02189936511519,77.65411702394255,AP,"It's a Naturally Well-Lit home and semi- furnished flat modular kitchen with excellent cross ventilation. Water is available 24/7 . Located in a friendly neighborhood It has easy access to markets, schools, hospitals, banks and ATM's as well .Price is negotiable ",1300.0,980.0,BUY,NoBroker
8a9fa4838bd0c22b018bd1ab7ada2d1b,3.0,3.0,8500000.0,3 BHK Flat  In Smr Vinay Regency For Sale  In Horamavu,13.0159803,77.6624264,AP,,1620.0,1458.0,BUY,NoBroker
8a9faa827cc1d957017cc4d3a0ea2b80,2.0,2.0,5800000.0,2 BHK Flat  In Rekhi Brooklyn Apartments For Sale  In Cox Town,12.9998078,77.6258885,AP,,965.0,772.0,BUY,NoBroker
8a9fbb8280cc53af0180cca1c8423975,3.0,3.0,17500000.0,"3 BHK Flat  In Nerlat Infinity  For Sale  In Ombr Layout, Banaswadi",13.010824964809055,77.65380162745714,AP,"Nerlat builders build homes which are truly spacious and well planned.Our premium project ,Nerlat  infinity apartments consists of 8 luxurious 3BHKs sized 1800sqft.For site visit or more details  ,please contact us  .Very close to Outer Ring Road while being in a quiet and posh residential area.In near proximity to multiple shopping malls and shopping streets .",1850.0,1500.0,BUY,NoBroker
8a9ff38389cfdc260189d039bf7a42a5,2.0,2.0,13200000.0,"2 BHK Flat  In Elegant Springdale, Pulikeshi Nagar For Sale  In Pulkeshi Nagar",12.99464551633228,77.60738800674592,AP,"Apartment is  vacant and ready for sale/possession.
Both the Bathrooms have been completely renovated.
Price is slightly negotiable.",1461.0,1150.0,BUY,NoBroker
8a9fcd858ae009f5018ae0a99e836bdf,3.0,3.0,21000000.0,"3 BHK Flat  In Green Enclave For Sale  In Hrbr Layout, Kalyan Nagar",13.0191445,77.6464534,AP,"Spacious 3900 sq feet 3bhk pent house including a private terrace of 1700 sq feet where one can construct another Bedroom / private garden / Gazebo,  available for sale in kalyan nagar hrbr layout , next to The Princeton School. 

100m from Ring Road with many eateries and shopping malls around. It is behind west side(prestige north point) kalyan nagar.",3900.0,2200.0,BUY,NoBroker
8a9fc48387f211060187f66e427309ff,2.0,2.0,2400000.0,2 BHK Flat  In Taha Residency Kadugondanahalli For Sale  In Kadugondanahalli,13.0218821,77.6185005,AP,This property is on sale due to emergency at the same cost that I bought .The property is well ventilated and has woode wardrobes done.The hall is decorerded with great POP and looks very elegent to eyes.The kichen  is modular and have exhaust and have a bike parking.The building has lift facility and has a masjid in the ground floor .Contact Syed Jabber before it is gone ..nine nine four Double five eight zero nine four four,590.0,519.0,BUY,NoBroker
8a9fb8847be4543a017be7b6470740b7,2.0,2.0,8300000.0,2 BHK Flat  In Scion Lavendula For Sale  In Bennigana Halli,13.005619468780528,77.66075471589967,AP,"it's a 15 years old, apartment. excellent location and connectivity to Ring road, whitefield, Manyata, tech park, bayappanahalli metro just 3km around. children park. the apartment is located in residential BBMP layout. kasturinagar",1145.0,0.0,BUY,NoBroker
8a9ffb838a969df0018a97369d553ebb,3.0,3.0,33000000.0,3 BHK Flat  In Prestige Melbrook For Sale  In Cooke Town,13.0021612,77.6248045,AP,,2200.0,,BUY,NoBroker
8a9f0b8288f04b000188f0fa13d64d82,3.0,3.0,15000000.0,"3 BHK Flat  In Purva Iris Apartment For Sale  In Jeevanhalli, Cox Town",12.999735577439894,77.62797688465658,AP,Available for sale is a three-bedroom ground-floor apartment situated in Cox Town Bangalore. It is a freehold with a garden strip and reserved covered parking. The flat comes with a small pooja room with a marble mandir. The 274 sq ft garden is beautifully maintained and titled in the center. The flat is well-ventilated with greenery; The property is 19 years old.,1478.0,1477.0,BUY,NoBroker
8a9fcb82812295950181232980e166db,2.0,2.0,8000000.0,"2 BHK Flat  In Sahasra Grand Apartments For Sale  In Chelekare, Kalyan Nagar",13.0254021,77.6443056,AP,,1245.0,1000.0,BUY,NoBroker
8a9fa48280e4c9510180e551cec066ab,3.0,3.0,8600000.0,3 BHK Flat  In Sm Silver Springs Apartment For Sale  In Banaswadi,13.007264885781286,77.64617163110168,AP,,1281.0,960.0,BUY,NoBroker
ff8081815cc01870015cc04d9c3118a3,2.0,2.0,7000000.0,2 BHK Flat  In Alphine Homes For Sale  In Kammanahalli,13.0159009,77.6380617,AP,,1150.0,1115.0,BUY,NoBroker
ff8081816b8e7b67016b8edd525b47b8,2.0,2.0,8000000.0,2 BHK Flat  In Rennaisance Appartment For Sale  In Banaswadi,13.011449228035604,77.65547566115859,AP,,1300.0,1180.0,BUY,NoBroker
8a9fb0827b87106e017b8717162101df,4.0,4.0,43200001.0,4 BHK Flat  In Koncept Ambience Downtown For Sale  In Banasawadi,13.00193674285693,77.63110941844849,AP,,2782.0,2121.0,BUY,NoBroker
8a9fb7827b86b08b017b870f7fc52c04,3.0,3.0,35000001.0,3 BHK Flat  In Koncept Ambience Downtown For Sale  In Banasawadi,13.0019365075511,77.63111043680532,AP,,2229.0,1696.0,BUY,NoBroker
ff8081816b461830016b469cfbef66b8,5.0,4.0,39500000.0,4 BHK Flat  In Paragon Residency For Sale  In Cooke Town,13.001829,77.62664,AP,,4220.0,3200.0,BUY,NoBroker
8a9ff38389575366018957deaa773404,3.0,3.0,30000000.0,"3 BHK Flat  In Slantree Apartments, Cooke Town, Bangalore For Sale  In Slantree Apartments",13.0015073,77.6213447,AP,"East facing apartment on the third floor on Hutchin's Road. Large, bright and airy 3BHK with 3 attached bathrooms. 2 grilled in large balconies (attached to the living room, and to the master bedroom). Modular (Sleek) kitchen with ample storage + utility with attached servant's toilet. An added plus is a private terrace immediately above the apartment, perfect to convert to a rooftop garden.",1950.0,1596.0,BUY,NoBroker
8a9fa4838bcce558018bccf0c28705e3,3.0,3.0,20000000.0,3 BHK Flat  In Petals For Sale  In Jayamahal,13.002399,77.6030337,AP,,3500.0,2300.0,BUY,NoBroker
8a9ff7838ab5841d018ab63ca20048db,2.0,2.0,6700000.0,2 BHK Flat  In Shantha Residency For Sale  In Cox Town Circle,12.9974344,77.6209362,AP,,950.0,600.0,BUY,NoBroker
8a9ff1838a2a7846018a2aabf59b0a1f,2.0,2.0,12700000.0,2 BHK Flat  In Spencer House For Sale  In Pulikeshi Nagar,12.9959093,77.61236339999999,AP,Spacious 2 BHK east facing on top floor  comes with a  private terrace  of 1010 sqft for personal use,1480.0,1184.0,BUY,NoBroker
8a9fac8277153d6a017715982aae1d2d,3.0,3.0,28500000.0,3 BHK Flat  In Elegant Eden For Sale  In Pulikeshi Nagar,12.994944025654698,77.61520099381099,AP,"A beautiful well light spacious 3 bedroom apartment in the heart of the city. It stands out with its colonial external architecture. Highlights includes Italian marble flooring in the living and dining rooms. Built in wardrobes, modular big U shaped kitchen, fancy lights fittings. 2 attached bathrooms and 1 common powder room. Servant room with attached servant washroom. 1 covered car park",2346.0,2100.0,BUY,NoBroker
8a9f99838064be410180654be8885f1f,2.0,2.0,6900000.0,2 BHK Flat  In Sns Kaveri For Sale  In Cox Town,12.9956585,77.6231267,AP,,1100.0,880.0,BUY,NoBroker
8a9f178286e9fd7a0186ea0792ee0291,4.0,3.0,15000000.0,3 BHK Flat  In Raiyaan Splendour For Sale  In Kacharakanahalli,13.018584934639089,77.62725612513121,AP,,1600.0,,BUY,NoBroker
8a9f92a272b6c67d0172b7634f5a4248,3.0,3.0,23872695.0,3 BHK Flat  In Prestige Deja Vu For Sale  In Pulikeshi Nagar,12.9957229,77.6079918,AP,,1815.0,,BUY,NoBroker
8a9fae838c7fda6c018c80922ad94f52,2.0,2.0,9200000.0,2 BHK Flat  In G.r Residency For Sale  In Ulsoor,12.978452,77.626187,AP,"Very close to Metro Station nd MG Road within 1KM , itâs âAâ Khatha property single owner . Ready to move-in .",1270.0,,BUY,NoBroker
8a9fae838c7c6e95018c7d1e1c1d0a76,1.0,2.0,2800000.0,2 BHK Flat  In Taha Residency For Sale  In Rk Taaha Appartmemt,13.0221176,77.61889769999999,AP,,600.0,0.0,BUY,NoBroker
8a9ff7838ae454e3018ae50b7aa4211c,3.0,3.0,14600000.0,3 BHK Flat  In Lewis Glorious A2 For Sale  In Hennur Main Road,13.013906400000002,77.62665040000002,AP,3.5 bhk penthouse with 3 balconies and private terrace ( right to use) available for immediate sale. Peaceful location near to all the major schools and hospitals. Manyata tech park is around 8 kms.,2027.0,1470.0,BUY,NoBroker
8a9fd3b38691ae06018691c6755410a8,9.0,4.0,27000000.0,4+ BHK Flat  For Sale  In Kammanahalli,13.014671044647123,77.63557860870772,AP,,5500.0,1200.0,BUY,NoBroker
ff8081815cee353f015cee77eeff1e7a,3.0,3.0,9500000.0,3 BHK Flat  In Brooklyn For Sale  In Banaswadi Main Road .jai Bharath Nagar,13.0010582690798,77.62996182400434,AP,"This is unfurninshed house & its BDA property with 3 units of 1bhk & its not 3bhk complete house its a building with 3 units & its completely clear titles
Ground Floor 1 BHK
First Floor 1 bhk
Second Floor 1bhk
The house is semi furnished with wardrobes, It has easy access to market, schools, hospitals, banks and ATM's as well.",1500.0,,BUY,NoBroker
8a9fa782854de33301854e233b702a42,2.0,2.0,5000000.0,2 BHK Flat  In Castle Rock Apartments For Sale  In Malleshwaram,12.999179257439964,77.5973366786308,AP,,850.0,,BUY,NoBroker
8a9fec828686bde901868766dc1431b8,3.0,3.0,25000000.0,3 BHK Flat  In Rafeeq Enclave For Sale  In Pulikeshi Nagar,12.99779622677273,77.61479347760087,AP,,2650.0,,BUY,NoBroker
8a9f922d745ca5650174633156c30dd8,2.0,2.0,5000000.0,"2 BHK Flat  In Classic Paradise  For Sale  In B Channasandra, Kasturi Nagar",13.0098015094522,77.65996400266886,AP,,1052.0,,BUY,NoBroker
8a9fae838c7c6e95018c7ca792102ae4,3.0,3.0,25000000.0,"3 BHK Flat  In Arranmore Apartment, Pulikeshi Nagar For Sale  In Pulikeshi Nagar",12.9941797,77.6113226,AP,Huge property in a highly valuable locality up for sale with railway station bust stop church temples mosque schools collages hospitals and many more in less than a kilometer radius!!,2780.0,2209.0,BUY,NoBroker
8a9fba827ab9b6ed017ab9f851151a0f,2.0,3.0,8500000.0,3 BHK Flat  In Andrabies Sappire For Sale  In Pulikeshi Nagar,12.999106308307788,77.6123459895378,AP,"Get a 2 BHK in Pulikeshi Nagar for sale at a very reasonable price, and without brokerage. This North facing home is over 650 sqft. & is in a convenient location. Situated on the 3rd floor this home can comfortably serve your parking space for bike needs.

If you are looking for a home with security, this home is just right for you.--",1400.0,,BUY,NoBroker
8a9fb8827d50c245017d50e5099a13fd,2.0,2.0,7000000.0,2 BHK Flat  In Andarabi Sappire For Sale  In Pulikeshi Nagar,12.999106,77.612346,AP,,1000.0,0.0,BUY,NoBroker
8a9f85827e045bf9017e0492964c1748,1.0,1.0,3700000.0,1 BHK Flat  In Andrabies Sappire For Sale  In Pulikeshi Nagar,12.999183623063772,77.61238611351304,AP,,550.0,,BUY,NoBroker
8a9fa73e8171c2ad0181720430a2240f,2.0,2.0,8500000.0,2 BHK Flat  In N G Enclave For Sale  In Dodakattappa,12.977699530136425,77.62701829511593,AP,2 BHK,852.0,,BUY,NoBroker
8a9f94827c3b4f34017c478f7457557c,2.0,2.0,6500000.0,2 BHK Flat  In Nawab Residency  For Sale  In Shivaji Nagar,12.986956620871124,77.60192700411693,AP,,1000.0,950.0,BUY,NoBroker
8a9fa4838c6dd3fe018c6deefcf10d6f,2.0,2.0,5200000.0,2 BHK Flat  In Castle Rock For Sale  In Srirampura,12.999189711330803,77.59764781485583,AP,12 years old apartment 2 bhk and wall droop covered kitchen and looking good and all facilities near by Malleshwaram circle,850.0,220.0,BUY,NoBroker
8a9fae838c76d73a018c76f00d141159,2.0,2.0,9000000.0,"2 BHK Flat  In Sahasra Grand Apartments, Kalyan Nagar For Sale  In Kalyan Nagar",13.030160207545482,77.64356153680531,AP,,1215.0,,BUY,NoBroker
ff8081816c0e7c47016c0ed2836771d1,2.0,2.0,4200000.0,2 BHK Flat  In Krishneel Kuteer Apartments For Sale  In Banaswadi,13.007351,77.641003,AP,,850.0,,BUY,NoBroker
8a9fe882847071bd018470c01cc33ec6,3.0,3.0,33000000.0,3 BHK Flat  In Bearys Acacia Lakeview Apartments For Sale  In Sivanchetti Gardens,12.984692,77.615726,AP,,2075.0,,BUY,NoBroker
8a9ffd82883c7af401883ca117b31548,3.0,3.0,15500000.0,3 BHK Flat  In Ah Heights  For Sale  In Kalyan Nagar,13.023929582921202,77.64310088095093,AP,,1625.0,,BUY,NoBroker
8a9ffa8287970af2018797a2fca41fea,3.0,3.0,12000000.0,"3 BHK Flat  In Oracle Residency For Sale  In Ashirvad Colony,horamavu",13.0238296,77.66121849999999,AP,,2000.0,,BUY,NoBroker
8a9f9f838c2ebe92018c300cc05b1920,3.0,3.0,9500000.0,3 BHK Flat  In V1 Constructions For Sale  In Narayan Pillai Street,12.9870464,77.6094095,AP,,1200.0,1050.0,BUY,NoBroker
8a9f91b57540f632017544d2972467a3,2.0,2.0,6500000.0,2 BHK Flat  In Smr Smr Vinay Estates For Sale  In Horamavu,13.019191597731105,77.65712913633446,AP,,1000.0,,BUY,NoBroker
8a9fb982818701ac018187a118e8477c,3.0,3.0,26500000.0,3 BHK Flat  In Cavalry Court For Sale  In Cox Town,12.989310578545645,77.61372442219798,AP,,2500.0,,BUY,NoBroker
8a9f87868c7066ae018c719026bd4236,2.0,2.0,5500000.0,2 BHK Flat  In Golden Valley Breeze Apartment For Sale  In Kalyan Nagar,13.0261854,77.6418319,AP,,1250.0,,BUY,NoBroker
8a9fac838c6d99ad018c6dd3379c2613,3.0,2.0,4800000.0,2 BHK Flat  In Jr Arcade For Sale  In Kalyan Nagar,13.03192286199278,77.64387489070603,AP,,1200.0,,BUY,NoBroker
8a9fbd827fa812bd017fa8745aaa2242,2.0,2.0,10000000.0,2 BHK Flat  In Renuka Enclave For Sale  In Kacharakanahalli,13.020606987636857,77.63363387202338,AP,"Close to Kammanahalli Main Road, easy access to Ring Road, Next to CMR School.  Walking distance from main shopping street and eateries.",1110.0,,BUY,NoBroker
8a9ff6838abfd0ee018ac085fa245266,3.0,3.0,15000000.0,3 BHK Flat  In Coles Enclave For Sale  In Pulikeshi Nagar,12.997215897357332,77.61089231818914,AP,"Right on the main road one building away from reliance fresh store and the flat has 3 ACâs 3 geyser in all the washrooms with water fittings, wardrobes in the rooms, also with one car parking one bike parking",1500.0,1350.0,BUY,NoBroker
8a9fae838c52cbb2018c535ccac701ba,2.0,2.0,9000000.0,2 BHK Flat  In Cosmos Villa For Sale  In Banswadi,13.0143053,77.6532993,AP,,1000.0,1160.0,BUY,NoBroker
ff808181576a8b6801576a8efd2800c9,2.0,2.0,7000000.0,2 BHK Flat  In Rekhi Brooklyn For Sale  In Maruthi Sevanagar,13.001148537035364,77.63000878172362,AP,"The house is Semi furnished with wardrobes. It has easy access to market, schools, hospitals, banks and ATM's as well.",1222.0,,BUY,NoBroker
8a9fe18288b849ee0188b8ac8174426e,2.0,2.0,11000000.0,2 BHK Flat  In Rafeeq Enclave    For Sale  In  Pulikeshi Nagar,12.9984122,77.613942,AP,,1250.0,,BUY,NoBroker
8a9fdd8287db47c70187db6cb449164f,2.0,2.0,10000000.0,2 BHK Flat  In Sindhya Garden For Sale  In Lingarajapuram,13.011547489010477,77.63211603764982,AP,available from today,1165.0,,BUY,NoBroker
8a9fb5827d8967dc017d89cd4a124238,6.0,4.0,16000000.0,4+ BHK Flat  In Standalone Building   For Sale  In Pulikeshi Nagar,12.999415378056511,77.61977790009851,AP,"1bhk 2 unit , 2bhk 2unit . 4bhk",2000.0,,BUY,NoBroker
8a9f9f8277ce5b6d0177ce98be931c9f,2.0,2.0,6500000.0,2 BHK Flat  In Aditya Sunshine Apartment For Sale  In Banswadi,13.0059167,77.64915239999999,AP,,1138.0,0.0,BUY,NoBroker
8a9fa4838c3e3167018c3e9af8ab47e9,2.0,2.0,11000000.0,2 BHK Flat  In Purva Park Apartments For Sale  In Cox Town,12.999211372209592,77.62739842572553,AP,A property in a great locality with lush greenery and abundance if air and light,1125.0,1100.0,BUY,NoBroker
8a9ff3858a067432018a078192874535,3.0,3.0,17200000.0,3 BHK Flat  In Purva Iris For Sale  In Cox Town,12.99920279782865,77.628651894629,AP,,1681.0,1428.0,BUY,NoBroker
8a9f84848c518565018c5248b8b768e3,4.0,4.0,11000000.0,4 BHK Flat  In Standlone Building . 4 One Bhk Flats For Sale  In  Benson Town,13.001857059566031,77.60256589503364,AP,,2600.0,0.0,BUY,NoBroker
ff8081815b43d3f5015b46bd0c4848c2,4.0,4.0,55000000.0,4 BHK Flat  For Sale  In Shivaji Nagar,12.987643,77.598555,AP,,2188.0,,BUY,NoBroker
8a9f9c82855264c7018552dfd9845494,3.0,4.0,50000000.0,4 BHK Flat  In Regency Flamingo For Sale  In Benson Town,12.996095359495689,77.60293118655682,AP,"Ideally located on a quiet street in a good location of an upscale neighborhood only 2 KM from MG Road.
Constructed by Ashed Properties to superlative standard using quality materials with all modern conveniences provided. Balcony  space of 347 S.F.",3585.0,2531.0,BUY,NoBroker
8a9fa0838c5dba09018c5e0eb7d537b0,3.0,3.0,10000000.0,3 BHK Flat  In Sycon Cresida Apartments For Sale  In Horamavu Main Road,13.026238351289518,77.66060303896666,AP,,1430.0,,BUY,NoBroker
8a9fe382861fbe9a018620182bb5416b,2.0,3.0,13000000.0,"3 BHK Flat  In Vineyard Residency, Cox Town For Sale  In Cox Town",12.993921931558006,77.62458968206963,AP,3 BHK with 2 Bathrooms and 3 balconies. Two bed rooms have one side wall cabinet - floor to ceiling.  All rooms 10 feet ceiling height. Gated Community. First owner selling the flat.,1850.0,,BUY,NoBroker
8a9fad838c5bcdd0018c5d03fcec3363,2.0,3.0,11000000.0,3 BHK Flat  In Aftab Amruth Apartment For Sale  In Pulikeshi Nagar,13.001757126062977,77.61382752546574,AP,,1100.0,,BUY,NoBroker
8a9fac838c47f6a7018c4838ecd33115,2.0,3.0,9500000.0,3 BHK Flat  In Slv Sunshine For Sale  In Banaswadi,13.015070225306069,77.65900247721966,AP,,1400.0,,BUY,NoBroker
8a9fce838383726601838388c3c40d23,2.0,2.0,6200000.0,2 BHK Flat  In Shakthi Pride Apartments For Sale  In Kasturi Nagar,13.008340005489734,77.6590713358878,AP,,1600.0,1150.0,BUY,NoBroker
8a9f9a838c1a2a46018c1a412add0d8c,2.0,2.0,6700000.0,2 BHK Flat  In Vm Meadows For Sale  In Horamavu,13.0248447,77.6604381,AP,,1030.0,0.0,BUY,NoBroker
8a9f97827b86b0a2017b86dcf9011407,2.0,2.0,8600000.0,"2 BHK Flat  In Sims Manor, Hbr Layout For Sale  In Hbr Layout",13.0219781574893,77.62760093250616,AP,,1075.0,920.0,BUY,NoBroker
8a9fab838c593afc018c59b9227d437e,5.0,4.0,43000000.0,4 BHK Flat  In Premier Five For Sale  In Spencer Road,12.9958379,77.61045279999999,AP,"Duplex 4 BHK apartment with attached toilets, servant quarters and 500 sq ft of garden area too. Top quality building",3650.0,,BUY,NoBroker
8a9fb1838c0aba68018c0b49a39c6989,2.0,2.0,5000000.0,2 BHK Flat  In Hs Homes For Sale  In Horamavu,13.021211610394252,77.65712082522644,AP,,1000.0,,BUY,NoBroker
8a9fa2848a53ce14018a54de10212999,2.0,2.0,4950000.0,2 BHK Flat  In Bsr Splendour Park For Sale  In Horamavu,13.019059965562455,77.6613851762488,AP,,1025.0,885.0,BUY,NoBroker
8a9fa1827b3ef75c017b3f1d4ff00e40,3.0,3.0,16500000.0,3 BHK Flat  In Vineyard Residency For Sale  In Cox Town,12.9939921,77.6245491,AP,,1677.0,0.0,BUY,NoBroker
8a9faf838c44a17d018c472b96ee771f,2.0,2.0,13000000.0,2 BHK Flat  In Rakesh Fantasy Garden For Sale  In Bennigana Halli,13.0062012,77.65838169999998,AP,This 2bhk Property is at vicinity to upcoming metro of Kasturi Nagar in a nice calm residential locality and 200m from orr very easily accessible to reach either Manyata or white fileld and marathalli. bayyapanhalli metro is 2km Gopalan mall at 4km and a highly reputed society in Kasturi Nagar accessible to all shops groceries banks at one step away. Upcoming Kasturi Nagar metro will be at 500m walk,1359.0,,BUY,NoBroker
ff8081815eed20b7015ef01ad667478d,1.0,1.0,5500000.0,1 BHK Flat  In Krishneel Kuteer Apartments For Sale  In Banswadi,13.007575771714237,77.6396181037048,AP,,527.0,,BUY,NoBroker
ff80818167fd3dea0167fe6df16c29d6,2.0,3.0,10000000.0,3 BHK Flat  In Sm Signature For Sale  In Horamavu,13.0191657,77.6603875,AP,,1397.0,,BUY,NoBroker
8a9fe58286d4a1e70186d4f08d2b3c06,3.0,3.0,4000000.0,3 BHK Flat  In Rk Spring For Sale  In Shivajinagar Bus Station,12.983461,77.603126,AP,,1200.0,800.0,BUY,NoBroker
8a9fd282865a530701865a7edc3719fd,2.0,2.0,5500000.0,2 BHK Flat  In Frontline Woods For Sale  In Kalyan Nagar,13.0226189,77.6508419,AP,,1200.0,1150.0,BUY,NoBroker
8a9fb6838c1f534f018c1fe1eb8d6e23,3.0,2.0,11500000.0,2 BHK Flat  In Munavar Apartment  For Sale  In Shivaji Nagar,12.990246582737068,77.60395782086675,AP,,1600.0,,BUY,NoBroker
8a9ff88284dde21f0184de1ff98418ea,1.0,2.0,2325000.0,2 BHK Flat  In R K Saniya Apartment For Sale  In R.k. Saniya Apartment,13.013236748580733,77.62033872306347,AP,hi i want to sell my 2 bhk apartment located in pillana garden Rk saniya apartment kindly feel free to contact for more details.,600.0,520.0,BUY,NoBroker
8a9fa0838c4dbf2a018c4eb047a24974,5.0,4.0,55000000.0,4+ BHK Flat  In Warisul Madina  For Sale  In Shivaji Nagar,12.982789986165727,77.60214632579508,AP,,2000.0,,BUY,NoBroker
8a9f91747412146f0174154eb60a7f9f,2.0,2.0,7500000.0,2 BHK Flat  In Bhanu Pride Apartments For Sale  In Kacharakanahalli,13.0205192680625,77.63150526511649,AP,Dinning hall.,1200.0,1180.0,BUY,NoBroker
8a9f82b075b6182a0175b63b064e10fb,3.0,3.0,9600000.0,3 BHK Flat  In Sai Govind Residence For Sale  In Hennur,13.025248,77.647612,AP,,1540.0,,BUY,NoBroker
ff8081816620dbbd016624719c7759ce,2.0,2.0,7500000.0,2 BHK Flat  In Pvr Towers For Sale  In Maruthi Sevanagar,12.998575457645542,77.62576000049984,AP,"The house is semi furnished with wardrobes in all the rooms. It has easy access to market, schools, hospitals, banks and ATM's as well.",1073.0,,BUY,NoBroker
8a9feb838a77b7a6018a788d1ac30701,2.0,3.0,13000000.0,3 BHK Flat  In M J Nest Apartment For Sale  In Frazer Town,12.997454837881028,77.61266482703316,AP,"Located in the centre of the city which Frazer town close to M.G.Road, Brigade road and Commercial Street.",1350.0,,BUY,NoBroker
ff8081816822b9100168235fd9757956,4.0,4.0,9000000.0,4+ BHK Flat  For Sale  In Lingarajapuram,13.00907573726836,77.63396423917845,AP,"total 5bhk house and full building is alivable for sale
The house is semi furnished. It has easy access to market, schools, hospitals, banks and ATM's as well.",2030.0,,BUY,NoBroker
8a9fc68a8a5e1a98018a5ec58ba04770,2.0,2.0,6000000.0,"2 BHK Flat  In Rk Apartment  For Sale  In Marappa Garden, J.c.nagar",13.0046962,77.5979969,AP,,1200.0,950.0,BUY,NoBroker
8a9ffa8389de82c20189df3a68480986,2.0,2.0,7641900.0,"2 BHK Flat  In Avs Monarque For Sale  In Hbr Layout 2nd Block, Stage 1, Hbr Layout",13.0232305,77.6285537,AP,"prelaunch project with prelaunch price with all deposits included and GST only registeration is extra .. 
only for the first two bookings
if complete cheque payments no loan price will change.. as per the payment..",1213.0,1010.0,BUY,NoBroker
8a9fc68287fa2d030187fa53a8b2178e,3.0,3.0,17300000.0,3 BHK Flat  In Shanta Sriram Thipu Residency For Sale  In Sivanchetti Gardens,12.9838392,77.6147774,AP,,1860.0,1581.0,BUY,NoBroker
8a9fb4827de143e3017de192c1602b3d,1.0,1.0,5000000.0,1 BHK Flat  In Linea Hibiscus For Sale  In Banaswadi,13.0090602,77.64571509999999,AP,,668.0,,BUY,NoBroker
8a9fa2838c3e3152018c3f1cd8db2530,2.0,2.0,6500000.0,2 BHK Flat  In 9th Avenue Apartments For Sale  In Horamavu,13.0222025,77.6540151,AP,,1350.0,,BUY,NoBroker
8a9f92827cf890d5017cf90860d14ce0,2.0,2.0,5500000.0,2 BHK Flat  In R K Pearl Apartment For Sale  In Jcr Layout,13.006321840774795,77.59840155116991,AP,,1250.0,950.0,BUY,NoBroker
8a9fa4827fb4f295017fb599a2a46ce3,3.0,3.0,10920000.0,3 BHK Flat  In S R Pride For Sale  In Dodda Banaswadi,13.01668304658512,77.65161763876677,AP,"Spacious 3 BHK. 1,560 sq ft built up area plus one carpark in stilt area. Has a view of the 100 ft road from balcony. Have Katha certificate  and Katha extract. Construction completed in  2012.  374 sq ft of undivided share. Just 700 meters from HRBR metro station. Walkable distance.",1560.0,,BUY,NoBroker
8a9fad828456b1e2018456d1d75415ba,7.0,4.0,9000000.0,4+ BHK Flat  In Standaone Building  For Sale  In Lingarajapuram,13.008473,77.62318,AP,The house is situated in dead end. There is no worry for parking as you will have enough space for parking.,2900.0,1800.0,BUY,NoBroker
8a9f96828016cb6d018016ff83a618c7,2.0,2.0,7300000.0,"2 BHK Flat  In Nandi Panorama, For Sale  In Banaswadi",13.01282276791244,77.65714478041248,AP,"1. Kavery Water and Bore Water are available.
2. Very Near (walkable distance) to Outer Ring Road.
3. very Near to Metro station.
4. All other facilities like Temple, Park & martket  all are near to the apartment.",1026.0,,BUY,NoBroker
8a9fb282798456190179847d73e20f96,2.0,2.0,7000000.0,2 BHK Flat  In Artforms Inspiron Apartments For Sale  In Kasturi Nagar,13.007011739318225,77.6582444,AP,,1100.0,,BUY,NoBroker
8a9f96838c3e3149018c3eb904005d04,1.0,1.0,500000.0,1 BHK Flat  In Standalonebuilding For Sale  In  Cox Town,12.998497005261632,77.62938657731553,AP,,500.0,,BUY,NoBroker
8a9fac838b364377018b371debbf6209,2.0,3.0,18000000.0,3 BHK Flat  In Aquaforte Homes For Sale  In Ulsoor,12.982484156467573,77.62305848174233,AP,,1425.0,,BUY,NoBroker
8a9f9f878c3ce671018c3d6391462639,10.0,4.0,25000000.0,4+ BHK Flat  For Sale  In Jeevanahalli,13.011685,77.613347,AP,,7500.0,,BUY,NoBroker
8a9fc482814d8d6601814da43fac0bda,2.0,2.0,7400000.0,"2 BHK Flat  In Iconic Regency, Kacharakanahalli For Sale  In Kacharakanahalli",13.0168776,77.6311539,AP,,1050.0,,BUY,NoBroker
8a9fa883862fd58401863046db0b4d78,2.0,2.0,8500000.0,2 BHK Flat  In The Post Card By Emaara For Sale  In Pulikeshi Nagar,12.9970483,77.61440759999999,AP,"THE POST CARD BY EMAARA IS A BOUTIQUE APARTMENT CONSISTING OF ONLY 5 (2bhks) in a super exclusive residential area of bangaloreâs prime location in coles road Frazer Town it will have a shindlerâs elevator,premium fixtures and the best quality of construction do book your place the price is just for a limited time",900.0,840.0,BUY,NoBroker
8a9fea8389c0e6040189c0f377100521,3.0,3.0,8600000.0,"3 BHK Flat  In Sri Balaji Residency, Banaswadi For Sale  In Banaswadi",13.015987,77.656167,AP,"Beautifully and tastefully done 3 BHK in Banaswadi, conveniently located with all basic and luxurious amenities within 500 meters like Cloudnine Hospital,Bus stand,Baldwin High School, Horamavu Signal,restaurant,local market, temple,ATM,petrol pump.
Close to Manyata Tech Park,KR Puram Railway Station,Bagmane Tech Park,Byapanhalli Metro station,Indiranagar,Gopalan and Orion East mall.",1650.0,1600.0,BUY,NoBroker
8a9f99858c13b3da018c144caaaf3c02,1.0,2.0,4000000.0,2 BHK Flat  In Aj Apartment For Sale  In  Shivaji Nagar,12.982121860380811,77.60823772753432,AP,,525.0,,BUY,NoBroker
8a9fbf8276894d9d017689aa42192011,3.0,3.0,8500000.0,3 BHK Flat  In Balaji Elite Apartments Ashirwad Colony Horamavu For Sale  In Horamavu,13.0270608,77.66189349999999,AP,,1550.0,1470.0,BUY,NoBroker
8a9ff3838a65b1aa018a669ff3967b05,3.0,3.0,8200000.0,"3 BHK Flat  In Khan For Sale  In S K Garden, Chinnapa Garden, Benson Town",13.0052003,77.6061877,AP,,1350.0,1250.0,BUY,NoBroker
8a9fbe838212b1fe018213105628098e,2.0,2.0,5500000.0,"2 BHK Flat  In Indra Towers Apartments For Sale  In Horamavu Banaswadi, Horamavu",13.021764488366864,77.65380572698618,AP,,1260.0,1010.0,BUY,NoBroker
8a9fe682888bba3501888c3787ec49ca,4.0,4.0,18000000.0,4 BHK Flat  In Sarala Vellu Illam For Sale  In Lingarajapuram,13.012998086767926,77.62617900000001,AP,,1600.0,,BUY,NoBroker
8a9ff38389f31c450189f35fa44c39b9,2.0,3.0,7200000.0,3 BHK Flat  In Daffodils For Sale  In Horamavu,13.027760767798622,77.66182879629517,AP,"This apartment is 1 KM away from outer ring road,  Banaswadi. The balcony is main road facing and in close proximity to the shops and market. It is right in front of BBMP office, Horamavu. Planning to sell as no more plan of staying in Bangalore. Presently, the property is occupied by the tenant.",1250.0,,BUY,NoBroker
8a9fbc838aca1e03018acac209ac394e,1.0,2.0,3000000.0,2 BHK Flat  In Rk Sania Apartment For Sale  In Kadugondanahalli,13.027237,77.634121,AP,"A gated community, unfurnished apartment with parking facilities and adjacent to all urban facilities.",600.0,513.0,BUY,NoBroker
8a9fa88276df87a40176dfc37f860257,3.0,3.0,9000000.0,3 BHK Flat  In Srinivasa Mension For Sale  In Hbr Layout,13.017879677760671,77.6499831870635,AP,,1556.0,,BUY,NoBroker
8a9f96838c33390c018c33b433b25904,2.0,2.0,8000000.0,2 BHK Flat  In Shakeeb Garden For Sale  In Hbr Layout,13.022746640804364,77.62830942250642,AP,,1200.0,1100.0,BUY,NoBroker
8a9fff8288e8440d0188ea77e1df2db8,2.0,2.0,4500000.0,"2 BHK Flat  In Shahi Mansion For Sale  In Pillanna Garden, Stage 3, Kadugondanahalli",13.0100273,77.61852859999999,AP,,740.0,0.0,BUY,NoBroker
ff80818165b3cd360165b4164dcc2127,2.0,2.0,6500000.0,2 BHK Flat  In Kumar Krupa For Sale  In Maruthi Sevanagar,13.001064094278934,77.63939330421489,AP,,1149.0,,BUY,NoBroker
8a9fac848c2ecd1f018c2f2990ee50c6,7.0,4.0,9500000.0,4+ BHK Flat  For Sale  In Banaswadi,13.00737108256307,77.6408105669691,AP,,2200.0,,BUY,NoBroker
8a9f8f838c2998b2018c2a75e1503da3,1.0,,1800000.0,1 RK Flat  In Kumar Krupa For Sale  In Maruthi Sevanagar,13.001064,77.639393,AP,,400.0,,BUY,NoBroker
8a9f92858c2d73b3018c2df560b92e99,3.0,3.0,6000000.0,3 BHK Flat  In Vm Meadows Apartment For Sale  In Horamavu,13.0276469,77.66142450000007,AP,,1500.0,560.0,BUY,NoBroker
8a9fe682888b034401888b55d6cd3422,2.0,2.0,3200000.0,2 BHK Flat  In Rk Comfort  For Sale  In Lingarajapuram,13.0080197,77.62216289999999,AP,,600.0,550.0,BUY,NoBroker
ff8081816aa26dc2016aa58113be375f,4.0,3.0,50000000.0,3 BHK Flat  In Prestige Benson Court For Sale  In Benson Town,12.9971159,77.60490419999996,AP,"The house is fully furnished with wardrobes, modular kitchen, TV, washing machine, microwave and water purifier ,fridge,oven . It has easy access to market, schools, hospitals, banks and ATM's as well.",3500.0,,BUY,NoBroker
8a9fde82877d4b7201877dad44800ec7,2.0,2.0,6500000.0,2 BHK Flat  In Yd Lotus Apartments For Sale  In Kalyana Nagar Post,13.022675622603408,77.65716197483405,AP,"Semi furnished, East facing and Vaastu-compliant, well-ventilated and spacious 2bed2bath apartment with separate utility room and dedicated parking space which can fit car and bike. Home is on the 3rd floor and is over 1153 sq ft. Closer to horamavu bus stand. Society have facility for Visitor Parking, 24/7 security , power back-Up, cctv camera, lift, housekeeping, intercom, community hall, gym.",1153.0,990.0,BUY,NoBroker
ff80818168f020140168f05827a41e8f,5.0,4.0,11000000.0,4+ BHK Flat  For Sale  In Banaswadi,13.00947,77.643562,AP,"Ground- 2 BHK
1 st floor- 1 2BHK and 1 1BHK  house.
Second floor- 1 1bhk and 1 hall kitchen",1980.0,,BUY,NoBroker
8a9f84888c24ad4f018c24d6c0601c39,4.0,4.0,11000000.0,4+ BHK Flat  In Standalone Apartment  For Sale  In Banaswadi,13.003224,77.635938,AP,,1700.0,,BUY,NoBroker
8a9feb838a872b1f018a87c5587c3982,4.0,3.0,20000000.0,3 BHK Flat  In Inclover Rio Grande For Sale  In Frazer Town,13.000096930519812,77.61850208044052,AP,,1619.0,,BUY,NoBroker
8a9f0f82884622870188464871be038d,8.0,4.0,18000000.0,4+ BHK Flat  In Dhanalakshmi Nilaya For Sale  In Kammanahalli,13.011521170382265,77.63966117682429,AP,"ground 1bhk 1unit, 2bhk 1unit, 1st floor 1bhk 1unit, 2bhk 1unit , 2nd floor 1bhk 1unit, 2bhk 1unit.. 3rd floor 1rk 1unit.",2285.0,,BUY,NoBroker
8a9f9333759ddb170175a27032ba11e3,1.0,1.0,3500000.0,1 BHK Flat  In Aj Muneera Enclave For Sale  In Lingarajapuram,13.008392800000005,77.62575889447749,AP,"The flat is at decent location, (1bedroom, Hall, Kitchen & balcony) with lift & security guard facility, constructed on 550 sq ft. with kitchen cabinets & wardrobes in the bedroom, fully secured. with 24 hours water supply. it also have 2 wheeler parking facility. The flat has all superior quality fitting.",550.0,,BUY,NoBroker
8a9f91a18c249cdd018c256146bb0de7,3.0,3.0,41250000.0,3 BHK Flat  In Fair Haven Apartments For Sale  In Ulsoor,12.987649,77.6171428,AP,,2750.0,,BUY,NoBroker
8a9fab838c1a2a3c018c1a7d39993c1f,5.0,4.0,22500000.0,4 BHK Flat  In Harmain Hyder Apartments  For Sale  In Masjid-e-usmania,12.9975171,77.6041791,AP,,2370.0,,BUY,NoBroker
8a9f93906fa754e1016faed090a05b18,4.0,3.0,25000000.0,3 BHK Flat  In Grace Villa For Sale  In Pulikeshi Nagar,13.000894714986584,77.61571938657762,AP,,2340.0,,BUY,NoBroker
8a9f0a858ab1e7e9018ab299133e763c,2.0,2.0,7500000.0,2 BHK Flat  In Loyality Mansion For Sale  In Cooke Town,13.006182279969543,77.6234663228859,AP,,990.0,0.0,BUY,NoBroker
8a9fb7838c23f610018c242b8b62291c,3.0,3.0,13000000.0,3 BHK Flat  In Keerthi Royale For Sale  In Banswadi,13.0119571,77.64713069999993,AP,,2200.0,,BUY,NoBroker
8a9f9a82783e5dce01783e8d56650ebd,2.0,2.0,5000000.0,2 BHK Flat  In New Golden Apartment For Sale  In Lingarajapuram,13.0130399,77.62617900000001,AP,"Individual EB meter
A khata
No car parking
Situated in centre city
No litigations 
Proper documentation
Kaveri water supply
Corporation water
Security service
Planned approved layout available 
Near by Churchâs, temple and mosques 
1km away from Banaswadi railway station
3km away from Orion East Mall
5km away from Manyata tech park",900.0,800.0,BUY,NoBroker
8a9fc1827efe20e8017efe4dfb400dcb,1.0,2.0,6000000.0,2 BHK Flat  In S.m  One Orchids For Sale  In  Pulikeshi Nagar,12.996962342757046,77.61134531949533,AP,"2 bhk, Hall, Kitchen & single bath room& open veranda/sit out with single bath room.",650.0,550.0,BUY,NoBroker
8a9faa838c1b766e018c1bda97ee1f3d,2.0,3.0,17500000.0,"3 BHK Flat  In Sahithi%27s Daisy Apartment, Banswadi For Sale  In Banswadi",13.0144998,77.6611357,AP,"This 1450 Sq Ft three bedroom flat is for sale. 
This flat is in a convenient location with every type of facility available within walking distance. Situated on the 3rd floor this home can comfortably serve your parking facility for car needs.
Space for kids to play is available. 
If you are looking for a home with security facility, this home is just right for you",1450.0,,BUY,NoBroker
8a9fcea084801c490184808e711c4f1f,7.0,4.0,20000000.0,"4+ BHK Flat  In Standalone  Building For Sale  In  Halasuru,",12.981216591268366,77.6247376785736,AP,1bhk 5unit and 2bhk 1unit,2600.0,,BUY,NoBroker
ff8081815c7841a0015c7847bbcb00e2,2.0,2.0,7000000.0,2 BHK Flat  In Davis Habitat For Sale  In Richards Town,13.0064246974889,77.61327713727951,AP,"The house is semi furnished with wardrobes, secured building, power backup, lift. It has easy access to market, schools, Â hospitals, banks and ATM's as well.",1044.0,,BUY,NoBroker
8a9fb5827ceee962017ceeed044100ca,2.0,2.0,7500000.0,2 BHK Flat  In Tejjaan Elite For Sale  In Banasawadi,13.0103761,77.6481944,AP,"independent 2bhk house for sale near ITC infotech

very close to all major landmark
walkable to Orion avenue mall

house is seminfurnished with geysers light fan etc 

close to ATM bandeau and byappanahali railway station",1200.0,1100.0,BUY,NoBroker
8a9fb6827e0acc40017e0b169b412507,1.0,2.0,4200000.0,2 BHK Flat  In Doctors Apartment For Sale  In  Kasturi Nagar,13.00574686395976,77.66098693190764,AP,,997.0,810.0,BUY,NoBroker
8a9fa5838c058bbd018c06c142605945,3.0,4.0,15000000.0,4 BHK Flat  In Harmony Apartment  For Sale  In Kadugondanahalli,13.017015267898026,77.61829368327675,AP,,2100.0,,BUY,NoBroker
8a9fad838c18db36018c19593a412a73,2.0,2.0,6200000.0,2 BHK Flat  In Sri Sai Enclave For Sale  In Horamavu,13.02206951117482,77.65550251906139,AP,,1070.0,,BUY,NoBroker
8a9fa68283635d7a0183637b93e40bb6,3.0,3.0,16500000.0,3 BHK Flat  In Green Space Symphony For Sale  In  Pulikeshi Nagar ,13.00067300765755,77.61660559999999,AP,"Selling Points:
- Lift in building
- Proximity to Mosque Road overbridge
- Above supermarket
- Above clinic
- Vibrant restaurant scene on M.M. Road and Mosque Road
- Proximity to Cox Town Market
- Proximity to Bangalore East Railway Station
- Proximity to numerous area schools
- Next door to post office (Frazer Town Post Office)",1850.0,1500.0,BUY,NoBroker
8a9f97838bf4cdcb018bf4e676c8036f,2.0,2.0,7500000.0,2 BHK Flat  In Pratham Apartment For Sale  In Pratham Apartment,13.024413,77.6491346,AP,,1025.0,950.0,BUY,NoBroker
8a9fe18284cc65110184cc9af09f2865,4.0,4.0,35000000.0,4 BHK Flat  In Metta Residency Duplex With A Large Private Garden For Sale  In Kammanahalli Main Road,13.0230496,77.637269,AP,,1800.0,1440.0,BUY,NoBroker
8a9ff1838997fbff01899816092208bc,2.0,2.0,6400000.0,2 BHK Flat  In Smr Smr Vinay Estates For Sale  In Horamavu,13.019191597731105,77.65712913633446,AP,,1000.0,850.0,BUY,NoBroker
ff8081815292dae7015296b8b6b31d95,2.0,2.0,10500000.0,2 BHK Flat  For Sale  In Jayamahal,13.0000862858671,77.59956169695897,AP,"The house is semi furnished. it is highly ventilated. 24 hours water facility. It has easy access to market, schools, hospitals, banks and ATM's as well.",1000.0,,BUY,NoBroker
8a9fad838c0e953f018c0edb79840db3,3.0,3.0,22500000.0,"3 BHK Flat  In Sena Vihar Apartments, Kalyan Nagar For Sale  In Sena Vihar",13.0194725,77.6385779,AP,"Available for sale 3bhk inside Sena Vihar. AWHO complex. Kammanahalli. Kalyan Nagar.
Excellent location. Price 2.25 CR Non-negotiable.  Brokers excuse. 
With 2 car parks - one open car park and the other closed car park.
Please is non-negotiable so only DIRECT and INTERESTED buyers can contact us.",1545.0,,BUY,NoBroker
8a9f868288665ddd018866fe6a926d1f,2.0,3.0,9700000.0,3 BHK Flat  In Vineyard Garden  For Sale  In Banaswadi,13.01526874678706,77.6562089116568,AP,,1450.0,,BUY,NoBroker
ff8081816aedd607016aef3ec3fe43c6,3.0,3.0,17500000.0,3 BHK Flat  In Dheeraj Manor For Sale  In Ulsoor,12.977018694303071,77.62076403241706,AP,,1900.0,1520.0,BUY,NoBroker
8a9faa838b740fbd018b74bdc35b4899,2.0,2.0,15951000.0,"2 BHK Flat  In Riverstone Chancellor, Sivanchetti Gardens For Sale  In Sivanchetti Gardens",12.984579,77.6135199,AP,"A Semi Furnished 1240 Sq. ft. 2BHK North facing Apartment designed to meet your living in luxury. Wardrobes in Bedrooms, TV Console and Showcases with Modular Kitchen to give you comfort. 1 Car Park with 24/7 Power backup & Water available. 5 mins from Commercial Street and approx. 2 kms. from MG Road Metro Stn. 1.5kms from Ulsoor lake. Market and Grocery available within 100 mtrs from the house.",1240.0,1000.0,BUY,NoBroker
8a9f038288d7d4c50188d8689ffb649e,8.0,4.0,26000000.0,4+ BHK Flat  In Narsima Nelaya Maruthi Savanagar For Sale  In Maruthi Sevanagar,13.002430742139277,77.63259842991829,AP,"ground floor 1bhk , 1st floor 1bhk 2units , 2nd floor 1bhk 2units and 3rd floor  1bhk 2units total 7 units total bulding for sale",4000.0,1150.0,BUY,NoBroker
8a9faa838b6bc6d4018b6bfb84381ca6,2.0,2.0,6500000.0,2 BHK Flat  In Navrathan For Sale  In Banaswadi,13.010508125499488,77.64940171436899,AP,"2BHK available for sale with Clean Papers at Navrathan Apartment, Ex Serviceman Colony Banaswadi, very close of reputed School and Collages, Restaurants , Hospitals.",1179.0,,BUY,NoBroker
8a9fb2838bea88ba018bebcf51113196,2.0,2.0,7000000.0,2 BHK Flat  In Vs Rain Tree For Sale  In Halasuru,12.976679,77.625633,AP,,1100.0,,BUY,NoBroker
8a9fc382886ffa3e01887084df7a575e,2.0,3.0,11500000.0,3 BHK Flat  In Enclave For Sale  In Cooke Town,13.0031678,77.6228252,AP,,1200.0,0.0,BUY,NoBroker
8a9fb78283a461c70183a4b6311f095d,2.0,2.0,12600000.0,"2 BHK Flat  In Gina Living Waters, Kalyan Nagar For Sale  In Kalyan Nagar",13.0277115,77.6386267,AP,"THE PROPERTY IS SITUATED AT KALYAN NAGAR, BEHIND THE OUTER RING ROAD. CLOSED TO SCHOOLS, COLLEGES (ASIAN ACADEMY) INTERNATIONAL BRAND SHOPS. HOSPITALS, SUPER MARKETETC. semi furnished .",1468.0,1250.0,BUY,NoBroker
8a9fbe827f1ef515017f1f86e980177b,2.0,2.0,7000000.0,2 BHK Flat  In Ncn Swasthi For Sale  In Kadugondanahalli,13.0187542,77.63059489999999,AP,,1100.0,,BUY,NoBroker
8a9ffb8289012b75018901fc92d1041f,2.0,2.0,8000000.0,2 BHK Flat  In Daffodil Regency For Sale  In Richards Town,13.003576320139786,77.61400934113921,AP,2-3 months notice period is their for tenents,1050.0,1000.0,BUY,NoBroker
8a9fbc82807f139201807f48651529e7,2.0,2.0,2800000.0,2 BHK Flat  In Davis Road For Sale  In  St.thomas Town,13.006134283632983,77.61399563401937,AP,,550.0,,BUY,NoBroker
8a9f02838a8dff8c018a8e33a1f92a9c,2.0,2.0,15000000.0,2 BHK Flat  In Sns Premnivas For Sale  In Infantry Road,12.982549194234958,77.60166037811852,AP,,1600.0,,BUY,NoBroker
8a9fa0838be55bbc018be66b74e41a8c,3.0,3.0,10500000.0,3 BHK Flat  In United Tulips For Sale  In Banaswadi,13.0064839,77.6495379,AP,All amenities are avilable around the. property Byepanahalli  metro  is   nearby .  Road facing balcony.  power backup avilable.  Fullly secured with closed circuit cameras  and security  watchman.,1520.0,0.0,BUY,NoBroker
8a9fab838c0967fe018c0a2751bd5617,3.0,3.0,12500000.0,"3 BHK Flat  In Sri Balaji Oasis, Horamavu For Sale  In Horamavu",13.0259754,77.6602601,AP,Its a 3 BHK flat(1625 Sqft) with 3 bathroom an d4 Balconies. 2 balconies face swimming pool facing. all 3 sides are fully ventilated as its a corner flat. Our flat does not share any wall with other flats. it is just 900mts from Horamavu mainroad. Also will be close to metro station which will come in Horamavu.,1625.0,,BUY,NoBroker
8a9ff78386c71c950186c73424090895,3.0,3.0,20000000.0,3 BHK Flat  In Amigos Victory For Sale  In Pulikeshi Nagar,12.994749538006271,77.61065729265977,AP,,1610.0,1200.0,BUY,NoBroker
8a9faf827d9df424017d9f962b58201f,2.0,2.0,5500000.0,"2 BHK Flat  In S.s Apartment  For Sale  In 2nd Cross Road, Maruti Sevanagar",13.000625829561365,77.63858243823051,AP,"Fully furnished two bhk apartment for sale @ Dr. s Kumar layout maruthi sevanagar, this apartment is furnished with moduler kitchen, lift facility, car and bike parking in basement, this apartment is situated at third floor of the building, 3 years old construction , this apartment is situated in very calm and neet layout, it is 650 sq ft",850.0,650.0,BUY,NoBroker
8a9fad838c04488d018c047b1672091f,3.0,3.0,38000000.0,3 BHK Flat  In Koncept Ambience Downtown For Sale  In Banaswadi,13.001909,77.63111500000001,AP,,2519.0,,BUY,NoBroker
8a9fd37e83d54de70183d5b20640421f,2.0,2.0,18700000.0,2 BHK Flat  In Prestige North Point Kamanahalli For Sale  In Malabar Gold And Diamonds - Kammanahalli - Bangalore,13.02335,77.63733900000004,AP,"Prestige North Point, Kammanahalli Main Road",1340.0,840.0,BUY,NoBroker
8a9fdc8283b1e6e90183b24d01694724,1.0,1.0,3600000.0,1 BHK Flat  In Frazer Apartments For Sale  In Pulikeshi Nagar,12.9970127,77.6126951,AP,,700.0,,BUY,NoBroker
8a9fb3838c04495c018c0569f5d1372b,1.0,1.0,3000000.0,1 BHK Flat  In Hemanth Avocados Horamavu For Sale  In Horamavu,13.025889559913644,77.66050978018964,AP,,500.0,,BUY,NoBroker
8a9faa8277d381ee0177d3a0496e0c7c,3.0,3.0,15000000.0,3 BHK Flat  In Najm Exotica For Sale  In Frazer Town,12.99698754601665,77.613404,AP,"A beautiful well light spacious 3 bedroom apartment in the heart of the city. It stands out with its colonial external architecture. Vitrified flooring.  Built in wardrobes, TV cabinet, modular kitchen, fancy lights fittings, complete POP done in Living, dining and bedrooms. 2 attached western bathrooms and 1 common Indian bathroom. Balcony in living room. Spacious 180sft covered car and 2 wheeler  it is located nearby bus stop, metro station,hospitals,banks,ATM,schools,colleges.",1350.0,,BUY,NoBroker
8a9f9a838c01aed7018c01e61b961762,2.0,2.0,3900000.0,"2 BHK Flat  In Sm Orchid For Sale  In Horamavu Banaswadi, Horamavu",13.0252116,77.65504419999999,AP,,1106.0,950.0,BUY,NoBroker
8a9fe482836883fc0183692934d96bd7,2.0,2.0,3200000.0,2 BHK Flat  In R.k Comfort Apartments For Sale  In Lingarajapuram ,13.00806151407156,77.62207706931153,AP,,600.0,,BUY,NoBroker
8a9fa8827e3ef016017e3f0a851a0a64,3.0,3.0,9900000.0,"3 BHK Flat  In Sb For Sale  In S K Garden, Chinnapa Garden, Benson Town",13.0048652,77.60671219999999,AP,,1280.0,1200.0,BUY,NoBroker
8a9f90838bfc8870018bfebd471d664c,1.0,2.0,8500000.0,2 BHK Flat  In Sr Sapphire For Sale  In Bennigana Halli,13.001677,77.660724,AP,,1200.0,0.0,BUY,NoBroker
8a9fa4838bff1b2d018bffba39b5313c,4.0,3.0,11000000.0,3 BHK Flat  In Hindu House For Sale  In Banasawadi,13.006013453603574,77.65048875214961,AP,,1800.0,,BUY,NoBroker
8a9fef82851d9bb401851e181c0f135f,1.0,1.0,3400000.0,1 BHK Flat  In Cvsr Subramanyam Paramount For Sale  In Banaswadi,13.010582031471682,77.63721544802378,AP,,584.0,125.0,BUY,NoBroker
8a9fa482803b98d101803c1768ef511d,3.0,3.0,9500000.0,3 BHK Flat  In Libra Enclave For Sale  In Bennigana Halli,13.0117393,77.66076869999999,AP,,1600.0,,BUY,NoBroker
ff80818168ff93150168ffcb803825e7,4.0,3.0,12500000.0,3 BHK Flat  In Keystone Manor Apartments For Sale  In Cooke Town,13.0044637,77.6201288,AP,,2200.0,,BUY,NoBroker
8a9fc88482aabcee0182aac7435c03fa,3.0,3.0,49000001.0,3 BHK Flat  In Vaishnavi Premiere For Sale  In Ulsoor,12.984684192831436,77.61483409251245,AP,,2300.0,1610.0,BUY,NoBroker
ff8081816a9b9dae016a9bd33fff2466,4.0,4.0,30000000.0,4 BHK Flat  In Samitha Oaks For Sale  In Benson Town,12.998004820347427,77.60758683988115,AP,"The house is Semi furnished with wardrobes. It has easy access to market, schools, hospitals, banks and ATM's as well.",2615.0,,BUY,NoBroker
8a9f936c7318338601731dbb5e2b1f8f,3.0,3.0,25000000.0,3 BHK Flat  In King For Sale  In Benson Town,12.9950415,77.60405639999996,AP,"ITS AN SPACIOUS LUXURY WELL ARCHITECTURAL PLANNED APARTMENT HAVING 3   MASTER BEDROOMS, SPACIOUS HALL/SITTING ROOM, DINNING HALL, KITCHEN WITH UTILITY ROOM, 3 BATHROOMS AND 4 SPACIOUS BALCONIES. APARTMENT BUILDING IS IN POSH BANGALORE LOCALITY CLOSELY SITUATED TO CANTONMENT RAILWAY STATION, FRAZER TOWN, VIDHANA SOUDHA, COMMERCIAL STREET AND UPCOMING METRO STATION.
PLEASE NOTE IT'S LOCATED IN THE POSH AREA OF BENSON TOWN .",2000.0,,BUY,NoBroker
8a9fb68387c0e0e40187c11de1b71ed3,2.0,2.0,7500000.0,2 BHK Flat  In Blue Valley Sunshine For Sale  In Kammanahalli,13.0161428,77.63755379999999,AP,,1047.0,,BUY,NoBroker
8a9ffb848aab3fe3018aabfe5e4b4f41,2.0,2.0,22500000.0,"2 BHK Flat  In Regency Splendour, Richards Town For Sale  In Richards Town",13.0035675,77.61919999999999,AP,Spacious 2BHK flat at a serene location. The Builder is known for spacious apartments and have a very high resell value,1600.0,,BUY,NoBroker
ff8081816d6db04f016d6dfac60428a9,2.0,2.0,7900000.0,2 BHK Flat  In Golden Valley Breeze Apartment For Sale  In Kalyan Nagar,13.0261854,77.6418319,AP,"Large 2BHK,1250 Sq.ft area for sale
Kalyan Nagar/ chellekere  behind Royal concord int'l school, on service road adjoining the Ring road, 0 4storyed building, having covers car park& lift.
Banks ,hospitals, shopping malls, Bus stops, showrooms within walking distance.
  Kamanhally commercial area just across road. Int'l airport bus stop, out station buses also
new metro stn under const 60mt away",1250.0,,BUY,NoBroker
8a9fb6878b07f4d2018b08ad3dc26bbb,3.0,4.0,18200000.0,4 BHK Flat  In Innovative Flora For Sale  In Cox Town,12.993861466311367,77.62037744706343,AP,3.5 bhk study room available with an independent duplex room with attached washroom.Also an independent self owned exclusive terrace varanda of 225 sq ft .Located in prime area behind Alloyscious degree College with both borewell and cauvery water.Two independent prime parking lots included.,2225.0,1900.0,BUY,NoBroker
8a9fff898afda61a018afdfff8081725,2.0,2.0,16500000.0,2 BHK Flat  In Windsor Court For Sale  In Millers Road,12.996197,77.600295,AP,A khatha property  apartment for  jayamahal extension and millers road it's ready to move  single owner no documents problem property good maintain,1250.0,200.0,BUY,NoBroker
8a9fd9828814916901881502e00e50af,2.0,2.0,7900000.0,2 BHK Flat  In Nandeep Apartments  For Sale  In Maruthi Sevanagar,13.001054436234512,77.62774866074324,AP,"A well-maintained, quaint, and cosy apartment that is close to schools, malls, and anything you could want. The price is slightly negotiable for the right customer. Please contact me with queries.",1197.0,837.0,BUY,NoBroker
ff808181651322750165184973e859e9,3.0,3.0,6500000.0,3 BHK Flat  In Mayan Sarayu For Sale  In Horamavu,13.0238363,77.65951829999995,AP,"3BHK 1601sqft apartment with three bathrooms and 3 balconies. Complete interiors done. Modular kitchen with chimney and hob. Fitted with fans, lights, bathroom fixtures, geysers etc. It has easy access to market, schools, hospitals, banks and ATM's as well.",1601.0,,BUY,NoBroker
ff80818165cdb44d0165cea180844719,3.0,3.0,30000000.0,3 BHK Flat  In Casa Felix For Sale  In Pulikeshi Nagar,12.991783,77.613787,AP,"It is East facing and Vastu compliant. All Bathrooms are fully equipped with high-quality fittings and geysers. Bedrooms are equipped with large wooden wardrobes. The kitchen is modular with cabinet, Hob Chimney facilities.",2400.0,,BUY,NoBroker
ff8081816bec5e0f016bf07a5c933628,3.0,3.0,14000000.0,3 BHK Flat  In Raiyaan Opel For Sale  In Hbr Layout,13.0194086,77.62853129999999,AP,,1640.0,,BUY,NoBroker
ff80818154c95eba0154cd312b3521a5,2.0,2.0,5500000.0,2 BHK Flat  In Bsr Splendour Park For Sale  In Horamavu,13.0198935,77.6623954,AP,,1100.0,,BUY,NoBroker
8a9f99838bbd726c018bbe64e6a243e0,2.0,2.0,2200000.0,"2 BHK Flat  In  R K Kohinoor Apartment  For Sale  In  Shivaji Nagar, ",12.990442442522976,77.6032054599715,AP,,550.0,,BUY,NoBroker
8a9f9c827ca6d027017ca75bd4fd5c89,2.0,3.0,12500000.0,3 BHK Flat  In Sree Tejjaan Elite For Sale  In Banaswadi,13.0091196,77.6455535,AP,"3 bhk flat apartment with beautiful interiors in prime location in banaswadi with Italian marble flooring false ceiling lights wardrobe with gloss and 2 bathrooms 
very close to manyata tech park and upcoming metro station
100 metre from uttam Sagar hotel and banaswadi fire station 
50 metre from auto stand and bus stop close proximity to all shops and malls",1500.0,1430.0,BUY,NoBroker
8a9fa0838be03567018be24eb99436a0,2.0,2.0,7500000.0,2 BHK Flat  In Ojili Meadows For Sale  In Shivaji Nagar,12.99089246933781,77.60939296334982,AP,2 BHK flat in the heart of the city with premium furniture,1200.0,900.0,BUY,NoBroker
8a9fa1827bc5053b017bc52d467b10a2,2.0,2.0,9000000.0,2 BHK Flat  In Linea Orchid For Sale  In Banaswadi,13.0135167,77.6592368,AP,,1173.0,0.0,BUY,NoBroker
ff8081815eaeb5c4015eb8bcb3591db8,2.0,2.0,5500000.0,2 BHK Flat  In Maruthi Residency For Sale  In Dodda Banaswadi,13.01327182236422,77.65230181041602,AP,"The house is fully furnished with wardrobes. It has easy access to market, schools, hospitals, banks and ATM's as well.",1075.0,0.0,BUY,NoBroker
8a9fc28280bce0210180bd5821d24e51,2.0,2.0,14000000.0,2 BHK Flat  In Tulip Residency For Sale  In Cooke Town ,13.000775638469191,77.62111458019714,AP,,1250.0,1000.0,BUY,NoBroker
8a9fbe8382a953ee0182a9f8f15f2309,2.0,2.0,11000000.0,2 BHK Flat  In Elegant Canterbury For Sale  In Pulikeshi Nagar,12.997798215005764,77.61340440789445,AP,,1125.0,800.0,BUY,NoBroker
ff8081815dc5ebca015dc6060ccf04b3,4.0,4.0,38500000.0,4 BHK Flat  In Emerald Crown For Sale  In Cooke Town,13.001513,77.623154,AP,"This is a small 4 flat apartment corner building with one flat per floor which gives a total independent home like feeling.
4BHK duplex flat with a private deck in the master bedroom and a common terrace, servants room and bath. It has a large living cum dining area with a huge kitchen.
Security with CCTV cameras, Access controlled lobby, 2 car parking space in the basement, gas cylinders space in the basment, 100% back up power, lift,",3600.0,,BUY,NoBroker
8a9f8c838bdc898b018bdd745571609c,5.0,4.0,9500000.0,4+ BHK Flat  In Standalone  Building  For Sale  In Sarvagnanagar,12.986970160293009,77.63467730830031,AP,,3200.0,,BUY,NoBroker
8a9f018287e06d290187e0c4886d32b4,2.0,2.0,2600000.0,2 BHK Flat  In Saha Apartmnet  For Sale  In Kadugondanahalli,13.022663101630974,77.61948974449882,AP,,650.0,500.0,BUY,NoBroker
8a9fe9838aa0ea97018aa1bdfd00682b,3.0,3.0,20000000.0,3 BHK Flat  In Neeladri Mahal For Sale  In Jayamahal,12.9980944,77.60045889999999,AP,,2000.0,1600.0,BUY,NoBroker
8a9fe78286e4ba570186e4d764480e64,10.0,4.0,40000000.0,4+ BHK Flat  For Sale  In Pulikeshi Nagar,12.998743766315666,77.6102739859664,AP,"ground floor 2bhk 1unit , 1st floor 3bhk 1unit , 2nd floor 3bhk 1unit , 3rd floor 3bhk 1unit , 4th floor 3bhk 1unit..",5000.0,,BUY,NoBroker
8a9fe68287acedd60187ad599d62506b,2.0,3.0,10222222.0,3 BHK Flat  In Prabhat Royal Apartments For Sale  In Banaswadi,13.017768859863276,77.65527527563876,AP,"Good Vastu Property situated near to Outer Ring Road, surrounded by Schools, hospitals, Shopping area such as Kalyan Nagar which is 1km from this place . Good transport facilities like BMTC is 200 mts and upcoming Metro connecting to Bangalore Airport is 200 mts. 10 min to Bypanhalli metro station , 10 min to KR Puram Railway station . Plenty of options for schools , colleges , Kindergarten. 15 min travel time to Manyata tech park,  35 min travel to ITPL , Bagmane tech park so centre and residential place for IT professionals as well. Amenities like 24 hrs power backup, CCTV, Party hall, Gym , Security, Kids play area is plus for buyers .  Property situated in 4th floor with good ventilation and huge utility area . Also includes 2 geyser, 5 ceiling fan, Dining table , lighting like tube lights , fancy lights etc.. Sufficient Cauvery water supply along with Bore water is also added advantage. 

If needed more information can contact ***********",1440.0,1342.0,BUY,NoBroker
8a9fb6867da3d500017da4683ad965d2,2.0,2.0,2800000.0,2 BHK Flat  In Saha Residency  For Sale  In Kadugondanahalli,13.021506995016868,77.61910821857823,AP,,550.0,,BUY,NoBroker
8a9fa0838bd20c03018bd26f61534bb6,2.0,2.0,8000000.0,2 BHK Flat  In Vastav Sneha Apartments For Sale  In Indo Asian Academy Group Of Institutions,13.02699889341022,77.63620955276127,AP,,1300.0,,BUY,NoBroker
8a9fab838bd0c246018bd190f9c2103b,2.0,1.0,5500000.0,1 BHK Flat  In Banjara Summit Apartments For Sale  In Pulikeshi Nagar,12.9938618,77.6154249,AP,,720.0,,BUY,NoBroker
ff80818164db4c1f0164def72cc75eb3,2.0,2.0,7200000.0,2 BHK Flat  In Space Habitat  For Sale  In Lingarajapuram,13.0075785,77.6257313,AP,"The house is semi furnished with wardrobes,Geyser. It has easy access to market, schools, ?hospitals, banks and ATM's as well.
ups option.",1157.0,926.0,BUY,NoBroker
8a9f99838bcb9bdd018bcc2b5c3e4621,2.0,2.0,9500000.0,2 BHK Flat  In East Point For Sale  In Pulikeshi Nagar,12.997132992104774,77.61455319243385,AP,,1100.0,,BUY,NoBroker
8a9f8a7371ca9c000171cee8da377884,2.0,2.0,6700000.0,2 BHK Flat  In White Lotus Kala For Sale  In Kalyan Nagar,13.015173492775464,77.64058405820408,AP,A centrally located Apartment with all amenities and surrounded by excellent facilities that caters to all requirements of a family with children. Excellent rental income also for the investment. Always in demand. Calm and secure neighbourhood.,1044.0,835.0,BUY,NoBroker
8a9f82ed716311b201716832dc0d190c,3.0,3.0,14500000.0,3 BHK Flat  In Sony Manasion For Sale  In Frazer Town,12.992206,77.612065,AP,,1350.0,,BUY,NoBroker
8a9f9a838bd20c13018bd236a6961d91,2.0,2.0,11000000.0,"2 BHK Flat  In Sorrento Apartments, Cooke Town For Sale  In Cooke Town",13.0048057,77.6238303,AP,"Ready to occupy. Available for inspection.
No litigation.",1300.0,1200.0,BUY,NoBroker
8a9f9b8279dba5230179dbec14a22333,3.0,3.0,15000000.0,3 BHK Flat  In Ashish Enclave  For Sale  In Banaswadi,13.009523891323251,77.65070208998901,AP,MaintenanceÂ amount that needs to be discussed with the owner,1750.0,1550.0,BUY,NoBroker
8a9f94838b945934018b9576e7943448,2.0,2.0,6200000.0,2 BHK Flat  In Shanthi Nikethan  For Sale  In Kadugondanahalli,13.0193938,77.6192793,AP,,952.0,750.0,BUY,NoBroker
8a9fab838bc90890018bc9a284fc4e16,3.0,3.0,17500000.0,3 BHK Flat  In Crystal View For Sale  In Halasuru,12.981517,77.611445,AP,,1617.0,,BUY,NoBroker
ff8081816d90487d016d904bed0b0197,2.0,3.0,11000000.0,3 BHK Flat  In Sai Leela Palace For Sale  In Kalyan Nagar,13.027501,77.640316,AP,,1500.0,,BUY,NoBroker
ff8081816ef48c30016ef88f5e1504c5,2.0,2.0,5500000.0,2 BHK Flat  In Sheshadri Residency For Sale  In Banaswadi,13.006436927742277,77.64578852149582,AP,"The house is semi furnished with Wardrobes and Basic electric fittings.It has easy access to market, schools, hospitals, banks and ATM's as well.",1260.0,,BUY,NoBroker
8a9fe2868ae3e6ab018ae4407a09185d,3.0,3.0,15000000.0,"3 BHK Flat  In Smr Vinay Vatika, Bangalore For Sale  In Vinay Vatika Apartments",13.0033154,77.6365127,AP,"Superbly located, this 3 bedroom apartment is part of a quiet, idyllic neighborhood and is centrally located with unmatched accessibility to MG Road, Indiranagar and Whitefield.

The apartment boasts excellent lighting and ventilation in all the rooms and a private terrace where you can enjoy views of the sunrise.",2000.0,1500.0,BUY,NoBroker
8a9fb9827e71cb42017e71f7776612da,2.0,2.0,6500000.0,2 BHK Flat  In East Isles For Sale  In Pulikeshi Nagar,12.99169704564124,77.61303553087193,AP,An elegant flat near bharatinagar very well maintained and clean is for sale at reasonable price,850.0,790.0,BUY,NoBroker
8a9fc682818e161d01818e8253b411ac,2.0,2.0,8900000.0,2 BHK Flat  In Sri Balaji Oasis For Sale  In Horamavu,13.026138694367896,77.66001925693976,AP,"Ambient natural light, 24hrs power backup, security, water supply, covered car parking and open visitors parking. 

Groceries, supermarket, vegetable stores and daily needs in 100mts. 
Reputated schools like NPS, Vibgyor and etc near by.  
Super speciality hospital in 500mts, 1km from upcoming metro station.",1230.0,1000.0,BUY,NoBroker
ff80818162b484ce0162b4c6c6d8145d,2.0,2.0,6000000.0,2 BHK Flat  In Smr Vinay Regency For Sale  In Horamavu,13.0159803,77.6624264,AP,"The house is semi furnished with wardrobes,modular kitchen,geyser,tube lights, fans and electrical fittings.",1000.0,,BUY,NoBroker
ff808181693509710169377774bd3a69,2.0,2.0,5500000.0,2 BHK Flat  In Vm Meadows For Sale  In Horamavu,13.0248447,77.6604381,AP,,1020.0,,BUY,NoBroker
8a9f8ad17015663b01701586ccfe0f49,2.0,2.0,6000000.0,2 BHK Flat  In Kmc Residency For Sale  In Hbr Layout,13.0202885,77.6293986,AP,,912.0,,BUY,NoBroker
8a9fb9827a43b535017a43df0b1f0f05,2.0,2.0,15000000.0,2 BHK Flat  In Big Sky Elite Apartment For Sale  In Kasturi Nagar,13.005506099999996,77.65289539999996,AP,"Fully furnished 2bhk apartment, one year old, kasturi nagar, close to city centre and biappanahalli metro station.
Shivajinagar: 8kms
Majestic: 15kms
Hennur: 3 kms
Kalyan Nagar: 2kms
Ramamurthy Nagar: 2Kms
Close landmarks:
Banaswadi fire station
Orion East Mall
Mukunda Theatre",1300.0,,BUY,NoBroker
8a9fb68387efb3840187f047450f77a0,4.0,3.0,27500000.0,"3 BHK Flat  In Kenil Worth, Ulsoor For Sale  In Ulsoor",12.978743441472831,77.61838930890417,AP,"Excellent location, next to Ulsoor lake. Large 3 BHK. Very well built up. Italian Marble flooring",2500.0,,BUY,NoBroker
8a9ff88288f5718a0188f67dfcf10138,2.0,2.0,7500000.0,2 BHK Flat  In Sree Saktivel Apartments For Sale  In Horamavu,13.020336,77.657795,AP,,1100.0,,BUY,NoBroker
ff80818164642ca2016464818ffc3a54,2.0,2.0,7800000.0,2 BHK Flat  In Hallmark Apartments For Sale  In Pulikeshi Nagar,12.9937184,77.61526270000002,AP,"2BHK with two Bathrooms/Toilets, 1 Hall, 1 Kitchen, 1 Balcony. Open Car park . Located centrally on Wheeler Road (Neighbouring areas - Cox Town, Cooke Town). Close proximity to prominent Schools, Mall, Supermarkets (Thom's Supermarket), Restaurants. Distance to MG Road (3.5-4 kms), Distance to Indiranagar (4 kms).
Semi-furnished",1125.0,,BUY,NoBroker
ff8081816a780303016a78167b5f07c1,3.0,2.0,14000000.0,2 BHK Flat  In Umiya Willows For Sale  In Richards Town,13.0030263,77.61458069999999,AP,,1295.0,,BUY,NoBroker
8a9f97848bc14f2f018bc1b1299c16d8,2.0,2.0,5000000.0,"2 BHK Flat  In Scindia Prime Classic Apartment, Benson Town For Sale  In Benson Town",13.005656,77.6030425,AP,"Charming, furnished, East2BHK flat in 930sft size. Excellent location (5 minutes by road to Nandidurga Road,  10 minutes to Ulsoor lake, 20 minutes to MG Road, 10 minutes to Bangalore Cantt Station). Fully furnished with: 2 beds, sofas and seating, wardrobes and cupboards, fridge, microwave, aquaguard, dining table and chairs, gas stove, kitchen cupboards",930.0,,BUY,NoBroker
8a9f9b82780b834901780bdf3ea63154,1.0,1.0,4000000.0,1 BHK Flat  In Hemanth Avocados Horamavu For Sale  In Horamavu,13.02594465509513,77.66051791593858,AP,,644.0,,BUY,NoBroker
8a9fb8ce880ae81401880b7e1c6d4e09,2.0,2.0,5500000.0,2 BHK Flat  In Bsr Splendour Park For Sale  In Horamavu,13.0198935,77.6623954,AP,,1025.0,820.0,BUY,NoBroker
8a9f99838baf21b9018bb29d5a645fcb,3.0,3.0,12500000.0,3 BHK Flat  In Vastav Sneha Apartments For Sale  In Kalyan Nagar,13.0269743,77.63717729999999,AP,,1625.0,,BUY,NoBroker
ff80818161ae62340161b203e8bd165d,3.0,3.0,9700000.0,3 BHK Flat  In Vinayaka Heights Apartment For Sale  In Banswadi,13.017588943217604,77.65771750572377,AP,,1570.0,,BUY,NoBroker
8a9f8f838bb34922018bb3b3ca2b5fba,2.0,2.0,3500000.0,2 BHK Flat  In Gayatri Mangal Apartment For Sale  In Lingarajapuram,13.012506006622196,77.63329241864274,AP,,825.0,,BUY,NoBroker
8a9fa0838bad88d8018badb0ebbe265d,2.0,2.0,7000000.0,2 BHK Flat  In Jai Sri Rama Classic For Sale  In Banaswadi Bus Stop,13.0145032,77.65085619999999,AP,Flat having 24 Hours Air and Whole day Natural Light; less than 500 metes from Outer Ring Road. Its Corner Flat; Road (Open Space) from two-sides of flat. A Big Tree is there on the corner which ensures Air in Bedrooms/ Kitchen and Balconies (3). In-fact You can touch leaf of tree from Balconies. Wide Aisle (Lobby) space of each floor ensure that Child can play even on each floor. 1 Reserved par,1120.0,,BUY,NoBroker
8a9f8d838badff7c018bae89f4b07944,2.0,3.0,17500000.0,3 BHK Flat  In Sahithi Daisy 2   Appartment  Banaswadi For Sale  In Sahithi Daisy Phase 2,13.014753745234083,77.66181564550783,AP,,1450.0,,BUY,NoBroker
8a9fb9838b7e5c6d018b7f26a5115222,2.0,2.0,8500000.0,"2 BHK Flat  In Petals, Benson Town For Sale  In Benson Town",13.002399,77.6030337,AP,"Well located, vastu compliant apartment with covered car park.",1175.0,,BUY,NoBroker
ff8081816adf6f62016adf8c066c13fe,2.0,2.0,9400000.0,2 BHK Flat  In Sln Paradise  For Sale  In Kasturi Nagar,13.00752171665394,77.6550472134918,AP,,976.0,,BUY,NoBroker
8a9fb1838ba3d6ef018ba4c9cb1161c3,3.0,3.0,33000000.0,3 BHK Flat  In Brigade Legacy For Sale  In Frazer Town,12.995595,77.615088,AP,"3BHK with study and 4 balconies. Marble flooring in hall and wooden flooring in bedrooms. Utility space includes space for washing machine, dryer and ironing. 2 covered car parking available. Entire apartment including balconies mosquito proofed.",2135.0,,BUY,NoBroker
8a9fd98287eb60360187eb6c35740488,2.0,2.0,6800000.0,2 BHK Flat  In Meenakshi Genasis Meadows For Sale  In Hbr Layout,13.01587777340632,77.62816799999999,AP,,1102.0,1102.0,BUY,NoBroker
ff808181597a44b501597d9423881fdf,2.0,3.0,12000000.0,3 BHK Flat  In Slv Sunshine For Sale  In Banaswadi,13.015021,77.658762,AP,,1400.0,,BUY,NoBroker
8a9fac838ba3409f018ba39a01d84c14,2.0,3.0,8500000.0,3 BHK Flat  In Ar Mark  Apartment For Sale  In Benson Town,13.003848710726144,77.60759896931154,AP,,1200.0,,BUY,NoBroker
8a9fd58384e26fc60184e2a97caa24b4,3.0,3.0,12500000.0,3 BHK Flat  In Sky Rock For Sale  In Benson Town,13.00507585455386,77.59922839701176,AP,Hi brand new 3bhk with attached bathrooms flate for sale sba is 1700sft in marappa garden. rate is 1.25cr negotiable near by appolo medical in main road corner ********* **** **** to call me  on ********** **** ****** are ********* for further discussion...,1700.0,1500.0,BUY,NoBroker
8a9fad838b65ea4b018b690f89c249df,2.0,2.0,7500000.0,2 BHK Flat  In Davis Habitat For Sale  In Devis Road,13.0041188,77.61956159999998,AP,"The area is very lively at all times and the management of the apartment is up to the mark , therefore there is no compromise with your security and your stay at the property",1000.0,,BUY,NoBroker
8a9f910d72df53300172e0c9e94d1b75,2.0,2.0,7000000.0,"2 BHK Flat  In Grape Garden Enclave, Cooke Town For Sale  In Cooke Town",13.003238,77.6277423,AP,"It is a semi furnished property and easy to access all the schools, hospitals, super markets, banks, as well as ATM's",1010.0,,BUY,NoBroker
8a9fd08283819ebd018382200c81177a,2.0,2.0,3200000.0,2 BHK Flat  In Standalone Building  For Sale  In Pulikeshi Nagar,13.002878946449526,77.62147027999163,AP,,600.0,570.0,BUY,NoBroker
8a9f9a827db99563017dbebc2c9d4fe6,3.0,3.0,40000000.0,"3 BHK Flat  In Nitesh Camp David, Pulikeshi Nagar For Sale  In Pulikeshi Nagar",12.9986651,77.6094265,AP,,3198.0,2865.0,BUY,NoBroker
8a9fb9838b7a7f9b018b7aa3acb71467,1.0,2.0,4500000.0,2 BHK Flat  In Sai Leela Palace For Sale  In Kalyan Nagar,13.027501,77.640316,AP,,1000.0,,BUY,NoBroker
8a9fb183795a3cee01795a5077690868,3.0,3.0,12500000.0,3 BHK Flat  In Standalone Building  For Sale  In J.c.nagar,13.00509454109143,77.5992495270845,AP,,1700.0,,BUY,NoBroker
8a9fb1838b7e5c87018b7eff742e3433,2.0,2.0,7500000.0,2 BHK Flat  In Alphine Homes For Sale  In Kammanahalli,13.015912659834564,77.6380653856815,AP,,1200.0,,BUY,NoBroker
8a9fa6838b86164e018b8654db5319d8,2.0,2.0,7000000.0,2 BHK Flat  In Apartment For Sale  In Kasturi Nagar,13.010395736865757,77.65824424089858,AP,,1000.0,,BUY,NoBroker
8a9f94838b757f3f018b76244abb6a24,5.0,4.0,18000000.0,4 BHK Flat  In Mayar Aura For Sale  In Benson Town,13.004681,77.59994429999999,AP,,2242.0,,BUY,NoBroker
ff8081816cbdc886016cbdd40dc7071d,2.0,2.0,4000000.0,2 BHK Flat  In Linea Lily For Sale  In Linea Lilly,13.0255399,77.6471693,AP,,880.0,,BUY,NoBroker
8a9f97838b931ad9018b935f53da1e45,1.0,1.0,6500000.0,1 BHK Flat  In Raintree Apartment For Sale  In Pulikeshi Nagar,12.995862,77.6137171,AP,In the heart of the city good rental income and future property prices excallation,600.0,,BUY,NoBroker
8a9fbed18104f81c0181056d88025015,1.0,2.0,15000000.0,2 BHK Flat  In Gokul House For Sale  In Indira Nagar,12.9772567,77.63259889999999,AP,current income between 60 to 70000		1 bhk 2 units and 2 bhk 4 units,900.0,0.0,BUY,NoBroker
ff8081816c3cb013016c3cec70bb3e77,1.0,2.0,5000000.0,2 BHK Flat  In Shalom Apartment  For Sale  In Pulikeshi Nagar,12.997080788931434,77.61445264846213,AP,,600.0,,BUY,NoBroker
8a9fad838b93eb87018b9428b68f4064,2.0,2.0,7000000.0,2 BHK Flat  In Slv Apartment For Sale  In Horamavu,13.020805685738308,77.65684750267542,AP,,1200.0,,BUY,NoBroker
8a9fb7838b8b3c8c018b8bad1cbc2ac1,3.0,3.0,15555555.0,3 BHK Flat  In Sai Balaji Appartment For Sale  In Maruthi Sevanagar,13.00096828850625,77.63257117080661,AP,"3bhk for sale
contact for vist/pictures",1500.0,,BUY,NoBroker
8a9fbf827f01fd48017f02169e3f0f41,3.0,4.0,20000000.0,4 BHK Flat  In Rr Tawakkal Apartments For Sale  In Rr Tawakkal Apartment,13.0041602,77.60466920000002,AP,An open plan penthouse with plenty of natural light and a private terrace in secured CCTV gated apartment with a beautiful landscape and new exterior paint,2400.0,2200.0,BUY,NoBroker
8a9fb2838b93eb7e018b94292a254039,3.0,3.0,8000000.0,"3 BHK Flat  In Slv Temple Tree Apartments, Horamavu For Sale  In Horamavu",13.0222,77.6545077,AP,,1300.0,,BUY,NoBroker
8a9fab8280075850018007d7d9d14953,2.0,2.0,6600000.0,2 BHK Flat  In Vinayaka Meadows For Sale  In Banaswadi,13.005897015023123,77.64637963770551,AP,1 month notice period,1090.0,,BUY,NoBroker
ff8081816b5b32fc016b5b654799149c,2.0,3.0,6000000.0,3 BHK Flat  In Alka Mansion For Sale  In Horamavu,13.0178748,77.6595631,AP,,1250.0,,BUY,NoBroker
8a9fb8827e4371af017e43d50f893103,2.0,3.0,8500000.0,3 BHK Flat  In Rr Tawakkal Apartment For Sale  In Rr Tawakkal Apartment,13.0041602,77.60466920000002,AP,,1300.0,,BUY,NoBroker
8a9fb6848b79454c018b79eae288487b,2.0,2.0,8000000.0,2 BHK Flat  In Saraswathi Enclave For Sale  In Sampangi Rama Nagar,13.002465150719216,77.63413207495557,AP,,1050.0,,BUY,NoBroker
8a9fc1827e8f67d2017e8ff80f05493a,2.0,2.0,6900000.0,2 BHK Flat  In Sm Signature For Sale  In Horamavu,13.019257164160006,77.66033117361067,AP,"Loan closed, ground floor property, sole owner, all documents in place, corner property, balcony is road facing",1250.0,1096.0,BUY,NoBroker
8a9faf848b8391eb018b846452bb7e4a,2.0,2.0,12000000.0,2 BHK Flat  In Purva Park For Sale  In Maruthi Sevanagar,12.999343,77.627622,AP,,1175.0,,BUY,NoBroker
8a9f92797329c62701732eac7c70493a,2.0,2.0,7500000.0,2 BHK Flat  In Omkar Sriram Residency For Sale  In  Dodda Banaswadi,13.013316786748137,77.65225602883605,AP,,1034.0,0.0,BUY,NoBroker
8a9fb8838b84cc9e018b851d90df2f2f,2.0,2.0,8500000.0,2 BHK Flat  In Oasis Apartment For Sale  In Hbr Layout,13.0212729,77.6244314,AP,"An East facing 2 BHK Apartment at Oasis Apartment, Fully-Furnished with vitrified tiles, Sofa(5 seaters), TV, Cupboards, UPS, Bed, Hob & Chimney, Microwave, 2-Geysers, Recliner, 2 High Chairs, Cross trainer, Car Parking, 24hrs security, 24hrs water, 24hrs power backup, lift. This 2 bhk apartment comes with both Car & Bike parking spaces.",1185.0,850.0,BUY,NoBroker
8a9faf827e4371a1017e43d4ef39315a,2.0,2.0,8000000.0,2 BHK Flat  In Rr Tawakkal Apartment   For Sale  In Rr Tawakkal Apartment,13.0041602,77.60466920000002,AP,,1200.0,,BUY,NoBroker
8a9f97838b7fa6ff018b80bad1d94a40,4.0,4.0,15000000.0,4 BHK Flat  For Sale  In S K Garden,13.0048652,77.60671219999999,AP,"This is an amazing luxury Duplex villa with 4 bedrooms with attached bachrooms in all the rooms, dining hall, kitchen, private terrace and a servant room too. its on the 3rd floor and has lift too",2000.0,,BUY,NoBroker
8a9f96838b88a91e018b8979657066b0,2.0,2.0,6000000.0,2 BHK Flat  In Tuscan Royale Manor For Sale  In Hennur Road,13.025247126683736,77.63122313934718,AP,,1000.0,,BUY,NoBroker
ff8081816d673251016d67a14b5343e1,2.0,2.0,7200000.0,2 BHK Flat  In Doctor&#39;s Apartment For Sale  In Kasturi Nagar,13.007647680551402,77.65885737105933,AP,,1230.0,,BUY,NoBroker
8a9fad848b84623e018b8472ab34082d,2.0,2.0,14400000.0,2 BHK Flat  In Navya Nidhi For Sale  In Banswadi,13.007290012579364,77.64636352883608,AP,,1260.0,,BUY,NoBroker
8a9fc38282628451018262f6b42a514a,2.0,2.0,4200000.0,2 BHK Flat  In Karthik Apartment For Sale  In Banaswadi,13.009727527840944,77.64361238904633,AP,common parking,900.0,,BUY,NoBroker
8a9ff28285a4cb530185a55419d35aaf,2.0,2.0,6000000.0,"2 BHK Flat  In Sm Signature, Horamavu For Sale  In Horamavu",13.0191657,77.6603875,AP,"It's G+4 construction BBMP approved A khata property.Total 45 flats.Flat is East facing and North-East corner flat,flat size is 1100 sqft with 72% carpet area.Apartment is completely constructed with river sand and build quality is very good, 24/7 security ( 2 security persons and 1 house keeping person ).Generator will be available for entire flat for 24/7.Water softner and CCTV installed",1075.0,750.0,BUY,NoBroker
8a9ffb838ad46a44018ad59b97483068,2.0,2.0,1800000.0,2 BHK Flat  In Crystal Apartment  5 Floor Flat No 407 For Sale  In 1st Cross Road,13.007758806323585,77.60057113313525,AP,,500.0,450.0,BUY,NoBroker
8a9fe0838913176c018915127d3073f7,9.0,4.0,48000000.0,4+ BHK Flat  In Sai Illam  For Sale  In Baiyyappanahalli,12.988075,77.645287,AP,,5500.0,,BUY,NoBroker
8a9f9682802710f701802744c3911ca9,1.0,1.0,7000000.0,1 BHK Flat  In Sai Illam  For Sale  In New Baiyyappanahalli ,12.98807503133559,77.64529006764586,AP,,550.0,,BUY,NoBroker
8a9fe68287a9b6530187aa2f1cd52276,4.0,4.0,18000000.0,4 BHK Flat  In Shuba Comforts For Sale  In Kacharakanahalli,13.0142031,77.62887959999999,AP,"It is a pent house on 4 th and 5 th floor of the apartment with individual terrace, spacious balconies, wooden flooring on 4 th floor  vitrified tiles on 5 th floor, modular kitchen, utility area, fully furnished,  power back up , 24 hrs water supply and security, CCTV for common areas.  one car parking and 1 two wheeler parking.",2600.0,,BUY,NoBroker
8a9fb1838b7e5c87018b7f3347525e8e,2.0,2.0,5500000.0,"2 BHK Flat  In Ssv Nivas Apartment, Horamavu For Sale  In Horamavu",13.024925,77.655393,AP,,1200.0,1090.0,BUY,NoBroker
8a9fff838a65b209018a65cab3b00eb4,2.0,2.0,11000000.0,2 BHK Flat  In J C Keerthi Arcade For Sale  In Cox Town,12.9974902,77.6203446,AP,,1350.0,0.0,BUY,NoBroker
8a9fae837757e8c901775823462f1785,1.0,1.0,3200000.0,1 BHK Flat  For Sale  In Sivanchetti Gardens,12.984541691206465,77.61428467790988,AP,,400.0,,BUY,NoBroker
8a9f178287d0556f0187d0a70afc3719,5.0,4.0,72000000.0,4 BHK Flat  In Brigade Crescent For Sale  In Nandiduraga Road,12.998875,77.600774,AP,,4292.0,,BUY,NoBroker
8a9fbb838b289de3018b28aab4ff0464,3.0,3.0,8500000.0,3 BHK Flat  In Smr Vinay Regency For Sale  In Horamavu,13.0159803,77.66242640000003,AP,,1620.0,,BUY,NoBroker
8a9f9f827b1b4685017b1b7acacc161a,2.0,2.0,4500000.0,2 BHK Flat  In Astron Apartment For Sale  In Sagayapura,13.007292377813544,77.61563911005523,AP,,750.0,,BUY,NoBroker
8a9fb1827b54dad6017b5522cee51512,2.0,2.0,7500000.0,2 BHK Flat  In Sai Nandanam Palace For Sale  In Hormavu,13.021860251446732,77.65990329877663,AP,"A 2 BHK in Nandanam Colony for sale is now available, it is one of a few houses at this rate. This DK facing home is on the 1st floor. This home is over 1050 sqft. & even comes with ample parking facility for car and bike.

With amenities such as lift this home offers you a lot of convenience.

With Sri Chaitanya Techno School, Academy of Excellence and Maple Bear Preschool close to this home, you'll be able to provide your children with many options to choose from. If you are in need of any emergency services or medical assistance, you will be happy to note that Srivijaya Hospital, Apollo Pharmacy and The Family Doctor & The Family Pharma Kasturi Nagar are very close by.

If you are looking for gifts, or just want to spoil yourself, Gold Fish Groups, Lens Pick and Om Marketing Futuraa S.S. Kitchen Basket have a wide variety of things that you can choose from. As Gopalan Cinemas, Gopalan Grand Mall & Gopalan Cinemas are in close proximity to this house, you can catch the latest movies at any time.",1050.0,1000.0,BUY,NoBroker
8a9f91838b7a7fa0018b7affefa653eb,2.0,2.0,6200000.0,2 BHK Flat  For Sale  In Richards Town,13.003870008166205,77.6171578580801,AP,,1150.0,900.0,BUY,NoBroker
8a9f91e773a9231e0173b39051f05c26,2.0,3.0,8500000.0,3 BHK Flat  In Smr Smr Vinay Estates For Sale  In Horamavu,13.019191597731105,77.65712913633446,AP,"Main road property alongside showrooms.
All modern amenities like swimming pool, community hall, children park, lift, security, jogging track, full power backup",1285.0,,BUY,NoBroker
ff8081815c6f7500015c719b27f83d89,2.0,2.0,5500000.0,2 BHK Flat  In Bhavana Homes For Sale  In Horamavu,13.019456902165942,77.65756788531984,AP,,1255.0,,BUY,NoBroker
8a9fa882845bd87301845c619ad25dcc,2.0,2.0,6500000.0,2 BHK Flat  In Gk Homes For Sale  In  Kalyan Nagar,13.024908896654042,77.64726581989643,AP,,1070.0,,BUY,NoBroker
8a9fb0828119328a01811962a38d1fca,2.0,2.0,6500000.0,2 BHK Flat  In Vijaya Winds Apartment For Sale  In Ombr Layout,13.0078178,77.6468452,AP,,1220.0,1000.0,BUY,NoBroker
8a9ff98389d3f79a0189d428155122d9,3.0,2.0,18000000.0,2 BHK Flat  In Premier Five  For Sale  In Pulikeshi Nagar,12.99686941840425,77.60834646171091,AP,"This newly built property is located in the center of Bengaluru in Pulikeshi Nagar, Frazer Town, near Cantonment Railway station. This is a  2 bedroom, 3 bathroom apartment. Has beautiful private garden, spacious rooftop terrace, 2 covered parking spots, 24/7 generator power backup, Borewell water, Kaveri water, Gated community, CCTV, Security. Near Landmarks like MG Road, Cubbon metro Station etc",1300.0,1100.0,BUY,NoBroker
8a9fa882843ee07b01843ee618d7000b,2.0,2.0,2500000.0,2 BHK Flat  In Hc Appartement For Sale  In Richards Town,13.006343,77.614889,AP,1 more unit available,900.0,500.0,BUY,NoBroker
8a9fac838b6ee962018b6f5939401ceb,3.0,3.0,7500000.0,3 BHK Flat  In Vm Serenity For Sale  In Horamavu,13.025374880209558,77.66146633988113,AP,,1340.0,,BUY,NoBroker
ff8081815e349bfb015e3c9110cc504f,2.0,2.0,6500000.0,2 BHK Flat  In Nabil Heritage For Sale  In Pulikeshi Nagar,13.00089915381904,77.61539258888547,AP,"Hall has marble flooring. The house is semi furnished with wardrobes. It has easy access to market, schools, hospitals, banks and ATM's as well.",950.0,,BUY,NoBroker
8a9ff18287ac49250187ac60a06d08a0,3.0,3.0,13500000.0,3 BHK Flat  In Karvin Dreams For Sale  In Cox Town,12.9949613,77.6199918,AP,Newly constructed builder floor apartment centrally located behind Indian Gymkhana Club. Vaastu comply. Amenities include power backup Lift security  Kauveri n borewell water sources with Pooja n utility. Spacious  well lit n well ventilated rooms,1400.0,1100.0,BUY,NoBroker
8a9fbb827d60351d017d60449ae5082e,3.0,3.0,9000000.0,3 BHK Flat  In Elegant Lee Villa For Sale  In Horamavu,13.021208486759376,77.6574023411045,AP,"Fully furnished, 1500 sqft, 3BHK+3 Washrooms flat in an apartment complex on 4th floor on Horamavu Main Road. Ample sunlight and fresh air in all rooms. Plenty of schools, gyms, hospitals, grocery stores, restaurants etc. are available nearby.

Tech Parks
Manyata Tech Park ? 5KM
Bagmane Tech Park ? 7KM
ITPL / Whitefield ? 12KM

City Center / CBD
Indiranagar ? 7KM
MG Road ? 9KM",1488.0,,BUY,NoBroker
ff808181602c3ceb01602fc43b7d18df,2.0,2.0,5400000.0,2 BHK Flat  In Bsr Splendour Park For Sale  In Horamavu,13.0198935,77.6623954,AP,,1054.0,0.0,BUY,NoBroker
8a9fef828643cb220186446424f578fc,3.0,3.0,23500000.0,3 BHK Flat  In Zinith Cox Town For Sale  In Zenith Apartment,12.9942123,77.6267817,AP,"[22/07, 21:26] Avinash: 2000sq ft, 3 bhk , 2nd floor basic amenities - generator, lift, closed car park, 24 hrs cauvery water, uninterrupted power, 4 balconies, excellent ventilation and lighting, quiet residential area surrounded by trees. Spacious and well maintained apt. 7 yes old and built very strong
[22/07, 21:26] Avinash: This is a corner property facing 3 side roads, no heavy vehicles moves around here.

1. With movable furniture,  geyser,  fans, air conditioner,  cots, sofa, dinning table, tvs and fixtures...price will be 2.35 cr

2. Without movable furniture it will be 2.3 cr",2000.0,1780.0,BUY,NoBroker
8a9fd68284518c32018451f6aa744b92,3.0,2.0,7000000.0,2 BHK Flat  In Star Building For Sale  In Dodda Banaswadi,13.014934928825536,77.6579117553817,AP,"This is a pararallel road to Ring Road. This Flat is a duplex Flat with 2.5 BHK.
The Building has total 4 Flats, out of which this is in 1st floor and 2nd floor. The UDS is 600 Sq Ft.",1250.0,1000.0,BUY,NoBroker
8a9fd182841eb0ea01841eca176e0e1d,2.0,2.0,6700000.0,2 BHK Flat  In Uv Trupthi For Sale  In Kammanahalli,13.0159044,77.63786189999999,AP,"2 bhk with two sliding wardrobes, modular kitchen, tv unit, crockery unit, bathroom fittings, geysers, fans, chimney.",911.0,900.0,BUY,NoBroker
8a9fb9827c7e6a20017c8fa241fc2e93,2.0,2.0,4800000.0,2 BHK Flat  In Bsr Splendour Park For Sale  In Horamavu,13.0198935,77.6623954,AP,"Flat for sale or rent from 1st November. Apartment has 120 flats with party hall, gym, TT, volleyball and shuttle court, CC TV and fully secured gated community..

1054 sq. Ft. 2bhk flat in BSR Splendour Park Apartments, Vijaya Bank Colony Extension and big society. Apartment has OC/CC. Kaveri water connection is ready. 

Flat is semi furnished wardrobes in both bedrooms and modular kitchen. 2 bathroom attached with geysers, covered car parking and plenty of two Wheeler parking. Flat has amenities of children play area, shuttle/volley court, party Hall, fully equipped gym, tt Court. CC Cemera secured with gated community. Flat walkable distance from outer ring road, Vijaya bank colony bus stop.

Note: very close to forthcoming suburbon station and horamavu metro station. This is great opportunity for the investment.",1054.0,850.0,BUY,NoBroker
8a9f99838b422d77018b42f8d5c47bb9,7.0,4.0,15000000.0,"4+ BHK Flat  In Standalone Building  For Sale  In  Sait Palya Layout,",13.012332636169996,77.62619068950858,AP,,3600.0,,BUY,NoBroker
8a9f97827a761f8c017a7623a2500122,2.0,2.0,6500000.0,2 BHK Flat  In Sm Signature For Sale  In Horamavu,13.019165700000007,77.66038749999998,AP,,1092.0,,BUY,NoBroker
8a9ffd82877fe03c01877ff7d4200c36,2.0,2.0,5000000.0,2 BHK Flat  In Frontline Woods Apartment For Sale  In Hormavu,13.02236868947019,77.65083164418023,AP,,1100.0,,BUY,NoBroker
8a9f05838a887490018a88d7db1e4ea1,2.0,2.0,7200000.0,2 BHK Flat  In S M Signature Horamavu For Sale  In Sm Signature,13.0191657,77.6603875,AP,"East facing Flat situated at corner of the society , Fully furnished with interiors recently completed",1057.0,,BUY,NoBroker
8a9f11858ab1ea38018ab29c49e800ca,3.0,3.0,13000000.0,3 BHK Flat  In Loyality Mansion For Sale  In Cooke Town,13.006191022934669,77.62349623343594,AP,,1440.0,0.0,BUY,NoBroker
ff808181538a8cef01539444b6950f24,2.0,3.0,11500000.0,3 BHK Flat  In Egpi Arcadia For Sale  In Jai Bharath Nagar,13.001538965307358,77.63123346655891,AP,"The house is semi furnished lights, fans, kitchen cabinets, wardrobes in all bed rooms and with modular kitchen.Spacious Bathrooms fitted with geysers. 24 hours water facility. It has easy access to market, schools, hospitals, banks and ATM's as well.",1238.0,992.0,BUY,NoBroker
ff8081816c98fbe8016c9917038025f3,8.0,4.0,10000000.0,4+ BHK Flat  For Sale  In Kalyan Nagar,13.029255865113834,77.63982081597327,AP,gf 2bhk/ 1st 1bhk 2 unit & 1rk / 2nd 2bhk/3rd floor 1rk,4000.0,,BUY,NoBroker
8a9fb3827c98a684017c9c51c2c512ca,24.0,4.0,70000000.0,4+ BHK Flat  In Nrs Signature Homes For Sale  In Kalyan Nagar,13.0239099,77.6430196,AP,"Bda auction property north east and west three side road 
2 BHK 4 flats & one bhk 2 flats second & third floor with lift
ground and first with separated entrance for 1RK that's 14 rooms for Pg hotel or hostel total built up area is 12000 sqft 
land on pappers 2400 Ã? 3 with one commercial shop double sheter in the ground floor",12000.0,,BUY,NoBroker
8a9fcf8283fddc640183fdea2ad10388,3.0,3.0,20000000.0,3 BHK Flat  In Petals For Sale  In Benson Town,13.002399,77.6030337,AP,,2650.0,2000.0,BUY,NoBroker
8a9fb8827d414ef0017d416034ef0b40,2.0,2.0,5400000.0,2 BHK Flat  In Kamrani Destiny Apartment For Sale  In Kammanahalli,13.014731313412527,77.63568009968586,AP,,750.0,740.0,BUY,NoBroker
8a9feb82888fa40901888facfa1402b1,2.0,2.0,6634000.0,2 BHK Flat  In Hari Priya  For Sale  In Banaswadi,13.011584289832928,77.65269327382669,AP,,1070.0,,BUY,NoBroker
8a9fa3828088bb57018088eb495c21fb,2.0,2.0,6000000.0,2 BHK Flat  In Classic Ashirwad For Sale  In Horamavu,13.0241204,77.654921,AP,"Ready to move 2.5 BHK Apartment in excellent location,  very near to schools,  proposed Metro station & Manyata Tech park, hospitals",1081.0,1080.0,BUY,NoBroker
ff8081816a49a6fe016a49c8af5917d3,2.0,2.0,6400000.0,2 BHK Flat  In Vm Meadows For Sale  In Horamavu,13.0248447,77.6604381,AP,,1700.0,1650.0,BUY,NoBroker
8a9fb7838b386d86018b387ba0ef0773,2.0,2.0,12000000.0,2 BHK Flat  In Sm Homes For Sale  In Banaswadi,13.011002226696588,77.64905909325411,AP,,1200.0,,BUY,NoBroker
ff8081816e6b0716016e6d3ed7c5495d,2.0,2.0,8600000.0,2 BHK Flat  In Hsr Grand Apartment For Sale  In Banaswadi,13.015157151595174,77.65505025603346,AP,,1115.0,,BUY,NoBroker
8a9faf848b4aebf5018b4bd1737a6ad9,1.0,2.0,2200000.0,2 BHK Flat  In Rk Saniya  For Sale  In Kadugondanahalli,13.012302156569964,77.6173983514309,AP,,650.0,,BUY,NoBroker
ff808181629aa2e401629abb0f5f05dd,2.0,2.0,7000000.0,2 BHK Flat  In Doctors Apartment For Sale  In Kasturinagar,13.00624821843241,77.6570636274092,AP,"2bhk flat for sale in Kasturinagar. Nearby to school, college, Banks, ATM, Markets, Malls, shopping complex etc. You have Cauvery water connection and bore well. sanitary facility. Lift , security etc. Loanable with LIC. contact direct owner",1230.0,,BUY,NoBroker
ff808181633a594101633aae04e23a66,2.0,3.0,6800000.0,3 BHK Flat  In Nishitas Srishantha  For Sale  In Lingarajapuram,13.008684,77.628007,AP,"The house is fully  furnished with wardrobes. It has easy access to market, schools, hospitals, banks and ATM's as well.
* tv unit
modular kitchen
geyser in 2 bathroom
grill for balconys",1330.0,0.0,BUY,NoBroker
8a9fcd8283548f46018354e6e9293dbd,7.0,4.0,8500000.0,4+ BHK Flat  In Standalone Building  For Sale  In Cox Town,12.993350002588407,77.61911314254968,AP,g- 1bhk 2 units and 1st floor 1bhk 2 units and 2nd floor 2bhk 1 unit  and 3rd floor habe 1rk unit,3500.0,,BUY,NoBroker
8a9f02838abc279c018abc4a3a911b5b,4.0,3.0,29000000.0,3 BHK Flat  In Inclover Adobe For Sale  In Cooke Town,13.0062607068044,77.62421753257513,AP,"It's for urgent sale.. fast buyers...better discount.... It's a 3.5 bhk in the heart of the city on Hutchins Main Road. Italian marble flooring. Teak wood on all doors and windows. 2 car parks which is not available anywhere else. You can also park your bike inside. Security, peacefull neighborhood, very silent neighborhood. friendly outdoors. Everything you need is in within 2 mins of walkable distance.",2002.0,2001.0,BUY,NoBroker
8a9fbc8e81d1ac440181d2142c253e70,2.0,2.0,8500000.0,2 BHK Flat  In Orchid Apartment  For Sale  In Banaswadi ,13.012264027160448,77.64788990452801,AP,,1200.0,,BUY,NoBroker
8a9ff6848ab0660e018ab19d26d62c03,2.0,2.0,13500000.0,2 BHK Flat  In M3 Manor Apartments For Sale  In Cooke Town,13.003198,77.623092,AP,,1350.0,,BUY,NoBroker
8a9feb838a8204bd018a833ee7652cfe,2.0,2.0,4000000.0,"2 BHK Flat  In Bhadra Enclave, Kammanahalli For Sale  In Kacharakanahalli",13.02161848761028,77.63145325893021,AP,I am selling my flat as I have relocated from Bangalore to my hometown and plan to purchase an apartment there.,715.0,678.0,BUY,NoBroker
8a9f97838b422d09018b424f332413ff,2.0,3.0,12000000.0,3 BHK Flat  In Prabhat Royal Apartments For Sale  In Banswadi,13.0176852,77.6554338,AP,,1440.0,,BUY,NoBroker
ff80818166105f7b016615601d3f0de6,2.0,2.0,8200000.0,2 BHK Flat  In Gudwil Grace Jubilate Deo For Sale  In Cox Town,12.9975626,77.6213108,AP,"The house is unfurnished. It has easy access to market, schools, hospitals, banks and ATM's as well.
					, One more unit available in same building with same price",1353.0,,BUY,NoBroker
8a9feb838971138a0189717102fb177d,2.0,2.0,14000000.0,"2 BHK Flat  In Samhita Saipad, Ulsoor For Sale  In Ulsoor",12.9770163,77.6263062,AP,hi i am an nri contact via whatsapp,1200.0,866.0,BUY,NoBroker
ff80818151b924d00151be571ee8393e,2.0,2.0,6500000.0,2 BHK Flat  In Smr Vinay Regency For Sale  In Horamavu,13.015993366478586,77.6623808024467,AP,"The house is semi furnished with wardrobes, covered shelves, geyser, tube lights, fans and electrical fittings.",1050.0,900.0,BUY,NoBroker
ff80818166dd2d1d0166df11360c0e90,3.0,3.0,11000000.0,3 BHK Flat  In Vm Meadows For Sale  In Horamavu,13.0248447,77.6604381,AP,,1536.0,,BUY,NoBroker
8a9fd082887716bd01887754cd67232e,2.0,2.0,8000000.0,2 BHK Flat  In Shri Sai Samruddhi Apartment For Sale  In Kasturi Nagar,13.00825273872638,77.66196461330232,AP,,1080.0,,BUY,NoBroker
8a9f11838a8d9af7018a8dcbb0ec2add,5.0,4.0,90000000.0,4 BHK Flat  In Rmz Woodsvale For Sale  In Benson Town,12.998374,77.600583,AP,,4995.0,,BUY,NoBroker
8a9f968285d84a140185d88a747a3724,2.0,2.0,7900000.0,"2 BHK Flat  In Grace Star Apartment For Sale  In , Cooke Town",13.005263595007154,77.62715148262158,AP,"Spacious 2BHK apartment in Central Bangalore Business district.4 covered balcony with 5-10 ft set-back from next building. Walkable distance to Banaswadi Railway Station, Next to CK Garden, 5 mins to ITC infotech park  &  Orion  mall. 3 Covered Balconies. 24/7 Corporation water supply with borewell at 70ft ground water level.Covered parking for 4 Wheeler & 2 wheeler. UDS share of land is available",1112.0,,BUY,NoBroker
8a9fb88f8963633f018963dac18051c7,2.0,2.0,9000000.0,"2 BHK Flat  In Platinum Prp Phoenix, Banaswadi For Sale  In Banaswadi",13.00531,77.64994,AP,,1400.0,1383.0,BUY,NoBroker
8a9fb28278926660017892a9f0bf1d9c,18.0,2.0,6000000.0,2 BHK Flat  In Prudential Ultra Ratna For Sale  In Maruthi Sevanagar,13.0041657,77.6260793,AP,,885.0,650.0,BUY,NoBroker
ff8081816a4e9ba6016a4ed59780261b,3.0,3.0,13000000.0,3 BHK Flat  In Srk Enclave For Sale  In Kacharakanahalli,13.0168546,77.6344925,AP,,1800.0,,BUY,NoBroker
8a9f9f838b2d407c018b2e409de52acb,2.0,2.0,8000000.0,2 BHK Flat  In Royal Pearls For Sale  In Banaswadi,13.01468078178872,77.65045340821509,AP,"A Fully Furnished North Facing apartment with A Khatha off Banawasdi 100 Ft road (near Doddabanaswadi Bus Stand  and Anjaneya temple).
Cauvery and borewell water supply available.
Easy Access to all shops and amenities.",1200.0,0.0,BUY,NoBroker
8a9f9c83875b2bd001875b3e2c3b09a2,2.0,2.0,8500000.0,2 BHK Flat  In Sri Saila Towers For Sale  In Banaswadi,13.0102249,77.6553915,AP,"Prime location with near by access to hospitals, malls, IT parks, Lakes, BMTC bus stations, Satellite bus station, railway station, in less than 1km Outer Ring Road connection, Airport metro line is in less than 1km and jogging parks.  Serene BDA locality with a sports ground , auditorium and 24x7 kavery water, and bore water facility. Quick access to MF road, Commercial Street.",1085.0,890.0,BUY,NoBroker
8a9fad838b2bf6f2018b2d3c9dae5a3a,3.0,3.0,12000000.0,3 BHK Flat  In Tuscan Royale Manor For Sale  In Hennur Road,13.025247126683736,77.63122313934718,AP,Lavish 3bhk duplex with 2 car parking and very very spacious,1982.0,,BUY,NoBroker
8a9fb68280a891430180a8b8b05216c0,2.0,2.0,4800000.0,2 BHK Flat  In Vm Meadows For Sale  In Horamavu,13.0248447,77.6604381,AP,"This Flat There is ample and plentiful sunlight and ventilation (with large windows in all rooms including the kitchen). This flat comes with a large balcony and also has a dedicated parking space.
Amenities available* :
Swimming pool
Gym
Children's play area
Jogging/walking track
Party hall
Indoor games room
24 hr security
Maintenance staff(collects garbage at your door step)
24 hrs water
Covered parking
2 indoor dress ironing service
Park benches
In-house electrician + plumber + other general repair person
Sewage treatment plant
In-house Supermarket + vegetable shop + medical shop (door delivery available)
And more...",1030.0,1000.0,BUY,NoBroker
8a9fbf878364a75c018364fb0bba4457,3.0,4.0,13000000.0,4 BHK Flat  In M Z Heritage For Sale  In Benson Town,13.001015624765744,77.6080134916933,AP,,1700.0,,BUY,NoBroker
ff8081815f58e7be015f5c5ae30d07f9,2.0,2.0,5050000.0,"2 BHK Flat  In Slv Manor, Kalyan Nagar For Sale  In Kalyan Nagar",13.0260212,77.64294079999999,AP,,800.0,,BUY,NoBroker
ff8081816b13454a016b178250b53b18,2.0,2.0,6200000.0,2 BHK Flat  In Sandalone Building  For Sale  In Cox Town,12.997939180205648,77.62457564617067,AP,,700.0,,BUY,NoBroker
8a9ff782860c6eb501860c9cc7141dee,1.0,1.0,1450000.0,1 BHK Flat  In Khan Sky Scarper For Sale  In Shivaji Nagar,12.991950594810728,77.60731324796572,AP,,375.0,325.0,BUY,NoBroker
8a9faf827d6a8201017d6b0a99bd511c,4.0,4.0,30000000.0,4 BHK Flat  In Mittal Tower For Sale  In Ashok Nagar,12.974053,77.6156416,AP,,1830.0,,BUY,NoBroker
ff80818157f5051e0157f536074b1011,2.0,2.0,15000000.0,2 BHK Flat  In Carleston Nest For Sale  In Cooke Town,12.9991479,77.62205870000003,AP,"The house is semi furnished with wardrobe and shelves and cabinet in the kitchen. it is highly ventilated. 24 hours water facility. It has easy access to market, schools, hospitals, banks and ATM's as well.
An additional Multi purpose hall that can be used as a dining room is a feature of this flat",1030.0,,BUY,NoBroker
8a9faf828074c6d3018074ef552316fb,2.0,2.0,8500000.0,2 BHK Flat  In Jp Nakshatra For Sale  In Kalyan Nagar,13.018292021306468,77.65043751964338,AP,,1250.0,,BUY,NoBroker
8a9fbe8284c60f990184c65ca0aa0a67,2.0,2.0,10500000.0,2 BHK Flat  In Jal Vayu Vihar For Sale  In Kacharakanahalli,13.0221617,77.63571390000001,AP,,750.0,,BUY,NoBroker
8a9fde858b0e6a94018b0f5a2f194366,3.0,3.0,7500000.0,3 BHK Flat  In Swami Vivekananda  Heights For Sale  In Brindavan Layout,13.02659066740877,77.66152892479346,AP,,1440.0,1290.0,BUY,NoBroker
8a9fb68b8b0e6287018b0f70d5ee68cd,2.0,3.0,8500000.0,3 BHK Flat  In Sraddha Spring Fields For Sale  In Banaswadi,13.017966541299153,77.66120506058364,AP,,1600.0,,BUY,NoBroker
8a9fcd8284402a2f01844058876004e4,3.0,3.0,650000.0,3 BHK Flat  In Vm Meadows For Sale  In Horamavu,13.025272,77.66028,AP,"A 3 bedroom apartment with ,2 acs , spacious big apartment. Convienently located on the Horamavu main road just 500 mtrs from the ring road. The complex has a swimming pool and a gym also power backup for lights .",1490.0,,BUY,NoBroker
ff80818164d7894b0164dafbd1d44c7c,2.0,2.0,6500000.0,2 BHK Flat  In Ncn Paramount For Sale  In Kadugondanahalli,13.0130182,77.6233361,AP,"The house is semi furnished. It has easy access to market, schools, hospitals, banks and ATM's as well.",1010.0,,BUY,NoBroker
