id,name,lat,lng,cid,brand_id,brand_name,number_of_votes,rating,place_url,source,category,top_category,type,created_at,date,number_of_reviews,url,reviews_per_day
ChIJ69qKHosPrjsRFdrhyp9XVWo,"The Pump House, Whitefield",13.010565757751465,77.759765625,0x3bae0f8b1e8adaeb:0x6a55579fcae1da15,N_A,N_A,4198,4.599999904632568,https://www.google.com/maps/place/?q=place_id:ChIJ69qKHosPrjsRFdrhyp9XVWo,gmaps_v2,restaurant,food,N_A,1699615207,1663319078.0,4882,https://www.google.com/maps/preview/review/listentitiesreviews?authuser=0&hl=en&gl=in&pb=!1m2!1y4300391784372689643!2y7662126684855982613!2m2!2i10!3sCAESB0VnTUlrQ1k=!3e2!4m5!3b1!4b1!6b1!7b1!20b1!5m2!1sPsrQZPb9H5adseMPzOi5IA!7e81,9.992999528958032
ChIJ0RRpG48FrjsRRpVkmiZXbFc,"Mani Biryani Hotel, Hoskote",13.07480239868164,77.80484771728516,0x3bae058f1b6914d1:0x576c57269a649546,N_A,N_A,13237,4.199999809265137,https://www.google.com/maps/place/?q=place_id:ChIJ0RRpG48FrjsRRpVkmiZXbFc,gmaps_v2,restaurant,food,N_A,1699615207,1450555015.0,13634,https://www.google.com/maps/preview/review/listentitiesreviews?authuser=0&hl=en&gl=in&pb=!1m2!1y4300380806383736017!2y6299505802095138118!2m2!2i10!3sCAESB0VnTUl2bW8=!3e2!4m5!3b1!4b1!6b1!7b1!20b1!5m2!1sPsrQZPb9H5adseMPzOi5IA!7e81,4.591969478607003
ChIJVzPbd3wFrjsRLKa11GURNyM,Anand Dum Biriyani,13.072275161743164,77.78300476074219,0x3bae057c77db3357:0x23371165d4b5a62c,N_A,N_A,13044,3.900000095367432,https://www.google.com/maps/place/?q=place_id:ChIJVzPbd3wFrjsRLKa11GURNyM,gmaps_v2,restaurant,food,N_A,1699615207,1448153573.0,13355,https://www.google.com/maps/preview/review/listentitiesreviews?authuser=0&hl=en&gl=in&pb=!1m2!1y4300380726330340183!2y2537516044104607276!2m2!2i10!3sCAESB0VnTUlwbWc=!3e2!4m5!3b1!4b1!6b1!7b1!20b1!5m2!1sPsrQZPb9H5adseMPzOi5IA!7e81,4.481803375221844
ChIJJ8GS5OYFrjsRrigaVkNwTU0,Nandi Grand Restaurant - Tirupati Highway,13.088311195373535,77.82904815673828,0x3bae05e6e492c127:0x4d4d7043561a28ae,N_A,N_A,11688,3.799999952316284,https://www.google.com/maps/place/?q=place_id:ChIJJ8GS5OYFrjsRrigaVkNwTU0,gmaps_v2,restaurant,food,N_A,1699615207,1451051293.0,11685,https://www.google.com/maps/preview/review/listentitiesreviews?authuser=0&hl=en&gl=in&pb=!1m2!1y4300381183420842279!2y5570231748636846254!2m2!2i10!3sCAESB0VnTUlvRnM=!3e2!4m5!3b1!4b1!6b1!7b1!20b1!5m2!1sPsrQZPb9H5adseMPzOi5IA!7e81,4.062710406145278
ChIJdUCMjRcPrjsRjZ7tgReBR3M,Sri Venkateswara Garments Unit 11,13.06090259552002,77.77142333984375,0x3bae0f178d8c4075:0x7347811781ed9e8d,premtextiles,Prem Textiles,4220,3.900000095367432,https://www.google.com/maps/place/?q=place_id:ChIJdUCMjRcPrjsRjZ7tgReBR3M,gmaps_v2,clothing_store,retail,N_A,1687847039,1595598319.0,4661,https://www.google.com/maps/preview/review/listentitiesreviews?authuser=0&hl=en&gl=in&pb=!1m2!1y4300391288018845813!2y8306749975672233613!2m2!2i10!3sCAESB0VnTUl0Q1E=!3e2!4m5!3b1!4b1!6b1!7b1!20b1!5m2!1sPsrQZPb9H5adseMPzOi5IA!7e81,3.9524450854169033
ChIJTUURGJcPrjsRTIiBCKnFjIs,MV family restaurant,13.06110382080078,77.77161407470703,0x3bae0f971811454d:0x8b8cc5a90881884c,N_A,N_A,676,4.699999809265137,https://www.google.com/maps/place/?q=place_id:ChIJTUURGJcPrjsRTIiBCKnFjIs,gmaps_v2,restaurant,food,N_A,1699615207,1684421827.0,847,https://www.google.com/maps/preview/review/listentitiesreviews?authuser=0&hl=en&gl=in&pb=!1m2!1y4300391835803665741!2y10055629397794326604!2m2!2i10!3sCAESB0VnTUl5QVk=!3e2!4m5!3b1!4b1!6b1!7b1!20b1!5m2!1sPsrQZPb9H5adseMPzOi5IA!7e81,3.84420056629927
ChIJ3bIJ4fcFrjsR9SLIbS8HPK4,Vishnu Bhavan,13.07992172241211,77.81208038330078,0x3bae05f7e109b2dd:0xae3c072f6dc822f5,N_A,N_A,7014,3.700000047683716,https://www.google.com/maps/place/?q=place_id:ChIJ3bIJ4fcFrjsR9SLIbS8HPK4,gmaps_v2,restaurant,food,N_A,1699615207,1530459710.0,7267,https://www.google.com/maps/preview/review/listentitiesreviews?authuser=0&hl=en&gl=in&pb=!1m2!1y4300381256375972573!2y12554917761488790261!2m2!2i10!3sCAESB0VnTUkzRGc=!3e2!4m5!3b1!4b1!6b1!7b1!20b1!5m2!1sPsrQZPb9H5adseMPzOi5IA!7e81,3.582559306364132
18733579,Brilram's Balaji Bhavan,13.0128636962,77.761121504,18733579,N_A,N_A,12800,4.0,,zomato,restaurant,food,N_A,1688639100,1531506600.0,3054,,3.5190683022290106
ChIJ5doZrtEFrjsRPZVR0DJLnDE,Paakashala Hoskote,13.089920043945312,77.83497619628906,0x3bae05d1ae19dae5:0x319c4b32d051953d,paakashala,Paakashala,994,4.0,https://www.google.com/maps/place/?q=place_id:ChIJ5doZrtEFrjsRPZVR0DJLnDE,gmaps_v2,restaurant,food,N_A,1699615207,1674979070.0,1307,https://www.google.com/maps/preview/review/listentitiesreviews?authuser=0&hl=en&gl=in&pb=!1m2!1y4300381092312636133!2y3574814885840786749!2m2!2i10!3sCAESB0VnTUlsQW8=!3e2!4m5!3b1!4b1!6b1!7b1!20b1!5m2!1sPsrQZPb9H5adseMPzOi5IA!7e81,3.4860010723272077
ChIJDdmCaLkPrjsR2_ppupghSkI,Akshay Dum Biriyani,13.062295913696287,77.7728042602539,0x3bae0fb96882d90d:0x424a2198ba69fadb,N_A,N_A,3524,3.900000095367432,https://www.google.com/maps/place/?q=place_id:ChIJDdmCaLkPrjsR2_ppupghSkI,gmaps_v2,restaurant,food,N_A,1699615207,1606019977.0,3768,https://www.google.com/maps/preview/review/listentitiesreviews?authuser=0&hl=en&gl=in&pb=!1m2!1y4300391983182174477!2y4776667294626085595!2m2!2i10!3sCAESB0VnTUlzQjA=!3e2!4m5!3b1!4b1!6b1!7b1!20b1!5m2!1sPsrQZPb9H5adseMPzOi5IA!7e81,3.253088859336101
ChIJi6K5q9AHrjsRFoql7vWPwgM,Shree Shala Veg,13.09413242340088,77.81304931640625,0x3bae07d0abb9a28b:0x3c28ff5eea58a16,N_A,N_A,2572,4.0,https://www.google.com/maps/place/?q=place_id:ChIJi6K5q9AHrjsRFoql7vWPwgM,gmaps_v2,restaurant,food,N_A,1699615207,1629261235.0,2815,https://www.google.com/maps/preview/review/listentitiesreviews?authuser=0&hl=en&gl=in&pb=!1m2!1y4300383287001064075!2y270937214029236758!2m2!2i10!3sCAESB0VnTUktaFU=!3e2!4m5!3b1!4b1!6b1!7b1!20b1!5m2!1sPsrQZPb9H5adseMPzOi5IA!7e81,3.1586105756758127
ChIJoTTADloPrjsRz0FKqCStXVA,GRILLS N BIRYANIS,13.012505531311035,77.7624740600586,0x3bae0f5a0ec034a1:0x505dad24a84a41cf,N_A,N_A,32,5.0,https://www.google.com/maps/place/?q=place_id:ChIJoTTADloPrjsRz0FKqCStXVA,gmaps_v2,restaurant,food,N_A,1699615207,1698486978.0,61,https://www.google.com/maps/preview/review/listentitiesreviews?authuser=0&hl=en&gl=in&pb=!1m2!1y4300391573654353057!2y5790975068822192591!2m2!2i10!3sCAESBkVnSUlQQQ==!3e2!4m5!3b1!4b1!6b1!7b1!20b1!5m2!1sPsrQZPb9H5adseMPzOi5IA!7e81,2.450566330062425
18492910,Red Rhino,13.0247030988,77.7614996955,18492910,N_A,N_A,11000,4.2,,zomato,restaurant,food,N_A,1688639100,1492626600.0,9119,,2.4243351827051844
ChIJu_szAwoPrjsROOxOyHed4WU,Haldiram's,13.05524730682373,77.76385498046875,0x3bae0f0a0333fbbb:0x65e19d77c84eec38,haldirams,Haldiram's,282,4.5,https://www.google.com/maps/place/?q=place_id:ChIJu_szAwoPrjsROOxOyHed4WU,gmaps_v2,restaurant,food,N_A,1699615207,1688138710.0,327,https://www.google.com/maps/preview/review/listentitiesreviews?authuser=0&hl=en&gl=in&pb=!1m2!1y4300391229863230395!2y7341322005377903672!2m2!2i10!3sCAESB0VnTUl3QUk=!3e2!4m5!3b1!4b1!6b1!7b1!20b1!5m2!1sPsrQZPb9H5adseMPzOi5IA!7e81,2.1230171541019875
ChIJWUSJRK4FrjsRF0aUFrWQlNE,Tea Plant Cafe,13.0691556930542,77.78972625732422,0x3bae05ae44894459:0xd19490b516944617,N_A,N_A,35,4.699999809265137,https://www.google.com/maps/place/?q=place_id:ChIJWUSJRK4FrjsRF0aUFrWQlNE,gmaps_v2,coffee_shop,food,N_A,1687847039,1686396049.0,151,https://www.google.com/maps/preview/review/listentitiesreviews?authuser=0&hl=en&gl=in&pb=!1m2!1y4300380940217697369!2y15101854557922412055!2m2!2i10!3sCAESB0VnTUlsZ0U=!3e2!4m5!3b1!4b1!6b1!7b1!20b1!5m2!1sPsrQZPb9H5adseMPzOi5IA!7e81,2.0840943080241767
ChIJ5VoCdM0PrjsRA7cSa7KROQg,Balaji Bhavan,13.01298999786377,77.76117706298828,0x3bae0fcd74025ae5:0x83991b26b12b703,N_A,N_A,4084,4.0,https://www.google.com/maps/place/?q=place_id:ChIJ5VoCdM0PrjsRA7cSa7KROQg,gmaps_v2,restaurant,food,N_A,1699615207,1530122407.0,4109,https://www.google.com/maps/preview/review/listentitiesreviews?authuser=0&hl=en&gl=in&pb=!1m2!1y4300392069274426085!2y592665021462525699!2m2!2i10!3sCAESB0VnTUloQ0E=!3e2!4m5!3b1!4b1!6b1!7b1!20b1!5m2!1sPsrQZPb9H5adseMPzOi5IA!7e81,2.0818441845317324
ChIJH55NasARrjsRQwH8OcRo24U,Royaloak Furniture Aavalahalli (OMR),13.040849685668944,77.742431640625,0x3bae11c06a4d9e1f:0x85db68c439fc0143,royaloakindia,RoyalOak,3570,4.5,https://www.google.com/maps/place/?q=place_id:ChIJH55NasARrjsRQwH8OcRo24U,gmaps_v2,home_decor,retail,furniture_store,1695212099,1546573801.0,3777,https://www.google.com/maps/preview/review/listentitiesreviews?authuser=0&hl=en&gl=in&pb=!1m2!1y4300394212300267039!2y9645418218939744579!2m2!2i10!3sCAESB0VnTUl1aDA=!3e2!4m5!3b1!4b1!6b1!7b1!20b1!5m2!1sPsrQZPb9H5adseMPzOi5IA!7e81,2.0751583148509947
ChIJFevJ7D4FrjsR5NM0FPsrmN8,Raj Dum Biriyani,13.06605339050293,77.77601623535156,0x3bae053eecc9eb15:0xdf982bfb1434d3e4,N_A,N_A,4563,4.0,https://www.google.com/maps/place/?q=place_id:ChIJFevJ7D4FrjsR5NM0FPsrmN8,gmaps_v2,restaurant,food,N_A,1699615207,1507727947.0,4846,https://www.google.com/maps/preview/review/listentitiesreviews?authuser=0&hl=en&gl=in&pb=!1m2!1y4300380462004169493!2y16111676024293741540!2m2!2i10!3sCAESB0VnTUk2Q1U=!3e2!4m5!3b1!4b1!6b1!7b1!20b1!5m2!1sPsrQZPb9H5adseMPzOi5IA!7e81,2.0545564098419042
19270780,Kapoor's Cafe,13.0182281485,77.7626523748,19270780,zomato_kapoor's_cafe,Kapoor's Cafe,5302,3.8,,zomato,restaurant,food,N_A,1688639100,1576866600.0,1874,,2.049219620210696
ChIJq19kaDEOrjsRckrK7m26xlo,Rolla HyperMarket,13.012690544128418,77.76097869873047,0x3bae0e3168645fab:0x5ac6ba6deeca4a72,N_A,N_A,3899,4.099999904632568,https://www.google.com/maps/place/?q=place_id:ChIJq19kaDEOrjsRckrK7m26xlo,gmaps_v2,supermarket,retail,N_A,1699615207,1523681826.0,3985,https://www.google.com/maps/preview/review/listentitiesreviews?authuser=0&hl=en&gl=in&pb=!1m2!1y4300390299552997291!2y6541120490122660466!2m2!2i10!3sCAESB0VnTUlqQjg=!3e2!4m5!3b1!4b1!6b1!7b1!20b1!5m2!1sPsrQZPb9H5adseMPzOi5IA!7e81,1.9147793220662315
19503427,Lemon Leaf,13.0183274528,77.7626644447,19503427,N_A,N_A,3616,4.0,,zomato,restaurant,food,N_A,1688639100,1604169000.0,1161,,1.8493076248281937
18884670,Polar Bear,13.0123485433,77.7614641562,18884670,zomato_polar_bear,Polar Bear,6050,4.1,,zomato,restaurant,food,N_A,1688639100,1545676200.0,611,,1.8281666082599053
ChIJ6bAypfwPrjsRCI2dHsjwGB4,Biggies Burger: Kadugodi,13.012777328491213,77.76264190673828,0x3bae0ffca532b0e9:0x1e18f0c81e9d8d08,biggiesburger,Biggies Burger,614,4.800000190734863,https://www.google.com/maps/place/?q=place_id:ChIJ6bAypfwPrjsRCI2dHsjwGB4,gmaps_v2,restaurant,food,N_A,1699615207,1670387580.0,667,https://www.google.com/maps/preview/review/listentitiesreviews?authuser=0&hl=en&gl=in&pb=!1m2!1y4300392271963140329!2y2168747962876661000!2m2!2i10!3sCAESB0VnTUlsQVU=!3e2!4m5!3b1!4b1!6b1!7b1!20b1!5m2!1sPsrQZPb9H5adseMPzOi5IA!7e81,1.8150498499245251
ChIJIxs31AAPrjsRvFbFOqSm8DM,Sri Guru Nalapaka - Hoskote Toll,13.060240745544434,77.77080535888672,0x3bae0f00d4371b23:0x33f0a6a43ac556bc,srigurunalapaka,Sri Guru Nalapaka,3177,3.5999999046325684,https://www.google.com/maps/place/?q=place_id:ChIJIxs31AAPrjsRvFbFOqSm8DM,gmaps_v2,restaurant,food,N_A,1699615207,1540533897.0,3275,https://www.google.com/maps/preview/review/listentitiesreviews?authuser=0&hl=en&gl=in&pb=!1m2!1y4300391190420200227!2y3742674514635740860!2m2!2i10!3sCAESB0VnTUl4aGs=!3e2!4m5!3b1!4b1!6b1!7b1!20b1!5m2!1sPsrQZPb9H5adseMPzOi5IA!7e81,1.7254874252669907
ChIJy5JER48FrjsRxRzRzmDX8gg,New Sultan Family Restaurant,13.078447341918944,77.8100357055664,0x3bae058f474492cb:0x8f2d760ced11cc5,N_A,N_A,1068,4.099999904632568,https://www.google.com/maps/place/?q=place_id:ChIJy5JER48FrjsRxRzRzmDX8gg,gmaps_v2,restaurant,food,N_A,1699615207,1634699626.0,1199,https://www.google.com/maps/preview/review/listentitiesreviews?authuser=0&hl=en&gl=in&pb=!1m2!1y4300380807119540939!2y644814507454045381!2m2!2i10!3sCAESB0VnTUlwZ2s=!3e2!4m5!3b1!4b1!6b1!7b1!20b1!5m2!1sPsrQZPb9H5adseMPzOi5IA!7e81,1.4214645941472819
ChIJ2ZWZNXkFrjsRPK86oXAYPmI,Sri Guru Nalapaka,13.072687149047852,77.78672790527344,0x3bae0579359995d9:0x623e1870a13aaf3c,srigurunalapaka,Sri Guru Nalapaka,5133,3.799999952316284,https://www.google.com/maps/place/?q=place_id:ChIJ2ZWZNXkFrjsRPK86oXAYPmI,gmaps_v2,restaurant,food,N_A,1699615207,1365939240.0,5212,https://www.google.com/maps/preview/review/listentitiesreviews?authuser=0&hl=en&gl=in&pb=!1m2!1y4300380712333841881!2y7079122536293379900!2m2!2i10!3sCAESB0VnTUkyaWc=!3e2!4m5!3b1!4b1!6b1!7b1!20b1!5m2!1sPsrQZPb9H5adseMPzOi5IA!7e81,1.329107409165012
ChIJuYWNecYPrjsRn5RNXWw6HAc,One For The Road,13.01075553894043,77.7597427368164,0x3bae0fc6798d85b9:0x71c3a6c5d4d949f,bogineniblack,BOGINENI BLACK,2333,4.099999904632568,https://www.google.com/maps/place/?q=place_id:ChIJuYWNecYPrjsRn5RNXWw6HAc,gmaps_v2,restaurant,food,N_A,1699615207,1544283754.0,2370,https://www.google.com/maps/preview/review/listentitiesreviews?authuser=0&hl=en&gl=in&pb=!1m2!1y4300392039302661561!2y512348694709638303!2m2!2i10!3sCAESB0VnTUl1Qkk=!3e2!4m5!3b1!4b1!6b1!7b1!20b1!5m2!1sPsrQZPb9H5adseMPzOi5IA!7e81,1.297684378192226
19608588,Taco Bell,13.0548272586,77.7638224885,19608588,N_A,N_A,2256,3.5,,zomato,restaurant,food,N_A,1688639100,1612809000.0,708,,1.2852310625991525
ChIJCwMzw3MRrjsRA7ltLrOruUs,GrandPlus Hypermarket,13.063148498535156,77.7403793334961,0x3bae1173c333030b:0x4bb9abb32e6db903,N_A,N_A,1913,4.199999809265137,https://www.google.com/maps/place/?q=place_id:ChIJCwMzw3MRrjsRA7ltLrOruUs,gmaps_v2,supermarket,retail,N_A,1699615207,1557563642.0,1955,https://www.google.com/maps/preview/review/listentitiesreviews?authuser=0&hl=en&gl=in&pb=!1m2!1y4300393883079213835!2y5456581209602504963!2m2!2i10!3sCAESB0VnTUluZzg=!3e2!4m5!3b1!4b1!6b1!7b1!20b1!5m2!1sPsrQZPb9H5adseMPzOi5IA!7e81,1.1635436751436001
ChIJ36CgVTMOrjsRjN4JCyzZDmM,Indian Foods,13.02026653289795,77.76226806640625,0x3bae0e3355a0a0df:0x630ed92c0b09de8c,N_A,N_A,162,5.0,https://www.google.com/maps/place/?q=place_id:ChIJ36CgVTMOrjsRjN4JCyzZDmM,gmaps_v2,restaurant,food,N_A,1699615207,1687098065.0,112,https://www.google.com/maps/preview/review/listentitiesreviews?authuser=0&hl=en&gl=in&pb=!1m2!1y4300390307828113631!2y7137881242615799436!2m2!2i10!3sCAESBkVnSUliZw==!3e2!4m5!3b1!4b1!6b1!7b1!20b1!5m2!1sPsrQZPb9H5adseMPzOi5IA!7e81,1.1182105308064731
ChIJG-Msgu8PrjsR4g5fQibLAIE,Aishwarya Open Air Family Restaurant(RESTO BAR),13.05148983001709,77.75703430175781,0x3bae0fef822ce31b:0x8100cb26425f0ee2,N_A,N_A,3001,3.799999952316284,https://www.google.com/maps/place/?q=place_id:ChIJG-Msgu8PrjsR4g5fQibLAIE,gmaps_v2,restaurant,food,N_A,1699615207,1462603014.0,3055,https://www.google.com/maps/preview/review/listentitiesreviews?authuser=0&hl=en&gl=in&pb=!1m2!1y4300392215540982555!2y9295652996075425506!2m2!2i10!3sCAESB0VnTUk2aGM=!3e2!4m5!3b1!4b1!6b1!7b1!20b1!5m2!1sPsrQZPb9H5adseMPzOi5IA!7e81,1.0939791608105158
ChIJ27u22YgFrjsR6hM_SGxwAJ0,Domino's Pizza - Hoskote,13.074533462524414,77.7906494140625,0x3bae0588d9b6bbdb:0x9d00706c483f13ea,dominos,Domino's Pizza,850,3.900000095367432,https://www.google.com/maps/place/?q=place_id:ChIJ27u22YgFrjsR6hM_SGxwAJ0,gmaps_v2,restaurant,food,N_A,1699615207,1630053356.0,879,https://www.google.com/maps/preview/review/listentitiesreviews?authuser=0&hl=en&gl=in&pb=!1m2!1y4300380779511725019!2y11313165874325558250!2m2!2i10!3sCAESB0VnTUk1Z1k=!3e2!4m5!3b1!4b1!6b1!7b1!20b1!5m2!1sPsrQZPb9H5adseMPzOi5IA!7e81,1.0557510897747675
ChIJDbcbQZkRrjsRT2f1p3XooZw,Swachh Ahaara - Pure Veg | Andhra Style Restaurant | IDLY DOSA & SNACKS,13.064556121826172,77.74109649658203,0x3bae1199411bb70d:0x9ca1e875a7f5674f,N_A,N_A,191,4.699999809265137,https://www.google.com/maps/place/?q=place_id:ChIJDbcbQZkRrjsRT2f1p3XooZw,gmaps_v2,restaurant,food,N_A,1699615207,1683863636.0,217,https://www.google.com/maps/preview/review/listentitiesreviews?authuser=0&hl=en&gl=in&pb=!1m2!1y4300394044105406221!2y11286557733193869135!2m2!2i10!3sCAESB0VnTUkwZ0U=!3e2!4m5!3b1!4b1!6b1!7b1!20b1!5m2!1sPsrQZPb9H5adseMPzOi5IA!7e81,1.0476669279527737
ChIJ3QDlPTEOrjsRk2fvoFJJxfQ,McDonald's,13.01291275024414,77.7611312866211,0x3bae0e313de500dd:0xf4c54952a0ef6793,mcdelivery,McDonald's,2126,4.099999904632568,https://www.google.com/maps/place/?q=place_id:ChIJ3QDlPTEOrjsRk2fvoFJJxfQ,gmaps_v2,restaurant,food,N_A,1699615207,1522404823.0,2279,https://www.google.com/maps/preview/review/listentitiesreviews?authuser=0&hl=en&gl=in&pb=!1m2!1y4300390298840006877!2y17637584134902605715!2m2!2i10!3sCAESB0VnTUkzaEU=!3e2!4m5!3b1!4b1!6b1!7b1!20b1!5m2!1sPsrQZPb9H5adseMPzOi5IA!7e81,1.0365442241804521
ChIJ-_f3HDgPrjsRbUVtgMpqa7k,Sassy South Delicious Dakshin,13.020410537719728,77.76237487792969,0x3bae0f381cf7f7fb:0xb96b6aca806d456d,N_A,N_A,582,3.900000095367432,https://www.google.com/maps/place/?q=place_id:ChIJ-_f3HDgPrjsRbUVtgMpqa7k,gmaps_v2,restaurant,food,N_A,1699615207,1649603448.0,646,https://www.google.com/maps/preview/review/listentitiesreviews?authuser=0&hl=en&gl=in&pb=!1m2!1y4300391427864000507!2y13360890137495291245!2m2!2i10!3sCAESB0VnTUlnQVU=!3e2!4m5!3b1!4b1!6b1!7b1!20b1!5m2!1sPsrQZPb9H5adseMPzOi5IA!7e81,1.0054595360263174
ChIJlSJdF-8PrjsRThi5tL-WEIk,Kapoors Cafe Kadugodi,13.018311500549316,77.7627182006836,0x3bae0fef175d2295:0x891096bfb4b9184e,N_A,N_A,1522,3.799999952316284,https://www.google.com/maps/place/?q=place_id:ChIJlSJdF-8PrjsRThi5tL-WEIk,gmaps_v2,restaurant,food,N_A,1699615207,1564811791.0,1580,https://www.google.com/maps/preview/review/listentitiesreviews?authuser=0&hl=en&gl=in&pb=!1m2!1y4300392213748982421!2y9876559732938446926!2m2!2i10!3sCAESB0VnTUlvZ3c=!3e2!4m5!3b1!4b1!6b1!7b1!20b1!5m2!1sPsrQZPb9H5adseMPzOi5IA!7e81,0.9755005021534469
ChIJB2BKqygPrjsR6s29UG7LEHg,All Market,13.055341720581056,77.76371002197266,0x3bae0f28ab4a6007:0x7810cb6e50bdcdea,N_A,N_A,762,4.300000190734863,https://www.google.com/maps/place/?q=place_id:ChIJB2BKqygPrjsR6s29UG7LEHg,gmaps_v2,supermarket,retail,N_A,1699615207,1631536729.0,829,https://www.google.com/maps/preview/review/listentitiesreviews?authuser=0&hl=en&gl=in&pb=!1m2!1y4300391361532289031!2y8651638558840180202!2m2!2i10!3sCAESB0VnTUl0QVk=!3e2!4m5!3b1!4b1!6b1!7b1!20b1!5m2!1sPsrQZPb9H5adseMPzOi5IA!7e81,0.967072148704617
ChIJP5E04bIFrjsRUNyxkiMObig,Srigandha Veg & Non Veg Family Restaurant,13.089932441711426,77.83514404296875,0x3bae05b2e134913f:0x286e0e2392b1dc50,N_A,N_A,1090,4.0,https://www.google.com/maps/place/?q=place_id:ChIJP5E04bIFrjsRUNyxkiMObig,gmaps_v2,restaurant,food,N_A,1699615207,1602156026.0,1119,https://www.google.com/maps/preview/review/listentitiesreviews?authuser=0&hl=en&gl=in&pb=!1m2!1y4300380960026038591!2y2913281554903063632!2m2!2i10!3sCAESB0VnTUkxZ2c=!3e2!4m5!3b1!4b1!6b1!7b1!20b1!5m2!1sPsrQZPb9H5adseMPzOi5IA!7e81,0.9663122451234225
ChIJsQKdQRcFrjsR7vSzaDei1H0,Kanti Sweets,13.069683074951172,77.78160095214844,0x3bae0517419d02b1:0x7dd4a23768b3f4ee,kantisweets,Kanti Sweets,1407,4.199999809265137,https://www.google.com/maps/place/?q=place_id:ChIJsQKdQRcFrjsR7vSzaDei1H0,gmaps_v2,restaurant,food,N_A,1695212099,1551968708.0,1463,https://www.google.com/maps/preview/review/listentitiesreviews?authuser=0&hl=en&gl=in&pb=!1m2!1y4300380291628597937!2y9067050308667176174!2m2!2i10!3sCAESB0VnTUl0QXM=!3e2!4m5!3b1!4b1!6b1!7b1!20b1!5m2!1sPsrQZPb9H5adseMPzOi5IA!7e81,0.8486590491284864
ChIJc1Ex1PYRrjsRYPUMBJxFjsI,Lemon Leaf (Veg & Non-Veg Restaurant),13.063349723815918,77.74017333984375,0x3bae11f6d4315173:0xc28e459c040cf560,N_A,N_A,1354,4.0,https://www.google.com/maps/place/?q=place_id:ChIJc1Ex1PYRrjsRYPUMBJxFjsI,gmaps_v2,restaurant,food,N_A,1699615207,1561402891.0,1381,https://www.google.com/maps/preview/review/listentitiesreviews?authuser=0&hl=en&gl=in&pb=!1m2!1y4300394446005031283!2y14019219226436105568!2m2!2i10!3sCAESB0VnTUk1QW8=!3e2!4m5!3b1!4b1!6b1!7b1!20b1!5m2!1sPsrQZPb9H5adseMPzOi5IA!7e81,0.8464195043226105
ChIJp8NL9n4FrjsR2N4E1cp5eIA,More Supermarket - Hoskote,13.069376945495604,77.7869873046875,0x3bae057ef64bc3a7:0x807879cad504ded8,N_A,N_A,2554,3.799999952316284,https://www.google.com/maps/place/?q=place_id:ChIJp8NL9n4FrjsR2N4E1cp5eIA,gmaps_v2,supermarket,retail,N_A,1699615207,1436540445.0,2633,https://www.google.com/maps/preview/review/listentitiesreviews?authuser=0&hl=en&gl=in&pb=!1m2!1y4300380737041580967!2y9257282946124275416!2m2!2i10!3sCAESB0VnTUl4aFE=!3e2!4m5!3b1!4b1!6b1!7b1!20b1!5m2!1sPsrQZPb9H5adseMPzOi5IA!7e81,0.8387942587970487
ChIJJwnMM4MPrjsR2RfqMxnnt74,Tata Star Bazaar,13.01830768585205,77.76256561279297,0x3bae0f8333cc0927:0xbeb7e71933ea17d9,starbazaarindia,Star Bazaar,985,4.0,https://www.google.com/maps/place/?q=place_id:ChIJJwnMM4MPrjsR2RfqMxnnt74,gmaps_v2,supermarket,retail,N_A,1699615207,1595990917.0,1026,https://www.google.com/maps/preview/review/listentitiesreviews?authuser=0&hl=en&gl=in&pb=!1m2!1y4300391750369544487!2y13742706883375536089!2m2!2i10!3sCAESB0VnTUlfQWM=!3e2!4m5!3b1!4b1!6b1!7b1!20b1!5m2!1sPsrQZPb9H5adseMPzOi5IA!7e81,0.821274625862334
ChIJH2i6wKEFrjsRQgBQ2R0L9vM,Pizza Hut,13.074357986450195,77.79138946533203,0x3bae05a1c0ba681f:0xf3f60b1dd9500042,pizzahut,Pizza Hut,511,4.099999904632568,https://www.google.com/maps/place/?q=place_id:ChIJH2i6wKEFrjsRQgBQ2R0L9vM,gmaps_v2,restaurant,food,N_A,1699615207,1643627192.0,594,https://www.google.com/maps/preview/review/listentitiesreviews?authuser=0&hl=en&gl=in&pb=!1m2!1y4300380886466717727!2y17579250418315165762!2m2!2i10!3sCAESB0VnTUl6Z1E=!3e2!4m5!3b1!4b1!6b1!7b1!20b1!5m2!1sPsrQZPb9H5adseMPzOi5IA!7e81,0.7885687677978939
ChIJQz36GisSrjsRFuvOZJao660,The Bawarchi,13.01599407196045,77.76215362548828,0x3bae122b1afa3d43:0xadeba89664ceeb16,N_A,N_A,2435,3.5999999046325684,https://www.google.com/maps/place/?q=place_id:ChIJQz36GisSrjsRFuvOZJao660,gmaps_v2,restaurant,food,N_A,1699615207,1423039048.0,2437,https://www.google.com/maps/preview/review/listentitiesreviews?authuser=0&hl=en&gl=in&pb=!1m2!1y4300394670530903363!2y12532295751978380054!2m2!2i10!3sCAESB0VnTUlfaEk=!3e2!4m5!3b1!4b1!6b1!7b1!20b1!5m2!1sPsrQZPb9H5adseMPzOi5IA!7e81,0.7606729399984183
ChIJSUH_wZIPrjsR-_Ibti7IMPw,Punjab Beat,13.016420364379885,77.76229095458984,0x3bae0f92c1ff4149:0xfc30c82eb61bf2fb,N_A,N_A,1341,4.099999904632568,https://www.google.com/maps/place/?q=place_id:ChIJSUH_wZIPrjsR-_Ibti7IMPw,gmaps_v2,restaurant,food,N_A,1699615207,1546164152.0,1406,https://www.google.com/maps/preview/review/listentitiesreviews?authuser=0&hl=en&gl=in&pb=!1m2!1y4300391817179775305!2y18172244599389287163!2m2!2i10!3sCAESB0VnTUktQW8=!3e2!4m5!3b1!4b1!6b1!7b1!20b1!5m2!1sPsrQZPb9H5adseMPzOi5IA!7e81,0.7550446622866164
ChIJ0YOZZhQPrjsRbmeAbwLlqP4,Lemon Leaf (Veg and Non Veg Restaurant),13.01840877532959,77.76245880126953,0x3bae0f14669983d1:0xfea8e5026f80676e,N_A,N_A,909,4.199999809265137,https://www.google.com/maps/place/?q=place_id:ChIJ0YOZZhQPrjsRbmeAbwLlqP4,gmaps_v2,restaurant,food,N_A,1699615207,1591501836.0,949,https://www.google.com/maps/preview/review/listentitiesreviews?authuser=0&hl=en&gl=in&pb=!1m2!1y4300391274480501713!2y18350168480344467310!2m2!2i10!3sCAESB0VnTUlyQWM=!3e2!4m5!3b1!4b1!6b1!7b1!20b1!5m2!1sPsrQZPb9H5adseMPzOi5IA!7e81,0.7264374357543619
ChIJTdjCwywFrjsRji0SCLoQzJ4,MDP Coffee House - Hoskote,13.069247245788574,77.79776000976562,0x3bae052cc3c2d84d:0x9ecc10ba08122d8e,N_A,N_A,1014,4.400000095367432,https://www.google.com/maps/place/?q=place_id:ChIJTdjCwywFrjsRji0SCLoQzJ4,gmaps_v2,restaurant,food,N_A,1699615207,1575626698.0,1063,https://www.google.com/maps/preview/review/listentitiesreviews?authuser=0&hl=en&gl=in&pb=!1m2!1y4300380384006428749!2y11442539144426958222!2m2!2i10!3sCAESB0VnTUlwQWc=!3e2!4m5!3b1!4b1!6b1!7b1!20b1!5m2!1sPsrQZPb9H5adseMPzOi5IA!7e81,0.7065945119156163
ChIJwwZrgFkRrjsRsmjZ-lcDuJo,"Naivedya, Pure Veg",13.06328296661377,77.74026489257812,0x3bae1159806b06c3:0x9ab80357fad968b2,N_A,N_A,545,3.799999952316284,https://www.google.com/maps/place/?q=place_id:ChIJwwZrgFkRrjsRsmjZ-lcDuJo,gmaps_v2,restaurant,food,N_A,1699615207,1631696489.0,588,https://www.google.com/maps/preview/review/listentitiesreviews?authuser=0&hl=en&gl=in&pb=!1m2!1y4300393770289661635!2y11148664553961253042!2m2!2i10!3sCAESB0VnTUl4QVE=!3e2!4m5!3b1!4b1!6b1!7b1!20b1!5m2!1sPsrQZPb9H5adseMPzOi5IA!7e81,0.6932993052077338
ChIJ70vZ6-8FrjsRXtLiE6meEsE,Mayura kitchens,13.090292930603027,77.83627319335938,0x3bae05efebd94bef:0xc1129ea913e2d25e,N_A,N_A,264,4.400000095367432,https://www.google.com/maps/place/?q=place_id:ChIJ70vZ6-8FrjsRXtLiE6meEsE,gmaps_v2,restaurant,food,N_A,1699615207,1665257553.0,287,https://www.google.com/maps/preview/review/listentitiesreviews?authuser=0&hl=en&gl=in&pb=!1m2!1y4300381222197611503!2y13912356647921177182!2m2!2i10!3sCAESB0VnTUltQUk=!3e2!4m5!3b1!4b1!6b1!7b1!20b1!5m2!1sPsrQZPb9H5adseMPzOi5IA!7e81,0.6638870046249374
ChIJxRHMXFgFrjsRP2gsuKJrGHs,T S Telecom,13.070335388183594,77.78874969482422,0x3bae05585ccc11c5:0x7b186ba2b82c683f,N_A,N_A,45,5.0,https://www.google.com/maps/place/?q=place_id:ChIJxRHMXFgFrjsRP2gsuKJrGHs,gmaps_v2,electronic_store,retail,N_A,1695212099,1689343179.0,44,https://www.google.com/maps/preview/review/listentitiesreviews?authuser=0&hl=en&gl=in&pb=!1m2!1y4300380571257541061!2y8869957812724983871!2m2!2i10!3sCAESBkVnSUlLQQ==!3e2!4m5!3b1!4b1!6b1!7b1!20b1!5m2!1sPsrQZPb9H5adseMPzOi5IA!7e81,0.6624728229384623
ChIJX8FUN1IPrjsR7UXrIWIz0-Q,Karavali Cafe,13.032434463500977,77.75118255615234,0x3bae0f523754c15f:0xe4d3336221eb45ed,N_A,N_A,294,4.699999809265137,https://www.google.com/maps/place/?q=place_id:ChIJX8FUN1IPrjsR7UXrIWIz0-Q,gmaps_v2,restaurant,food,N_A,1699615207,1660416155.0,356,https://www.google.com/maps/preview/review/listentitiesreviews?authuser=0&hl=en&gl=in&pb=!1m2!1y4300391539975438687!2y16488579157302396397!2m2!2i10!3sCAESB0VnTUkzZ0k=!3e2!4m5!3b1!4b1!6b1!7b1!20b1!5m2!1sPsrQZPb9H5adseMPzOi5IA!7e81,0.6480156713994002
ChIJUdmM-zMOrjsRCxIpcPpqXVs,Udupi Cafe,13.015156745910645,77.76192474365234,0x3bae0e33fb8cd951:0x5b5d6afa7029120b,N_A,N_A,1538,3.900000095367432,https://www.google.com/maps/place/?q=place_id:ChIJUdmM-zMOrjsRCxIpcPpqXVs,gmaps_v2,restaurant,food,N_A,1699615207,1490077304.0,1597,https://www.google.com/maps/preview/review/listentitiesreviews?authuser=0&hl=en&gl=in&pb=!1m2!1y4300390310611835217!2y6583535854141641227!2m2!2i10!3sCAESB0VnTUl0Z3c=!3e2!4m5!3b1!4b1!6b1!7b1!20b1!5m2!1sPsrQZPb9H5adseMPzOi5IA!7e81,0.634172615538679
54688,Five Star Chicken,13.0160473634,77.7621947229,54688,zomato_five_star_chicken,Five star chicken,4216,3.5,,zomato,restaurant,food,N_A,1688639100,1398105000.0,331,,0.626884073160431
20245893,Sassy South,13.020389,77.762255,20245893,N_A,N_A,552,3.8,,zomato,restaurant,food,N_A,1688639100,1650479400.0,639,,0.6249105731963301
ChIJBW9Ab1oPrjsRjpUzU5TYl9w,Mayura Bakery and Sweets,13.044425010681152,77.76055145263672,0x3bae0f5a6f406f05:0xdc97d8945333958e,N_A,N_A,827,4.199999809265137,https://www.google.com/maps/place/?q=place_id:ChIJBW9Ab1oPrjsRjpUzU5TYl9w,gmaps_v2,coffee_shop,food,N_A,1687847039,1572805591.0,1059,https://www.google.com/maps/preview/review/listentitiesreviews?authuser=0&hl=en&gl=in&pb=!1m2!1y4300391575273369349!2y15895411541390103950!2m2!2i10!3sCAESB0VnTUltZ2c=!3e2!4m5!3b1!4b1!6b1!7b1!20b1!5m2!1sPsrQZPb9H5adseMPzOi5IA!7e81,0.6211048386664952
ChIJ6z3IKW4FrjsR_igix9i1AAI,Pai international,13.07504940032959,77.78565216064453,0x3bae056e29c83deb:0x200b5d8c72228fe,paiinternational,Pai International,963,4.699999809265137,https://www.google.com/maps/place/?q=place_id:ChIJ6z3IKW4FrjsR_igix9i1AAI,gmaps_v2,electronic_store,retail,N_A,1699615207,1563525769.0,1001,https://www.google.com/maps/preview/review/listentitiesreviews?authuser=0&hl=en&gl=in&pb=!1m2!1y4300380664890932715!2y144315130734323966!2m2!2i10!3sCAESB0VnTUk2QWM=!3e2!4m5!3b1!4b1!6b1!7b1!20b1!5m2!1sPsrQZPb9H5adseMPzOi5IA!7e81,0.6113861679699198
ChIJPznEOUwPrjsR90c-O3SUJ-Y,"Lara Foods, North Indian & Hyderabadi Dum Biryani Restaurant",13.016069412231444,77.76203918457031,0x3bae0f4c39c4393f:0xe62794743b3e47f7,N_A,N_A,267,4.599999904632568,https://www.google.com/maps/place/?q=place_id:ChIJPznEOUwPrjsR90c-O3SUJ-Y,gmaps_v2,restaurant,food,N_A,1699615207,1661702771.0,296,https://www.google.com/maps/preview/review/listentitiesreviews?authuser=0&hl=en&gl=in&pb=!1m2!1y4300391514246494527!2y16584387379746195447!2m2!2i10!3sCAESB0VnTUlvZ0k=!3e2!4m5!3b1!4b1!6b1!7b1!20b1!5m2!1sPsrQZPb9H5adseMPzOi5IA!7e81,0.6084758046146125
ChIJCylhsu4VrjsReXkM4J_RGq4,Poorvika Mobiles Hoskote,13.074549674987791,77.78662872314453,0x3bae15eeb261290b:0xae1ad19fe00c7979,poorvika,Poorvika,451,4.800000190734863,https://www.google.com/maps/place/?q=place_id:ChIJCylhsu4VrjsReXkM4J_RGq4,gmaps_v2,electronic_store,retail,N_A,1695212099,1630822099.0,553,https://www.google.com/maps/preview/review/listentitiesreviews?authuser=0&hl=en&gl=in&pb=!1m2!1y4300398809124514059!2y12545570196582857081!2m2!2i10!3sCAESB0VnTUlwZ1E=!3e2!4m5!3b1!4b1!6b1!7b1!20b1!5m2!1sPsrQZPb9H5adseMPzOi5IA!7e81,0.6051622922814102
ChIJL6X_BRcbrjsR_VPAo9hyiCY,Olio Foodies,13.080016136169434,77.73719024658203,0x3bae1b1705ffa52f:0x268872d8a3c053fd,N_A,N_A,75,5.0,https://www.google.com/maps/place/?q=place_id:ChIJL6X_BRcbrjsR_VPAo9hyiCY,gmaps_v2,restaurant,food,N_A,1699615207,1687628824.0,76,https://www.google.com/maps/preview/review/listentitiesreviews?authuser=0&hl=en&gl=in&pb=!1m2!1y4300404479884240175!2y2776595445059703805!2m2!2i10!3sCAESBkVnSUlSZw==!3e2!4m5!3b1!4b1!6b1!7b1!20b1!5m2!1sPsrQZPb9H5adseMPzOi5IA!7e81,0.5406134611250116
ChIJQWKZU98PrjsRTJvSvkGSjto,Peturam,13.062159538269045,77.75074768066406,0x3bae0fdf53996241:0xda8e9241bed29b4c,N_A,N_A,258,4.699999809265137,https://www.google.com/maps/place/?q=place_id:ChIJQWKZU98PrjsRTJvSvkGSjto,gmaps_v2,restaurant,food,N_A,1699615207,1657357468.0,285,https://www.google.com/maps/preview/review/listentitiesreviews?authuser=0&hl=en&gl=in&pb=!1m2!1y4300392146040087105!2y15748685758033206092!2m2!2i10!3sCAESB0VnTUltQUk=!3e2!4m5!3b1!4b1!6b1!7b1!20b1!5m2!1sPsrQZPb9H5adseMPzOi5IA!7e81,0.527505742794237
ChIJrV74yuoPrjsRF0lUzHixzwY,Starbucks Kadugodi,13.02469253540039,77.76144409179688,0x3bae0feacaf85ead:0x6cfb178cc544917,N_A,N_A,73,4.599999904632568,https://www.google.com/maps/place/?q=place_id:ChIJrV74yuoPrjsRF0lUzHixzwY,gmaps_v2,coffee_shop,food,N_A,1687847039,1675880963.0,94,https://www.google.com/maps/preview/review/listentitiesreviews?authuser=0&hl=en&gl=in&pb=!1m2!1y4300392195287441069!2y490806016788941079!2m2!2i10!3sCAESBkVnSUlXZw==!3e2!4m5!3b1!4b1!6b1!7b1!20b1!5m2!1sPsrQZPb9H5adseMPzOi5IA!7e81,0.5270900836665253
ChIJBZY7o48FrjsRXiPb-R61edA,"Maruti Suzuki Arena (Bimal Auto, Amanidoddakere, Hoskote)",13.06023120880127,77.77191925048828,0x3bae058fa33b9605:0xd079b51ef9db235e,N_A,N_A,1552,4.699999809265137,https://www.google.com/maps/place/?q=place_id:ChIJBZY7o48FrjsRXiPb-R61edA,gmaps_v2,electronic_store,retail,N_A,1695212099,1435136564.0,1580,https://www.google.com/maps/preview/review/listentitiesreviews?authuser=0&hl=en&gl=in&pb=!1m2!1y4300380808662455813!2y15022237176716534622!2m2!2i10!3sCAESB0VnTUlvZ3c=!3e2!4m5!3b1!4b1!6b1!7b1!20b1!5m2!1sPsrQZPb9H5adseMPzOi5IA!7e81,0.5155917491431864
ChIJZV4fcbsPrjsRxauyjOHnaqk,Pizza Hut,13.055825233459473,77.7638931274414,0x3bae0fbb711f5e65:0xa96ae7e18cb2abc5,pizzahut,Pizza Hut,648,4.400000095367432,https://www.google.com/maps/place/?q=place_id:ChIJZV4fcbsPrjsRxauyjOHnaqk,gmaps_v2,restaurant,food,N_A,1699615207,1591012227.0,731,https://www.google.com/maps/preview/review/listentitiesreviews?authuser=0&hl=en&gl=in&pb=!1m2!1y4300391991916584549!2y12207824695855328197!2m2!2i10!3sCAESB0VnTUkyZ1U=!3e2!4m5!3b1!4b1!6b1!7b1!20b1!5m2!1sPsrQZPb9H5adseMPzOi5IA!7e81,0.51552176560901
ChIJU8XQjJsPrjsRpYfWuLfqZY4,Cardamom Kitchenette,13.06216526031494,77.76122283935547,0x3bae0f9b8cd0c553:0x8e65eab7b8d687a5,N_A,N_A,186,4.5,https://www.google.com/maps/place/?q=place_id:ChIJU8XQjJsPrjsRpYfWuLfqZY4,gmaps_v2,restaurant,food,N_A,1699615207,1667642956.0,193,https://www.google.com/maps/preview/review/listentitiesreviews?authuser=0&hl=en&gl=in&pb=!1m2!1y4300391854942242131!2y10260865400834525093!2m2!2i10!3sCAESB0VnTUl2Z0U=!3e2!4m5!3b1!4b1!6b1!7b1!20b1!5m2!1sPsrQZPb9H5adseMPzOi5IA!7e81,0.5026358638307951
ChIJ6xovm78PrjsRBeeiTNcFdfs,Amritsari Chullah,13.012701034545898,77.7625961303711,0x3bae0fbf9b2f1aeb:0xfb7505d74ca2e705,N_A,N_A,120,4.599999904632568,https://www.google.com/maps/place/?q=place_id:ChIJ6xovm78PrjsRBeeiTNcFdfs,gmaps_v2,restaurant,food,N_A,1687847039,1667095875.0,227,https://www.google.com/maps/preview/review/listentitiesreviews?authuser=0&hl=en&gl=in&pb=!1m2!1y4300392009802128107!2y18119395098056910597!2m2!2i10!3sCAESB0VnTUkzQUU=!3e2!4m5!3b1!4b1!6b1!7b1!20b1!5m2!1sPsrQZPb9H5adseMPzOi5IA!7e81,0.4996346229059729
ChIJQVUVuxcOrjsRCRkIg_CBJ9Q,Casio Hyper Shoppee,13.016002655029297,77.76226806640625,0x3bae0e17bb155541:0xd42781f083081909,N_A,N_A,1492,4.0,https://www.google.com/maps/place/?q=place_id:ChIJQVUVuxcOrjsRCRkIg_CBJ9Q,gmaps_v2,supermarket,retail,N_A,1699615207,1435322800.0,1502,https://www.google.com/maps/preview/review/listentitiesreviews?authuser=0&hl=en&gl=in&pb=!1m2!1y4300390189271176513!2y15287330330122918153!2m2!2i10!3sCAESB0VnTUkzQXM=!3e2!4m5!3b1!4b1!6b1!7b1!20b1!5m2!1sPsrQZPb9H5adseMPzOi5IA!7e81,0.4877506753343845
ChIJk3NqIfYFrjsRRMuVdgZiTRI,Sri Sai Andhra Hotel,13.095333099365234,77.81471252441406,0x3bae05f6216a7393:0x124d62067695cb44,N_A,N_A,800,2.5999999046325684,https://www.google.com/maps/place/?q=place_id:ChIJk3NqIfYFrjsRRMuVdgZiTRI,gmaps_v2,restaurant,food,N_A,1687847039,1545671793.0,808,https://www.google.com/maps/preview/review/listentitiesreviews?authuser=0&hl=en&gl=in&pb=!1m2!1y4300381248866120595!2y1318818045788277572!2m2!2i10!3sCAESB0VnTUlvQVk=!3e2!4m5!3b1!4b1!6b1!7b1!20b1!5m2!1sPsrQZPb9H5adseMPzOi5IA!7e81,0.4861605795990675
ChIJvRwD9zMOrjsR_RGmrsKBdUA,A1 Fresh world branch 1,13.015639305114746,77.76211547851562,0x3bae0e33f7031cbd:0x407581c2aea611fd,N_A,N_A,1461,3.900000095367432,https://www.google.com/maps/place/?q=place_id:ChIJvRwD9zMOrjsR_RGmrsKBdUA,gmaps_v2,supermarket,retail,N_A,1699615207,1439783779.0,1460,https://www.google.com/maps/preview/review/listentitiesreviews?authuser=0&hl=en&gl=in&pb=!1m2!1y4300390310535699645!2y4644761263856292349!2m2!2i10!3sCAESB0VnTUlxZ3M=!3e2!4m5!3b1!4b1!6b1!7b1!20b1!5m2!1sPsrQZPb9H5adseMPzOi5IA!7e81,0.4858165194704622
ChIJLzT9hGwRrjsRYrdTm1RTtio,New Royal Fresh Mart,13.065407752990724,77.74200439453125,0x3bae116c84fd342f:0x2ab653549b53b762,N_A,N_A,302,4.199999809265137,https://www.google.com/maps/place/?q=place_id:ChIJLzT9hGwRrjsRYrdTm1RTtio,gmaps_v2,supermarket,retail,N_A,1699615207,1645161643.0,318,https://www.google.com/maps/preview/review/listentitiesreviews?authuser=0&hl=en&gl=in&pb=!1m2!1y4300393851970729007!2y3077739018202625890!2m2!2i10!3sCAESB0VnTUl0Z0k=!3e2!4m5!3b1!4b1!6b1!7b1!20b1!5m2!1sPsrQZPb9H5adseMPzOi5IA!7e81,0.4791752473722381
ChIJrw7EFH8PrjsRQTA2PXYVarA,Pizza Cucina,13.0130033493042,77.76268005371094,0x3bae0f7f14c40eaf:0xb06a15763d363041,N_A,N_A,132,4.800000190734863,https://www.google.com/maps/place/?q=place_id:ChIJrw7EFH8PrjsRQTA2PXYVarA,gmaps_v2,restaurant,food,N_A,1699615207,1675776405.0,173,https://www.google.com/maps/preview/review/listentitiesreviews?authuser=0&hl=en&gl=in&pb=!1m2!1y4300391732669058735!2y12711996495783931969!2m2!2i10!3sCAESB0VnTUlxZ0U=!3e2!4m5!3b1!4b1!6b1!7b1!20b1!5m2!1sPsrQZPb9H5adseMPzOi5IA!7e81,0.47841330281613986
ChIJwdq1a4IRrjsRmctZiHMp57A,Thulasi's Yummy Veg & Non Veg Restaurant,13.064552307128906,77.74113464355469,0x3bae11826bb5dac1:0xb0e729738859cb99,N_A,N_A,30,4.599999904632568,https://www.google.com/maps/place/?q=place_id:ChIJwdq1a4IRrjsRmctZiHMp57A,gmaps_v2,restaurant,food,N_A,1687847039,1682365410.0,32,https://www.google.com/maps/preview/review/listentitiesreviews?authuser=0&hl=en&gl=in&pb=!1m2!1y4300393946035903169!2y12747202846481042329!2m2!2i10!3sCAESBkVnSUlIZw==!3e2!4m5!3b1!4b1!6b1!7b1!20b1!5m2!1sPsrQZPb9H5adseMPzOi5IA!7e81,0.47285213939141085
ChIJp5BfebYarjsRhLXrFI25jW8,Udupi Veg,13.084881782531738,77.73925018310547,0x3bae1ab6795f90a7:0x6f8db98d14ebb584,N_A,N_A,938,4.0,https://www.google.com/maps/place/?q=place_id:ChIJp5BfebYarjsRhLXrFI25jW8,gmaps_v2,restaurant,food,N_A,1699615207,1525872213.0,981,https://www.google.com/maps/preview/review/listentitiesreviews?authuser=0&hl=en&gl=in&pb=!1m2!1y4300404065208078503!2y8038284925518722436!2m2!2i10!3sCAESB0VnTUkxQWM=!3e2!4m5!3b1!4b1!6b1!7b1!20b1!5m2!1sPsrQZPb9H5adseMPzOi5IA!7e81,0.4664544919722058
ChIJSRD9AUUPrjsRDajZPSPfYR0,LG Best Shop Protail Kadugudi,13.012809753417969,77.76167297363281,0x3bae0f4501fd1049:0x1d61df233dd9a80d,N_A,N_A,883,4.900000095367432,https://www.google.com/maps/place/?q=place_id:ChIJSRD9AUUPrjsRDajZPSPfYR0,gmaps_v2,electronic_store,retail,N_A,1695212099,1529817739.0,1017,https://www.google.com/maps/preview/review/listentitiesreviews?authuser=0&hl=en&gl=in&pb=!1m2!1y4300391483245924425!2y2117218642295367693!2m2!2i10!3sCAESB0VnTUk4Z2M=!3e2!4m5!3b1!4b1!6b1!7b1!20b1!5m2!1sPsrQZPb9H5adseMPzOi5IA!7e81,0.4612684495408429
ChIJTzyxqoURrjsRDKOpgDPwmuQ,Reliance Digital,13.055280685424805,77.76388549804688,0x3bae1185aab13c4f:0xe49af03380a9a30c,reliancedigitalstores,Reliance Digital,490,4.400000095367432,https://www.google.com/maps/place/?q=place_id:ChIJTzyxqoURrjsRDKOpgDPwmuQ,gmaps_v2,electronic_store,retail,N_A,1695212099,1601993449.0,588,https://www.google.com/maps/preview/review/listentitiesreviews?authuser=0&hl=en&gl=in&pb=!1m2!1y4300393959977466959!2y16472742691053609740!2m2!2i10!3sCAESB0VnTUl4QVE=!3e2!4m5!3b1!4b1!6b1!7b1!20b1!5m2!1sPsrQZPb9H5adseMPzOi5IA!7e81,0.45415804669988247
ChIJJwGrXJIFrjsRKOVJWU3zD3A,SLV FAMILY RESTAURANT,13.084940910339355,77.8258056640625,0x3bae05925cab0127:0x700ff34d5949e528,N_A,N_A,509,4.099999904632568,https://www.google.com/maps/place/?q=place_id:ChIJJwGrXJIFrjsRKOVJWU3zD3A,gmaps_v2,restaurant,food,N_A,1699615207,1600502796.0,535,https://www.google.com/maps/preview/review/listentitiesreviews?authuser=0&hl=en&gl=in&pb=!1m2!1y4300380820363477287!2y8074940170434635048!2m2!2i10!3sCAESB0VnTUlrZ1E=!3e2!4m5!3b1!4b1!6b1!7b1!20b1!5m2!1sPsrQZPb9H5adseMPzOi5IA!7e81,0.4437143598494441
19594598,Belgian Waffle Factory,13.0125938699,77.7615201473,19594598,zomato_belgian_waffle_factory,Belgian Waffle Factory,799,3.8,,zomato,restaurant,food,N_A,1688639100,1610649000.0,396,,0.4425792504433255
ChIJy3Iy5zoQrjsR_CdSLoLlluA,SP BIRIYANI CENTER,13.032866477966309,77.73229217529297,0x3bae103ae73272cb:0xe096e5822e5227fc,N_A,N_A,1109,4.199999809265137,https://www.google.com/maps/place/?q=place_id:ChIJy3Iy5zoQrjsR_CdSLoLlluA,gmaps_v2,restaurant,food,N_A,1699615207,1482676495.0,1135,https://www.google.com/maps/preview/review/listentitiesreviews?authuser=0&hl=en&gl=in&pb=!1m2!1y4300392539358393035!2y16183374658288101372!2m2!2i10!3sCAESB0VnTUk2Z2c=!3e2!4m5!3b1!4b1!6b1!7b1!20b1!5m2!1sPsrQZPb9H5adseMPzOi5IA!7e81,0.4416805055982816
ChIJoXxIqswPrjsRmeppdIz--i8,Mayura Bakery & Sweets,13.020397186279297,77.76229095458984,0x3bae0fccaa487ca1:0x2ffafe8c7469ea99,N_A,N_A,1145,4.0,https://www.google.com/maps/place/?q=place_id:ChIJoXxIqswPrjsRmeppdIz--i8,gmaps_v2,coffee_shop,food,N_A,1687847039,1461913458.0,1160,https://www.google.com/maps/preview/review/listentitiesreviews?authuser=0&hl=en&gl=in&pb=!1m2!1y4300392065890024609!2y3457355543162251929!2m2!2i10!3sCAESB0VnTUlfZ2c=!3e2!4m5!3b1!4b1!6b1!7b1!20b1!5m2!1sPsrQZPb9H5adseMPzOi5IA!7e81,0.43786319661794765
ChIJfVPXmTkPrjsR0ZQrX0PUoYs,"Max Furn - Furniture Mall, Hoskote",13.06110668182373,77.77162170410156,0x3bae0f3999d7537d:0x8ba1d4435f2b94d1,N_A,N_A,153,4.699999809265137,https://www.google.com/maps/place/?q=place_id:ChIJfVPXmTkPrjsR0ZQrX0PUoYs,gmaps_v2,home_decor,retail,N_A,1695212099,1664703756.0,217,https://www.google.com/maps/preview/review/listentitiesreviews?authuser=0&hl=en&gl=in&pb=!1m2!1y4300391434253980541!2y10061556428346987729!2m2!2i10!3sCAESB0VnTUkwZ0U=!3e2!4m5!3b1!4b1!6b1!7b1!20b1!5m2!1sPsrQZPb9H5adseMPzOi5IA!7e81,0.4332978687174194
18517807,Aishwarya Open Air Family Restaurant,13.051481,77.757133,18517807,N_A,N_A,1711,3.7,,zomato,restaurant,food,N_A,1688639100,1512498600.0,539,,0.41963773237841384
ChIJUzBGkFUFrjsRXvzElFe_4AE,Annai Batteries - Exide Care Authorised Dealer,13.077862739562988,77.7992935180664,0x3bae055590463053:0x1e0bf5794c4fc5e,N_A,N_A,20,5.0,https://www.google.com/maps/place/?q=place_id:ChIJUzBGkFUFrjsRXvzElFe_4AE,gmaps_v2,electronic_store,retail,N_A,1695212099,1691067024.0,24,https://www.google.com/maps/preview/review/listentitiesreviews?authuser=0&hl=en&gl=in&pb=!1m2!1y4300380559236280403!2y135318371700112478!2m2!2i10!3sCAESBkVnSUlGQQ==!3e2!4m5!3b1!4b1!6b1!7b1!20b1!5m2!1sPsrQZPb9H5adseMPzOi5IA!7e81,0.41688027357767954
ChIJqUZ8Z1YPrjsRJDOgu5HZmu4,KFC,13.055241584777832,77.76385498046875,0x3bae0f56677c46a9:0xee9ad991bba03324,kfc,KFC,471,4.5,https://www.google.com/maps/place/?q=place_id:ChIJqUZ8Z1YPrjsRJDOgu5HZmu4,gmaps_v2,restaurant,food,N_A,1699615207,1600188188.0,475,https://www.google.com/maps/preview/review/listentitiesreviews?authuser=0&hl=en&gl=in&pb=!1m2!1y4300391557963204265!2y17193293747381613348!2m2!2i10!3sCAESB0VnTUkxZ00=!3e2!4m5!3b1!4b1!6b1!7b1!20b1!5m2!1sPsrQZPb9H5adseMPzOi5IA!7e81,0.40928914905917074
ChIJf1-8L1gPrjsRkbavLaJRsqg,Grills N Seeds Restaurant,13.016440391540527,77.76229095458984,0x3bae0f582fbc5f7f:0xa8b251a22dafb691,N_A,N_A,109,4.300000190734863,https://www.google.com/maps/place/?q=place_id:ChIJf1-8L1gPrjsRkbavLaJRsqg,gmaps_v2,restaurant,food,N_A,1699615207,1676548780.0,120,https://www.google.com/maps/preview/review/listentitiesreviews?authuser=0&hl=en&gl=in&pb=!1m2!1y4300391565617815423!2y12155868101219432081!2m2!2i10!3sCAESBkVnSUliZw==!3e2!4m5!3b1!4b1!6b1!7b1!20b1!5m2!1sPsrQZPb9H5adseMPzOi5IA!7e81,0.40828169876504933
ChIJVcXSNkIPrjsR_gAzqtaI-7g,Barley & Grapes Cafe - Old Madras Rd.,13.05402374267578,77.76166534423828,0x3bae0f4236d2c555:0xb8fb88d6aa3300fe,N_A,N_A,283,4.300000190734863,https://www.google.com/maps/place/?q=place_id:ChIJVcXSNkIPrjsR_gAzqtaI-7g,gmaps_v2,restaurant,food,N_A,1699615207,1638251751.0,311,https://www.google.com/maps/preview/review/listentitiesreviews?authuser=0&hl=en&gl=in&pb=!1m2!1y4300391471247443285!2y13329397977692963070!2m2!2i10!3sCAESB0VnTUl0Z0k=!3e2!4m5!3b1!4b1!6b1!7b1!20b1!5m2!1sPsrQZPb9H5adseMPzOi5IA!7e81,0.3984651711924439
ChIJvRVjeNMPrjsRE9RZhw9xc5Y,Jockey Exclusive Store,13.0553617477417,77.76377868652344,0x3bae0fd3786315bd:0x9673710f8759d413,jockey,Jockey,295,4.900000095367432,https://www.google.com/maps/place/?q=place_id:ChIJvRVjeNMPrjsRE9RZhw9xc5Y,gmaps_v2,clothing_store,retail,N_A,1699615207,1634812331.0,305,https://www.google.com/maps/preview/review/listentitiesreviews?authuser=0&hl=en&gl=in&pb=!1m2!1y4300392095117678013!2y10841133039520175123!2m2!2i10!3sCAESB0VnTUlyQUk=!3e2!4m5!3b1!4b1!6b1!7b1!20b1!5m2!1sPsrQZPb9H5adseMPzOi5IA!7e81,0.39331587690645087
20064931,Naivedya,13.0632566,77.7401323,20064931,N_A,N_A,422,3.1,,zomato,restaurant,food,N_A,1688639100,1642185000.0,410,,0.3924389881625088
ChIJW7sMi4oRrjsRPp8_QGG-8WE,UP Bhavan Sweets,13.06273078918457,77.74065399169922,0x3bae118a8b0cbb5b:0x61f1be61403f9f3e,N_A,N_A,331,4.199999809265137,https://www.google.com/maps/place/?q=place_id:ChIJW7sMi4oRrjsRPp8_QGG-8WE,gmaps_v2,coffee_shop,food,N_A,1687847039,1614313358.0,391,https://www.google.com/maps/preview/review/listentitiesreviews?authuser=0&hl=en&gl=in&pb=!1m2!1y4300393980921428827!2y7057631415965294398!2m2!2i10!3sCAESB0VnTUloZ00=!3e2!4m5!3b1!4b1!6b1!7b1!20b1!5m2!1sPsrQZPb9H5adseMPzOi5IA!7e81,0.3889156589345772
ChIJdRHlMLAFrjsR5EoDhdbH7P4,RAHMANIâ€™s FAMILY RESTAURANT,13.09377670288086,77.81375885009766,0x3bae05b030e51175:0xfeecc7d685034ae4,N_A,N_A,117,3.400000095367432,https://www.google.com/maps/place/?q=place_id:ChIJdRHlMLAFrjsR5EoDhdbH7P4,gmaps_v2,restaurant,food,N_A,1699615207,1673541104.0,133,https://www.google.com/maps/preview/review/listentitiesreviews?authuser=0&hl=en&gl=in&pb=!1m2!1y4300380948478103925!2y18369276704305924836!2m2!2i10!3sCAESB0VnTUlnZ0U=!3e2!4m5!3b1!4b1!6b1!7b1!20b1!5m2!1sPsrQZPb9H5adseMPzOi5IA!7e81,0.3876950244462868
19708458,Anand Sweets And Savouries,13.0174536388,77.762452215,19708458,zomato_anand_sweets_and_savouries,Anand Sweets and Savouries,471,4.0,,zomato,restaurant,food,N_A,1688639100,1635791400.0,268,,0.3850158095811171
ChIJLwKMhn0FrjsR3UTAqymlDWo,PERFECT OPTICALS,13.06917667388916,77.7877197265625,0x3bae057d868c022f:0x6a0da529abc044dd,N_A,N_A,186,5.0,https://www.google.com/maps/place/?q=place_id:ChIJLwKMhn0FrjsR3UTAqymlDWo,gmaps_v2,supermarket,retail,N_A,1699615207,1657715129.0,191,https://www.google.com/maps/preview/review/listentitiesreviews?authuser=0&hl=en&gl=in&pb=!1m2!1y4300380730871775791!2y7641945741111346397!2m2!2i10!3sCAESB0VnTUl2Z0U=!3e2!4m5!3b1!4b1!6b1!7b1!20b1!5m2!1sPsrQZPb9H5adseMPzOi5IA!7e81,0.38354105211928247
ChIJ8TRA0uAPrjsRYYw-P2DgQ0k,Domino's Pizza,13.029104232788086,77.75996398925781,0x3bae0fe0d24034f1:0x4943e0603f3e8c61,dominos,Domino's Pizza,380,3.799999952316284,https://www.google.com/maps/place/?q=place_id:ChIJ8TRA0uAPrjsRYYw-P2DgQ0k,gmaps_v2,restaurant,food,N_A,1699615207,1609079888.0,388,https://www.google.com/maps/preview/review/listentitiesreviews?authuser=0&hl=en&gl=in&pb=!1m2!1y4300392152459916529!2y5279309892190899297!2m2!2i10!3sCAESB0VnTUlfQUk=!3e2!4m5!3b1!4b1!6b1!7b1!20b1!5m2!1sPsrQZPb9H5adseMPzOi5IA!7e81,0.3626430034448766
ChIJZ7DnRsIPrjsRx_d2u65AvIY,AISHWARYA HOTEL,13.04113483428955,77.7605972290039,0x3bae0fc246e7b067:0x86bc40aebb76f7c7,N_A,N_A,851,3.799999952316284,https://www.google.com/maps/place/?q=place_id:ChIJZ7DnRsIPrjsRx_d2u65AvIY,gmaps_v2,restaurant,food,N_A,1699615207,1494332701.0,893,https://www.google.com/maps/preview/review/listentitiesreviews?authuser=0&hl=en&gl=in&pb=!1m2!1y4300392021273063527!2y9708706015917569991!2m2!2i10!3sCAESB0VnTUktZ1k=!3e2!4m5!3b1!4b1!6b1!7b1!20b1!5m2!1sPsrQZPb9H5adseMPzOi5IA!7e81,0.3581717771898206
ChIJ_diQz-IPrjsRfn9b_dIT53Q,GOPIZZA,13.055063247680664,77.76165771484375,0x3bae0fe2cf90d8fd:0x74e713d2fd5b7f7e,gopizza,GoPizza,123,4.900000095367432,https://www.google.com/maps/place/?q=place_id:ChIJ_diQz-IPrjsRfn9b_dIT53Q,gmaps_v2,restaurant,food,N_A,1699615207,1669204959.0,123,https://www.google.com/maps/preview/review/listentitiesreviews?authuser=0&hl=en&gl=in&pb=!1m2!1y4300392161004804349!2y8423723424934494078!2m2!2i10!3sCAESBkVnSUllQQ==!3e2!4m5!3b1!4b1!6b1!7b1!20b1!5m2!1sPsrQZPb9H5adseMPzOi5IA!7e81,0.34946114217812363
ChIJkx7xcXkFrjsRczMwMhH7F2I,Samsung SmartPlaza - Abm Incorporation,13.074651718139648,77.78641510009766,0x3bae057971f11e93:0x6217fb1132303373,samsungsmartplaza,Samsung,707,4.800000190734863,https://www.google.com/maps/place/?q=place_id:ChIJkx7xcXkFrjsRczMwMhH7F2I,gmaps_v2,electronic_store,retail,N_A,1695212099,1519997715.0,704,https://www.google.com/maps/preview/review/listentitiesreviews?authuser=0&hl=en&gl=in&pb=!1m2!1y4300380713346211475!2y7068394191456318323!2m2!2i10!3sCAESB0VnTUl2QVU=!3e2!4m5!3b1!4b1!6b1!7b1!20b1!5m2!1sPsrQZPb9H5adseMPzOi5IA!7e81,0.3486289116537373
20013768,The Awadh Express,13.0361156,77.7596753,20013768,N_A,N_A,395,3.1,,zomato,restaurant,food,N_A,1688639100,1639333800.0,230,,0.346088554374479
ChIJjdeNzGIFrjsRsptYHArU5gE,Wings Honda,13.068440437316896,77.77952575683594,0x3bae0562cc8dd78d:0x1e6d40a1c589bb2,N_A,N_A,861,3.799999952316284,https://www.google.com/maps/place/?q=place_id:ChIJjdeNzGIFrjsRsptYHArU5gE,gmaps_v2,electronic_store,retail,N_A,1695212099,1479399248.0,933,https://www.google.com/maps/preview/review/listentitiesreviews?authuser=0&hl=en&gl=in&pb=!1m2!1y4300380616082184077!2y137029978571709362!2m2!2i10!3sCAESB0VnTUlvZ2M=!3e2!4m5!3b1!4b1!6b1!7b1!20b1!5m2!1sPsrQZPb9H5adseMPzOi5IA!7e81,0.344698657449273
20026432,Barley & Grapes Cafe,13.0539351,77.7616466,20026432,N_A,N_A,381,3.9,,zomato,restaurant,food,N_A,1688639100,1640197800.0,271,,0.33977618272011695
ChIJH4KZetIFrjsRO7hjHFNBgt8,Yamaha Music Instruments-Rhyme Enterprises-Music Center,13.019912719726562,77.76236724853516,0x3bae05d27a99821f:0xdf8241531c63b83b,N_A,N_A,271,4.900000095367432,https://www.google.com/maps/place/?q=place_id:ChIJH4KZetIFrjsRO7hjHFNBgt8,gmaps_v2,electronic_store,retail,N_A,1695212099,1625134256.0,276,https://www.google.com/maps/preview/review/listentitiesreviews?authuser=0&hl=en&gl=in&pb=!1m2!1y4300381095743554079!2y16105507042644703291!2m2!2i10!3sCAESB0VnTUlqZ0k=!3e2!4m5!3b1!4b1!6b1!7b1!20b1!5m2!1sPsrQZPb9H5adseMPzOi5IA!7e81,0.3341198729532814
ChIJg4n_HEkFrjsR2phSXRhb_y8,Attur Coffee (hoskote mushroom biryani),13.08874797821045,77.83174896240234,0x3bae05491cff8983:0x2fff5b185d5298da,N_A,N_A,225,4.199999809265137,https://www.google.com/maps/place/?q=place_id:ChIJg4n_HEkFrjsR2phSXRhb_y8,gmaps_v2,restaurant,food,N_A,1699615207,1640828854.0,246,https://www.google.com/maps/preview/review/listentitiesreviews?authuser=0&hl=en&gl=in&pb=!1m2!1y4300380505762662787!2y3458583199046867162!2m2!2i10!3sCAESB0VnTUk4QUU=!3e2!4m5!3b1!4b1!6b1!7b1!20b1!5m2!1sPsrQZPb9H5adseMPzOi5IA!7e81,0.33068899511422317
ChIJGStYJQ4brjsReNHrfcbUSas,Yuvaans Dine INN,13.065569877624512,77.74212646484375,0x3bae1b0e25582b19:0xab49d4c67debd178,N_A,N_A,181,4.599999904632568,https://www.google.com/maps/place/?q=place_id:ChIJGStYJQ4brjsReNHrfcbUSas,gmaps_v2,restaurant,food,N_A,1699615207,1652080713.0,181,https://www.google.com/maps/preview/review/listentitiesreviews?authuser=0&hl=en&gl=in&pb=!1m2!1y4300404441755429657!2y12342630202766774648!2m2!2i10!3sCAESB0VnTUl0QUU=!3e2!4m5!3b1!4b1!6b1!7b1!20b1!5m2!1sPsrQZPb9H5adseMPzOi5IA!7e81,0.32899056419954736
ChIJp2oNu60PrjsRQ1Yai4ORjcU,Cafe Mumbai,13.01283073425293,77.76258850097656,0x3bae0fadbb0d6aa7:0xc58d91838b1a5643,N_A,N_A,215,4.099999904632568,https://www.google.com/maps/place/?q=place_id:ChIJp2oNu60PrjsRQ1Yai4ORjcU,gmaps_v2,restaurant,food,N_A,1699615207,1642426135.0,250,https://www.google.com/maps/preview/review/listentitiesreviews?authuser=0&hl=en&gl=in&pb=!1m2!1y4300391933027379879!2y14235193991348508227!2m2!2i10!3sCAESB0VnTUk4QUU=!3e2!4m5!3b1!4b1!6b1!7b1!20b1!5m2!1sPsrQZPb9H5adseMPzOi5IA!7e81,0.32481730075983745
ChIJGduJ9DAOrjsRe8Qg5IGQdJg,BOGINENI BLACK,13.010664939880373,77.7598648071289,0x3bae0e30f489db19:0x98749081e420c47b,bogineniblack,BOGINENI BLACK,816,4.199999809265137,https://www.google.com/maps/place/?q=place_id:ChIJGduJ9DAOrjsRe8Qg5IGQdJg,gmaps_v2,restaurant,food,N_A,1699615207,1480560749.0,857,https://www.google.com/maps/preview/review/listentitiesreviews?authuser=0&hl=en&gl=in&pb=!1m2!1y4300390297609296665!2y10985564278616015995!2m2!2i10!3sCAESB0VnTUkwZ1k=!3e2!4m5!3b1!4b1!6b1!7b1!20b1!5m2!1sPsrQZPb9H5adseMPzOi5IA!7e81,0.32184873407141523
ChIJk8M96HQFrjsRVIVKiz8VMpk,36 Sakura Cafe,13.073113441467283,77.7510757446289,0x3bae0574e83dc393:0x9932153f8b4a8554,36sakuracafe,36sakuracafe,166,4.800000190734863,https://www.google.com/maps/place/?q=place_id:ChIJk8M96HQFrjsRVIVKiz8VMpk,gmaps_v2,restaurant,food,N_A,1699615207,1654946304.0,195,https://www.google.com/maps/preview/review/listentitiesreviews?authuser=0&hl=en&gl=in&pb=!1m2!1y4300380693856109459!2y11038908999302546772!2m2!2i10!3sCAESB0VnTUl2Z0U=!3e2!4m5!3b1!4b1!6b1!7b1!20b1!5m2!1sPsrQZPb9H5adseMPzOi5IA!7e81,0.3210824317758598
ChIJkbgd-8APrjsRBtGnBWc_Q0E,Dream Home Furniture,13.0175199508667,77.76249694824219,0x3bae0fc0fb1db891:0x41433f6705a7d106,N_A,N_A,222,4.900000095367432,https://www.google.com/maps/place/?q=place_id:ChIJkbgd-8APrjsRBtGnBWc_Q0E,gmaps_v2,home_decor,retail,N_A,1695212099,1633178331.0,225,https://www.google.com/maps/preview/review/listentitiesreviews?authuser=0&hl=en&gl=in&pb=!1m2!1y4300392015706568849!2y4702672147613995270!2m2!2i10!3sCAESB0VnTUkzQUU=!3e2!4m5!3b1!4b1!6b1!7b1!20b1!5m2!1sPsrQZPb9H5adseMPzOi5IA!7e81,0.3091993380121614
ChIJyw83cgQbrjsR9z7Vqy8h22Q,Chilli Oregano,13.065516471862791,77.74205017089844,0x3bae1b0472370fcb:0x64db212fabd53ef7,N_A,N_A,49,5.0,https://www.google.com/maps/place/?q=place_id:ChIJyw83cgQbrjsR9z7Vqy8h22Q,gmaps_v2,restaurant,food,N_A,1699615207,1685541054.0,57,https://www.google.com/maps/preview/review/listentitiesreviews?authuser=0&hl=en&gl=in&pb=!1m2!1y4300404400095432651!2y7267438912322486007!2m2!2i10!3sCAESBkVnSUlNZw==!3e2!4m5!3b1!4b1!6b1!7b1!20b1!5m2!1sPsrQZPb9H5adseMPzOi5IA!7e81,0.30080673416013026
ChIJke_n0iUQrjsRk0SrPUCjNO0,Blue Land Bakery & Sweets,13.03339672088623,77.73906707763672,0x3bae1025d2e7ef91:0xed34a3403dab4493,N_A,N_A,722,4.099999904632568,https://www.google.com/maps/place/?q=place_id:ChIJke_n0iUQrjsRk0SrPUCjNO0,gmaps_v2,coffee_shop,food,N_A,1687847039,1478915345.0,769,https://www.google.com/maps/preview/review/listentitiesreviews?authuser=0&hl=en&gl=in&pb=!1m2!1y4300392448823652241!2y17092465982085743763!2m2!2i10!3sCAESB0VnTUktQVU=!3e2!4m5!3b1!4b1!6b1!7b1!20b1!5m2!1sPsrQZPb9H5adseMPzOi5IA!7e81,0.2985703069061413
ChIJFQF4gqQFrjsRTzlXTFKd2SA,ðƒð€ð’ð“ð€ð‘ðŠð‡ð–ð€ð Restaurant,13.075271606445312,77.79295349121094,0x3bae05a482780115:0x20d99d524c57394f,N_A,N_A,230,4.199999809265137,https://www.google.com/maps/place/?q=place_id:ChIJFQF4gqQFrjsRTzlXTFKd2SA,gmaps_v2,restaurant,food,N_A,1699615207,1632260949.0,252,https://www.google.com/maps/preview/review/listentitiesreviews?authuser=0&hl=en&gl=in&pb=!1m2!1y4300380898307080469!2y2367096055953570127!2m2!2i10!3sCAESB0VnTUktZ0U=!3e2!4m5!3b1!4b1!6b1!7b1!20b1!5m2!1sPsrQZPb9H5adseMPzOi5IA!7e81,0.29503702646386515
ChIJ3Q7z6AMbrjsR6MUYvMtWngk,Ema Cakes,13.065252304077148,77.74099731445312,0x3bae1b03e8f30edd:0x99e56cbbc18c5e8,N_A,N_A,76,5.0,https://www.google.com/maps/place/?q=place_id:ChIJ3Q7z6AMbrjsR6MUYvMtWngk,gmaps_v2,coffee_shop,food,N_A,1687847039,1665468819.0,152,https://www.google.com/maps/preview/review/listentitiesreviews?authuser=0&hl=en&gl=in&pb=!1m2!1y4300404397792497373!2y693086825695725032!2m2!2i10!3sCAESB0VnTUlsZ0U=!3e2!4m5!3b1!4b1!6b1!7b1!20b1!5m2!1sPsrQZPb9H5adseMPzOi5IA!7e81,0.29342816363410495
ChIJ304GSxkPrjsRldZ-u8e9wns,Lulu Sarees,13.012772560119627,77.76129913330078,0x3bae0f194b064edf:0x7bc2bdc7bb7ed695,N_A,N_A,527,4.099999904632568,https://www.google.com/maps/place/?q=place_id:ChIJ304GSxkPrjsRldZ-u8e9wns,gmaps_v2,clothing_store,retail,N_A,1687847039,1529752463.0,584,https://www.google.com/maps/preview/review/listentitiesreviews?authuser=0&hl=en&gl=in&pb=!1m2!1y4300391295492706015!2y8917898877688796821!2m2!2i10!3sCAESB0VnTUl4QVE=!3e2!4m5!3b1!4b1!6b1!7b1!20b1!5m2!1sPsrQZPb9H5adseMPzOi5IA!7e81,0.2880098808702963
ChIJB9dU30AFrjsRVTTDo9kPRIQ,White Gold Hoskote - Turn Your Gold Into Money,13.075729370117188,77.78632354736328,0x3bae0540df54d707:0x84440fd9a3c33455,whitegold,White Gold Company,346,5.0,https://www.google.com/maps/place/?q=place_id:ChIJB9dU30AFrjsRVTTDo9kPRIQ,gmaps_v2,jewelry_store,retail,N_A,1687847039,1583823643.0,369,https://www.google.com/maps/preview/review/listentitiesreviews?authuser=0&hl=en&gl=in&pb=!1m2!1y4300380470368327431!2y9530760138852611157!2m2!2i10!3sCAESB0VnTUk2QUk=!3e2!4m5!3b1!4b1!6b1!7b1!20b1!5m2!1sPsrQZPb9H5adseMPzOi5IA!7e81,0.2873815040608749
ChIJ0VUTVTMOrjsR3u_DO1X2J-k,Kabab Mandra,13.020313262939451,77.7623062133789,0x3bae0e33551355d1:0xe927f6553bc3efde,N_A,N_A,750,3.400000095367432,https://www.google.com/maps/place/?q=place_id:ChIJ0VUTVTMOrjsR3u_DO1X2J-k,gmaps_v2,restaurant,food,N_A,1699615207,1461912591.0,762,https://www.google.com/maps/preview/review/listentitiesreviews?authuser=0&hl=en&gl=in&pb=!1m2!1y4300390307818853841!2y16800667780864274398!2m2!2i10!3sCAESB0VnTUktQVU=!3e2!4m5!3b1!4b1!6b1!7b1!20b1!5m2!1sPsrQZPb9H5adseMPzOi5IA!7e81,0.27260953661528065
ChIJcYmVqY8PrjsRw8liXnCkntY,Club 6 Cafe,13.045218467712402,77.74961853027344,0x3bae0f8fa9958971:0xd69ea4705e62c9c3,N_A,N_A,225,4.099999904632568,https://www.google.com/maps/place/?q=place_id:ChIJcYmVqY8PrjsRw8liXnCkntY,gmaps_v2,restaurant,food,N_A,1687847039,1614265142.0,223,https://www.google.com/maps/preview/review/listentitiesreviews?authuser=0&hl=en&gl=in&pb=!1m2!1y4300391803885291889!2y15464978972963686851!2m2!2i10!3sCAESB0VnTUkzQUU=!3e2!4m5!3b1!4b1!6b1!7b1!20b1!5m2!1sPsrQZPb9H5adseMPzOi5IA!7e81,0.2641954175223289
ChIJ4eJ7XIUFrjsRsrj8JnJKY-M,Ganesh Upahar,13.078375816345217,77.80229187011719,0x3bae05855c7be2e1:0xe3634a7226fcb8b2,N_A,N_A,644,3.5999999046325684,https://www.google.com/maps/place/?q=place_id:ChIJ4eJ7XIUFrjsRsrj8JnJKY-M,gmaps_v2,restaurant,food,N_A,1699615207,1487582617.0,665,https://www.google.com/maps/preview/review/listentitiesreviews?authuser=0&hl=en&gl=in&pb=!1m2!1y4300380764525814497!2y16385021723444820146!2m2!2i10!3sCAESB0VnTUlsQVU=!3e2!4m5!3b1!4b1!6b1!7b1!20b1!5m2!1sPsrQZPb9H5adseMPzOi5IA!7e81,0.26242003646703554
19549096,Aaditya Grand Hotel,13.0748287412,77.7825865522,19549096,N_A,N_A,490,3.4,,zomato,restaurant,food,N_A,1688639100,1607711400.0,174,,0.2615668059267717
ChIJ21hkDfQRrjsR2hOxGe7J9aA,Mayura bakery,13.062579154968262,77.74072265625,0x3bae11f40d6458db:0xa0f5c9ee19b113da,N_A,N_A,252,4.300000190734863,https://www.google.com/maps/place/?q=place_id:ChIJ21hkDfQRrjsR2hOxGe7J9aA,gmaps_v2,coffee_shop,food,N_A,1687847039,1603718214.0,260,https://www.google.com/maps/preview/review/listentitiesreviews?authuser=0&hl=en&gl=in&pb=!1m2!1y4300394434079774939!2y11598398439833015258!2m2!2i10!3sCAESB0VnTUktZ0U=!3e2!4m5!3b1!4b1!6b1!7b1!20b1!5m2!1sPsrQZPb9H5adseMPzOi5IA!7e81,0.25880309156819914
ChIJ5Xv8_34FrjsR0Pocmy5M-PE,QFC Family Restaurant,13.070323944091797,77.78898620605469,0x3bae057efffc7be5:0xf1f84c2e9b1cfad0,N_A,N_A,764,3.5999999046325684,https://www.google.com/maps/place/?q=place_id:ChIJ5Xv8_34FrjsR0Pocmy5M-PE,gmaps_v2,restaurant,food,N_A,1699615207,1435400744.0,776,https://www.google.com/maps/preview/review/listentitiesreviews?authuser=0&hl=en&gl=in&pb=!1m2!1y4300380737204157413!2y17435769720419449552!2m2!2i10!3sCAESB0VnTUlnZ1k=!3e2!4m5!3b1!4b1!6b1!7b1!20b1!5m2!1sPsrQZPb9H5adseMPzOi5IA!7e81,0.249833409006077
ChIJn3aAixQFrjsRX_2RkoThAew,Wellcome Mart Supermarket,13.068622589111328,77.78659057617188,0x3bae05148b80769f:0xec01e1849291fd5f,N_A,N_A,447,4.0,https://www.google.com/maps/place/?q=place_id:ChIJn3aAixQFrjsRX_2RkoThAew,gmaps_v2,supermarket,retail,N_A,1699615207,1539868099.0,454,https://www.google.com/maps/preview/review/listentitiesreviews?authuser=0&hl=en&gl=in&pb=!1m2!1y4300380279983339167!2y17006121627438677343!2m2!2i10!3sCAESB0VnTUl3Z00=!3e2!4m5!3b1!4b1!6b1!7b1!20b1!5m2!1sPsrQZPb9H5adseMPzOi5IA!7e81,0.241762123167826
ChIJEUKyJwEFrjsRGl9RkQo3GCM,Ammas pastries,13.078660011291504,77.78697204589844,0x3bae050127b24211:0x2318370a91515f1a,N_A,N_A,220,4.199999809265137,https://www.google.com/maps/place/?q=place_id:ChIJEUKyJwEFrjsRGl9RkQo3GCM,gmaps_v2,coffee_shop,food,N_A,1687847039,1607237196.0,225,https://www.google.com/maps/preview/review/listentitiesreviews?authuser=0&hl=en&gl=in&pb=!1m2!1y4300380196704502289!2y2528831709295763226!2m2!2i10!3sCAESB0VnTUkzQUU=!3e2!4m5!3b1!4b1!6b1!7b1!20b1!5m2!1sPsrQZPb9H5adseMPzOi5IA!7e81,0.23580246893670292
ChIJd3PSddoFrjsR--e7MPKlx9w,RV Dum Biryani,13.07301425933838,77.78314971923828,0x3bae05da75d27377:0xdcc7a5f230bbe7fb,N_A,N_A,269,4.0,https://www.google.com/maps/place/?q=place_id:ChIJd3PSddoFrjsR--e7MPKlx9w,gmaps_v2,restaurant,food,N_A,1699615207,1600406844.0,294,https://www.google.com/maps/preview/review/listentitiesreviews?authuser=0&hl=en&gl=in&pb=!1m2!1y4300381130023138167!2y15908866668327856123!2m2!2i10!3sCAESB0VnTUlvZ0k=!3e2!4m5!3b1!4b1!6b1!7b1!20b1!5m2!1sPsrQZPb9H5adseMPzOi5IA!7e81,0.23427057253227734
ChIJGUO_9DMOrjsRKQL1LW1Scss,Aquabrim Wireless Water Level Controller,13.016122817993164,77.76210021972656,0x3bae0e33f4bf4319:0xcb72526d2df50229,aquabrim,AquaBrim,542,4.900000095367432,https://www.google.com/maps/place/?q=place_id:ChIJGUO_9DMOrjsRKQL1LW1Scss,gmaps_v2,electronic_store,retail,N_A,1695212099,1491303523.0,1328,https://www.google.com/maps/preview/review/listentitiesreviews?authuser=0&hl=en&gl=in&pb=!1m2!1y4300390310497698585!2y14659870365920330281!2m2!2i10!3sCAESB0VnTUlxQW8=!3e2!4m5!3b1!4b1!6b1!7b1!20b1!5m2!1sPsrQZPb9H5adseMPzOi5IA!7e81,0.22965586302755603
ChIJg8Myy3sFrjsRN0VeUgijAzc,Sangeetha - Hoskote,13.075389862060549,77.78628540039062,0x3bae057bcb32c383:0x3703a308525e4537,sangeethamobiles,Sangeetha Mobiles,549,4.599999904632568,https://www.google.com/maps/place/?q=place_id:ChIJg8Myy3sFrjsRN0VeUgijAzc,gmaps_v2,electronic_store,retail,N_A,1695212099,1486890609.0,553,https://www.google.com/maps/preview/review/listentitiesreviews?authuser=0&hl=en&gl=in&pb=!1m2!1y4300380723433620355!2y3964191353153144119!2m2!2i10!3sCAESB0VnTUlwZ1E=!3e2!4m5!3b1!4b1!6b1!7b1!20b1!5m2!1sPsrQZPb9H5adseMPzOi5IA!7e81,0.22769422396124375
ChIJ0WAit_kFrjsRGEqkuz30n3g,Indian sweet stall,13.076862335205078,77.78973388671875,0x3bae05f9b72260d1:0x789ff43dbba44a18,N_A,N_A,380,4.300000190734863,https://www.google.com/maps/place/?q=place_id:ChIJ0WAit_kFrjsRGEqkuz30n3g,gmaps_v2,coffee_shop,food,N_A,1687847039,1542866861.0,402,https://www.google.com/maps/preview/review/listentitiesreviews?authuser=0&hl=en&gl=in&pb=!1m2!1y4300381264262881489!2y8691934351826635288!2m2!2i10!3sCAESB0VnTUlrQU0=!3e2!4m5!3b1!4b1!6b1!7b1!20b1!5m2!1sPsrQZPb9H5adseMPzOi5IA!7e81,0.22645854387073522
ChIJM-3aIc4PrjsR9mv1YZQFlzc,Meals And Memories,13.013028144836426,77.76241302490234,0x3bae0fce21daed33:0x3797059461f56bf6,N_A,N_A,67,3.799999952316284,https://www.google.com/maps/place/?q=place_id:ChIJM-3aIc4PrjsR9mv1YZQFlzc,gmaps_v2,restaurant,food,N_A,1699615207,1673093244.0,73,https://www.google.com/maps/preview/review/listentitiesreviews?authuser=0&hl=en&gl=in&pb=!1m2!1y4300392072191077683!2y4005676528426118134!2m2!2i10!3sCAESBkVnSUlSZw==!3e2!4m5!3b1!4b1!6b1!7b1!20b1!5m2!1sPsrQZPb9H5adseMPzOi5IA!7e81,0.21826438714208296
ChIJO6JvJnwPrjsRiUlUuTiwdbo,T/20 Opticals,13.023399353027344,77.76116180419922,0x3bae0f7c266fa23b:0xba75b038b9544989,N_A,N_A,144,5.0,https://www.google.com/maps/place/?q=place_id:ChIJO6JvJnwPrjsRiUlUuTiwdbo,gmaps_v2,coffee_shop,food,N_A,1687847039,1627465579.0,148,https://www.google.com/maps/preview/review/listentitiesreviews?authuser=0&hl=en&gl=in&pb=!1m2!1y4300391720080613947!2y13435838821003708809!2m2!2i10!3sCAESB0VnTUlqQUU=!3e2!4m5!3b1!4b1!6b1!7b1!20b1!5m2!1sPsrQZPb9H5adseMPzOi5IA!7e81,0.2060500027657496
ChIJ6xT26cMFrjsRLzVAz84vMw8,Aaditya Grand,13.074793815612791,77.78267669677734,0x3bae05c3e9f614eb:0xf332fcecf40352f,N_A,N_A,226,3.5999999046325684,https://www.google.com/maps/place/?q=place_id:ChIJ6xT26cMFrjsRLzVAz84vMw8,gmaps_v2,restaurant,food,N_A,1699615207,1604029418.0,230,https://www.google.com/maps/preview/review/listentitiesreviews?authuser=0&hl=en&gl=in&pb=!1m2!1y4300381033187382507!2y1095271699668022575!2m2!2i10!3sCAESB0VnTUkzQUU=!3e2!4m5!3b1!4b1!6b1!7b1!20b1!5m2!1sPsrQZPb9H5adseMPzOi5IA!7e81,0.2042814125852955
ChIJReHPlRQPrjsRDFYeogPWDbY,YAMUNA'S KITCHEN ( #NO ONION #NO GARLIC ),13.029207229614258,77.7494125366211,0x3bae0f1495cfe145:0xb60dd603a21e560c,N_A,N_A,51,4.599999904632568,https://www.google.com/maps/place/?q=place_id:ChIJReHPlRQPrjsRDFYeogPWDbY,gmaps_v2,restaurant,food,N_A,1699615207,1677286877.0,53,https://www.google.com/maps/preview/review/listentitiesreviews?authuser=0&hl=en&gl=in&pb=!1m2!1y4300391275272593733!2y13118376600693265932!2m2!2i10!3sCAESBkVnSUlNZw==!3e2!4m5!3b1!4b1!6b1!7b1!20b1!5m2!1sPsrQZPb9H5adseMPzOi5IA!7e81,0.19734570386589592
ChIJexprUScFrjsRr-7RZa_BXw0,Bharath Fashion,13.076855659484863,77.78731536865234,0x3bae0527516b1a7b:0xd5fc1af65d1eeaf,N_A,N_A,38,5.0,https://www.google.com/maps/place/?q=place_id:ChIJexprUScFrjsRr-7RZa_BXw0,gmaps_v2,clothing_store,retail,N_A,1687847039,1671005387.0,40,https://www.google.com/maps/preview/review/listentitiesreviews?authuser=0&hl=en&gl=in&pb=!1m2!1y4300380360613239419!2y963701804352269999!2m2!2i10!3sCAESBkVnSUlIZw==!3e2!4m5!3b1!4b1!6b1!7b1!20b1!5m2!1sPsrQZPb9H5adseMPzOi5IA!7e81,0.19494524646394545
ChIJ3yzfWjEPrjsRl-PGyVwkICg,Shree Gauri Shankar -Pure Veg,13.062122344970703,77.76123046875,0x3bae0f315adf2cdf:0x2820245cc9c6e397,N_A,N_A,78,4.300000190734863,https://www.google.com/maps/place/?q=place_id:ChIJ3yzfWjEPrjsRl-PGyVwkICg,gmaps_v2,restaurant,food,N_A,1699615207,1664381377.0,92,https://www.google.com/maps/preview/review/listentitiesreviews?authuser=0&hl=en&gl=in&pb=!1m2!1y4300391398837791967!2y2891350941712704407!2m2!2i10!3sCAESBkVnSUlXZw==!3e2!4m5!3b1!4b1!6b1!7b1!20b1!5m2!1sPsrQZPb9H5adseMPzOi5IA!7e81,0.19127071907879445
19619446,MDP Coffee House,13.0692741,77.7977343,19619446,N_A,N_A,249,3.8,,zomato,restaurant,food,N_A,1688639100,1629225000.0,218,,0.18104793306639333
19943800,Goli Vada Pav,13.0158805023,77.7622469219,19943800,N_A,N_A,224,3.4,,zomato,restaurant,food,N_A,1688639100,1634409000.0,145,,0.17843964882970897
ChIJzzeQvQAPrjsRgmh8QC33WCk,Apsara Ice Creams,13.012521743774414,77.76255798339844,0x3bae0f00bd9037cf:0x2958f72d407c6882,N_A,N_A,319,4.5,https://www.google.com/maps/place/?q=place_id:ChIJzzeQvQAPrjsRgmh8QC33WCk,gmaps_v2,restaurant,food,N_A,1699615207,1539973936.0,326,https://www.google.com/maps/preview/review/listentitiesreviews?authuser=0&hl=en&gl=in&pb=!1m2!1y4300391190040164303!2y2979402927233067138!2m2!2i10!3sCAESB0VnTUl3QUk=!3e2!4m5!3b1!4b1!6b1!7b1!20b1!5m2!1sPsrQZPb9H5adseMPzOi5IA!7e81,0.172647084474791
20278830,Kera Desham - The KD Company,13.065319764,77.7421109992,20278830,N_A,N_A,142,4.0,,zomato,restaurant,food,N_A,1688639100,1652725800.0,146,,0.17081137071781208
ChIJlW92W6YPrjsRSkVOLlVGRss,Belgian Waffle Factory Whitefield,13.012744903564451,77.76150512695312,0x3bae0fa65b766f95:0xcb4646552e4e454a,N_A,N_A,151,4.099999904632568,https://www.google.com/maps/place/?q=place_id:ChIJlW92W6YPrjsRSkVOLlVGRss,gmaps_v2,coffee_shop,food,N_A,1687847039,1610762170.0,159,https://www.google.com/maps/preview/review/listentitiesreviews?authuser=0&hl=en&gl=in&pb=!1m2!1y4300391901358878613!2y14647472169732162890!2m2!2i10!3sCAESB0VnTUlsZ0U=!3e2!4m5!3b1!4b1!6b1!7b1!20b1!5m2!1sPsrQZPb9H5adseMPzOi5IA!7e81,0.169247222823976
ChIJC9cB0JEFrjsRT51Dp53Gr1w,Kethu's Kitchen,13.07936954498291,77.78443145751953,0x3bae0591d001d70b:0x5cafc69da7439d4f,N_A,N_A,45,4.699999809265137,https://www.google.com/maps/place/?q=place_id:ChIJC9cB0JEFrjsRT51Dp53Gr1w,gmaps_v2,restaurant,food,N_A,1699615207,1676609974.0,61,https://www.google.com/maps/preview/review/listentitiesreviews?authuser=0&hl=en&gl=in&pb=!1m2!1y4300380818003580683!2y6678775152832126287!2m2!2i10!3sCAESBkVnSUlQQQ==!3e2!4m5!3b1!4b1!6b1!7b1!20b1!5m2!1sPsrQZPb9H5adseMPzOi5IA!7e81,0.16900502594344513
ChIJe1lx9BARrjsRjAIPm213T_A,Chennupati Canteen,13.036291122436523,77.73705291748047,0x3bae1110f471597b:0xf04f776d9b0f028c,N_A,N_A,227,4.0,https://www.google.com/maps/place/?q=place_id:ChIJe1lx9BARrjsRjAIPm213T_A,gmaps_v2,restaurant,food,N_A,1699615207,1583391449.0,249,https://www.google.com/maps/preview/review/listentitiesreviews?authuser=0&hl=en&gl=in&pb=!1m2!1y4300393458703620475!2y17316190404899439244!2m2!2i10!3sCAESB0VnTUk4QUU=!3e2!4m5!3b1!4b1!6b1!7b1!20b1!5m2!1sPsrQZPb9H5adseMPzOi5IA!7e81,0.16875035136963992
ChIJtxUHHzcRrjsRyH1c3v-Q2Rc,Vachan studio (Lakshmi Narayana),13.035402297973633,77.73616790771484,0x3bae11371f0715b7:0x17d990ffde5c7dc8,N_A,N_A,68,4.900000095367432,https://www.google.com/maps/place/?q=place_id:ChIJtxUHHzcRrjsRyH1c3v-Q2Rc,gmaps_v2,electronic_store,retail,N_A,1695212099,1659866288.0,80,https://www.google.com/maps/preview/review/listentitiesreviews?authuser=0&hl=en&gl=in&pb=!1m2!1y4300393622626833847!2y1718564161440218568!2m2!2i10!3sCAESBkVnSUlSZw==!3e2!4m5!3b1!4b1!6b1!7b1!20b1!5m2!1sPsrQZPb9H5adseMPzOi5IA!7e81,0.1662205459085378
ChIJpzQ5MDEPrjsRRcDYjtwmxLw,Madurai Idly Shop,13.015874862670898,77.76214599609375,0x3bae0f31303934a7:0xbcc426dc8ed8c045,maduraiidlyshop,Madurai Idly Shop,53,4.400000095367432,https://www.google.com/maps/place/?q=place_id:ChIJpzQ5MDEPrjsRRcDYjtwmxLw,gmaps_v2,restaurant,food,N_A,1699615207,1671894493.0,50,https://www.google.com/maps/preview/review/listentitiesreviews?authuser=0&hl=en&gl=in&pb=!1m2!1y4300391398122271911!2y13602039503296970821!2m2!2i10!3sCAESBkVnSUlLQQ==!3e2!4m5!3b1!4b1!6b1!7b1!20b1!5m2!1sPsrQZPb9H5adseMPzOi5IA!7e81,0.16519055028669175
19532301,Geist Brewing Factory - Restaurant & Beer Garden,13.0530116,77.7594117,19532301,N_A,N_A,312,4.1,,zomato,restaurant,food,N_A,1688639100,1603996200.0,248,,0.15923840038562007
ChIJP0e_YSEPrjsRFUUfmz3Fxmk,Ganavi V Garden,13.058178901672363,77.76920318603516,0x3bae0f2161bf473f:0x69c6c53d9b1f4515,N_A,N_A,81,3.0999999046325684,https://www.google.com/maps/place/?q=place_id:ChIJP0e_YSEPrjsRFUUfmz3Fxmk,gmaps_v2,restaurant,food,N_A,1699615207,1654595061.0,87,https://www.google.com/maps/preview/review/listentitiesreviews?authuser=0&hl=en&gl=in&pb=!1m2!1y4300391330233665343!2y7621996287757337877!2m2!2i10!3sCAESBkVnSUlVQQ==!3e2!4m5!3b1!4b1!6b1!7b1!20b1!5m2!1sPsrQZPb9H5adseMPzOi5IA!7e81,0.1554504065802008
ChIJc2Tqca8FrjsR1dMfzjNmY4c,Sri Annapoorneshwari Fast Food - Rice bath and Idli hotel,13.072861671447754,77.78765106201172,0x3bae05af71ea6473:0x87636633ce1fd3d5,N_A,N_A,248,4.300000190734863,https://www.google.com/maps/place/?q=place_id:ChIJc2Tqca8FrjsR1dMfzjNmY4c,gmaps_v2,restaurant,food,N_A,1699615207,1557597115.0,280,https://www.google.com/maps/preview/review/listentitiesreviews?authuser=0&hl=en&gl=in&pb=!1m2!1y4300380945274004595!2y9755753590502183893!2m2!2i10!3sCAESB0VnTUlqZ0k=!3e2!4m5!3b1!4b1!6b1!7b1!20b1!5m2!1sPsrQZPb9H5adseMPzOi5IA!7e81,0.1508765517001876
ChIJ_0v-SIkFrjsRCCT0s9FpBc4,REALME SMART STORE,13.07045078277588,77.7887191772461,0x3bae058948fe4bff:0xce0569d1b3f42408,N_A,N_A,101,4.5,https://www.google.com/maps/place/?q=place_id:ChIJ_0v-SIkFrjsRCCT0s9FpBc4,gmaps_v2,electronic_store,retail,N_A,1695212099,1637360274.0,108,https://www.google.com/maps/preview/review/listentitiesreviews?authuser=0&hl=en&gl=in&pb=!1m2!1y4300380781378685951!2y14845388096084911112!2m2!2i10!3sCAESBkVnSUlaQQ==!3e2!4m5!3b1!4b1!6b1!7b1!20b1!5m2!1sPsrQZPb9H5adseMPzOi5IA!7e81,0.15084053095991354
ChIJAdSIptsRrjsRIlHsMBN1Kkc,CAFE O'FABY,13.053606033325195,77.76129913330078,0x3bae11dba688d401:0x472a751330ec5122,N_A,N_A,90,4.900000095367432,https://www.google.com/maps/place/?q=place_id:ChIJAdSIptsRrjsRIlHsMBN1Kkc,gmaps_v2,restaurant,food,N_A,1699615207,1647928691.0,100,https://www.google.com/maps/preview/review/listentitiesreviews?authuser=0&hl=en&gl=in&pb=!1m2!1y4300394329274897409!2y5128039851000353058!2m2!2i10!3sCAESBkVnSUlXZw==!3e2!4m5!3b1!4b1!6b1!7b1!20b1!5m2!1sPsrQZPb9H5adseMPzOi5IA!7e81,0.15044542758502044
ChIJXWGOg58FrjsRpjF-7it0YRY,Bangarpet Pani Puri Center,13.072819709777832,77.78498077392578,0x3bae059f838e615d:0x1661742bee7e31a6,N_A,N_A,294,4.300000190734863,https://www.google.com/maps/place/?q=place_id:ChIJXWGOg58FrjsRpjF-7it0YRY,gmaps_v2,restaurant,food,N_A,1699615207,1530179603.0,303,https://www.google.com/maps/preview/review/listentitiesreviews?authuser=0&hl=en&gl=in&pb=!1m2!1y4300380876850487645!2y1612697873609011622!2m2!2i10!3sCAESB0VnTUlyQUk=!3e2!4m5!3b1!4b1!6b1!7b1!20b1!5m2!1sPsrQZPb9H5adseMPzOi5IA!7e81,0.14991890370337985
ChIJX7MAvQoGrjsRUy3B3_vDF0E,Sri RUCHI LOKA,13.090744018554688,77.83757781982422,0x3bae060abd00b35f:0x4117c3fbdfc12d53,N_A,N_A,301,3.0,https://www.google.com/maps/place/?q=place_id:ChIJX7MAvQoGrjsRUy3B3_vDF0E,gmaps_v2,restaurant,food,N_A,1699615207,1523027926.0,301,https://www.google.com/maps/preview/review/listentitiesreviews?authuser=0&hl=en&gl=in&pb=!1m2!1y4300381337375781727!2y4690433023487847763!2m2!2i10!3sCAESB0VnTUlyQUk=!3e2!4m5!3b1!4b1!6b1!7b1!20b1!5m2!1sPsrQZPb9H5adseMPzOi5IA!7e81,0.14727221492243261
ChIJ_zU9-rUFrjsR1CN9_jpgGog,UTTUNGA CAFE 24/7,13.088678359985352,77.83101654052734,0x3bae05b5fa3d35ff:0x881a603afe7d23d4,N_A,N_A,33,3.799999952316284,https://www.google.com/maps/place/?q=place_id:ChIJ_zU9-rUFrjsR1CN9_jpgGog,gmaps_v2,restaurant,food,N_A,1699615207,1679942860.0,41,https://www.google.com/maps/preview/review/listentitiesreviews?authuser=0&hl=en&gl=in&pb=!1m2!1y4300380973330937343!2y9807256945046660052!2m2!2i10!3sCAESBkVnSUlLQQ==!3e2!4m5!3b1!4b1!6b1!7b1!20b1!5m2!1sPsrQZPb9H5adseMPzOi5IA!7e81,0.1449344097071895
19469577,Great Room - Holiday Inn Express & Suites,13.054937,77.762861,19469577,N_A,N_A,304,3.9,,zomato,restaurant,food,N_A,1688639100,1597775400.0,215,,0.14453296530957907
ChIJv0M3VwoPrjsRr-LvKdM-PgA,Itz About Biryani,13.062195777893066,77.75032806396484,0x3bae0f0a573743bf:0x3e3ed329efe2af,N_A,N_A,78,4.0,https://www.google.com/maps/place/?q=place_id:ChIJv0M3VwoPrjsRr-LvKdM-PgA,gmaps_v2,restaurant,food,N_A,1699615207,1652954167.0,78,https://www.google.com/maps/preview/review/listentitiesreviews?authuser=0&hl=en&gl=in&pb=!1m2!1y4300391231272731583!2y17520525218669231!2m2!2i10!3sCAESBkVnSUlSZw==!3e2!4m5!3b1!4b1!6b1!7b1!20b1!5m2!1sPsrQZPb9H5adseMPzOi5IA!7e81,0.14442884256330335
ChIJaTVmgRAFrjsR01njFTpd43o,Pigeon Exclusive Store - Hoskote,13.076892852783203,77.78678131103516,0x3bae051081663569:0x7ae35d3a15e359d3,stovekraft,Stovekraft,39,4.900000095367432,https://www.google.com/maps/place/?q=place_id:ChIJaTVmgRAFrjsR01njFTpd43o,gmaps_v2,electronic_store,retail,N_A,1695212099,1670491058.0,81,https://www.google.com/maps/preview/review/listentitiesreviews?authuser=0&hl=en&gl=in&pb=!1m2!1y4300380262633977193!2y8855023796397234643!2m2!2i10!3sCAESBkVnSUlVQQ==!3e2!4m5!3b1!4b1!6b1!7b1!20b1!5m2!1sPsrQZPb9H5adseMPzOi5IA!7e81,0.13630493958567522
ChIJ09_Py80brjsReMWCzLQ2u_k,Kera Desham,13.06544303894043,77.74195861816406,0x3bae1bcdcbcfdfd3:0xf9bb36b4cc82c578,N_A,N_A,82,4.300000190734863,https://www.google.com/maps/place/?q=place_id:ChIJ09_Py80brjsReMWCzLQ2u_k,gmaps_v2,restaurant,food,N_A,1699615207,1646759116.0,91,https://www.google.com/maps/preview/review/listentitiesreviews?authuser=0&hl=en&gl=in&pb=!1m2!1y4300405264887046099!2y17995036886242084216!2m2!2i10!3sCAESBkVnSUlXZw==!3e2!4m5!3b1!4b1!6b1!7b1!20b1!5m2!1sPsrQZPb9H5adseMPzOi5IA!7e81,0.13403942414129716
ChIJC0yZTXAbrjsRw53GGw70zXE,Mishra's Eatery Park,13.070183753967283,77.74478912353516,0x3bae1b704d994c0b:0x71cdf40e1bc69dc3,N_A,N_A,232,4.300000190734863,https://www.google.com/maps/place/?q=place_id:ChIJC0yZTXAbrjsRw53GGw70zXE,gmaps_v2,restaurant,food,N_A,1699615207,1548146141.0,233,https://www.google.com/maps/preview/review/listentitiesreviews?authuser=0&hl=en&gl=in&pb=!1m2!1y4300404863337581579!2y8200478837944262083!2m2!2i10!3sCAESB0VnTUk1Z0U=!3e2!4m5!3b1!4b1!6b1!7b1!20b1!5m2!1sPsrQZPb9H5adseMPzOi5IA!7e81,0.13233593187931852
ChIJCW2NdHkFrjsR0xrWB6UEeos,Ravi Kabab Centre,13.075043678283691,77.78656005859375,0x3bae0579748d6d09:0x8b7a04a507d61ad3,N_A,N_A,282,4.400000095367432,https://www.google.com/maps/place/?q=place_id:ChIJCW2NdHkFrjsR0xrWB6UEeos,gmaps_v2,restaurant,food,N_A,1687847039,1502036040.0,307,https://www.google.com/maps/preview/review/listentitiesreviews?authuser=0&hl=en&gl=in&pb=!1m2!1y4300380713390009609!2y10050350625278270163!2m2!2i10!3sCAESB0VnTUlyQUk=!3e2!4m5!3b1!4b1!6b1!7b1!20b1!5m2!1sPsrQZPb9H5adseMPzOi5IA!7e81,0.1311267908311499
ChIJHYCJCREFrjsRyw14txWYt9E,Udupi Ruchi,13.072078704833984,77.78630065917969,0x3bae05110989801d:0xd1b79815b7780dcb,N_A,N_A,142,3.700000047683716,https://www.google.com/maps/place/?q=place_id:ChIJHYCJCREFrjsRyw14txWYt9E,gmaps_v2,restaurant,food,N_A,1699615207,1604808605.0,151,https://www.google.com/maps/preview/review/listentitiesreviews?authuser=0&hl=en&gl=in&pb=!1m2!1y4300380264917991453!2y15111714293704822219!2m2!2i10!3sCAESB0VnTUlsZ0U=!3e2!4m5!3b1!4b1!6b1!7b1!20b1!5m2!1sPsrQZPb9H5adseMPzOi5IA!7e81,0.12940870932174112
ChIJU6bygIwPrjsRJEbOlx6Nkxo,Highway Dev Dhaba,13.060219764709473,77.77079772949219,0x3bae0f8c80f2a653:0x1a938d1e97ce4624,N_A,N_A,276,4.099999904632568,https://www.google.com/maps/place/?q=place_id:ChIJU6bygIwPrjsRJEbOlx6Nkxo,gmaps_v2,restaurant,food,N_A,1699615207,1513524591.0,276,https://www.google.com/maps/preview/review/listentitiesreviews?authuser=0&hl=en&gl=in&pb=!1m2!1y4300391790318626387!2y1915029429098006052!2m2!2i10!3sCAESB0VnTUlqZ0k=!3e2!4m5!3b1!4b1!6b1!7b1!20b1!5m2!1sPsrQZPb9H5adseMPzOi5IA!7e81,0.12814402204998881
ChIJLZDv8AwPrjsRbEQOPdwmC_M,Letzvez,13.013132095336914,77.76264190673828,0x3bae0f0cf0ef902d:0xf30b26dc3d0e446c,N_A,N_A,29,4.400000095367432,https://www.google.com/maps/place/?q=place_id:ChIJLZDv8AwPrjsRbEQOPdwmC_M,gmaps_v2,restaurant,food,N_A,1699615207,1679995136.0,28,https://www.google.com/maps/preview/review/listentitiesreviews?authuser=0&hl=en&gl=in&pb=!1m2!1y4300391242441658413!2y17513134303319311468!2m2!2i10!3sCAESBkVnSUlGQQ==!3e2!4m5!3b1!4b1!6b1!7b1!20b1!5m2!1sPsrQZPb9H5adseMPzOi5IA!7e81,0.12770595988159267
ChIJ09W4DIkFrjsRv2r8-2Gn33k,Scrumptious,13.076648712158203,77.81055450439453,0x3bae05890cb8d5d3:0x79dfa761fbfc6abf,N_A,N_A,24,4.800000190734863,https://www.google.com/maps/place/?q=place_id:ChIJ09W4DIkFrjsRv2r8-2Gn33k,gmaps_v2,restaurant,food,N_A,1699615207,1682937538.0,24,https://www.google.com/maps/preview/review/listentitiesreviews?authuser=0&hl=en&gl=in&pb=!1m2!1y4300380780367500755!2y8781921837677046463!2m2!2i10!3sCAESBkVnSUlGQQ==!3e2!4m5!3b1!4b1!6b1!7b1!20b1!5m2!1sPsrQZPb9H5adseMPzOi5IA!7e81,0.12433392220459585
56075,Sri Guru Nalapaka Restaurant,13.0727931332,77.7866789326,56075,N_A,N_A,846,3.7,,zomato,restaurant,food,N_A,1688639100,1387391400.0,158,,0.12131943248031438
ChIJ5W0aU5wFrjsRp0yxj7bwSDQ,Food King à²«à³à²¡à³ à²•à²¿à²‚à²—à³ - Dine in - Takeaway,13.072900772094728,77.78450012207031,0x3bae059c531a6de5:0x3448f0b68fb14ca7,N_A,N_A,128,4.0,https://www.google.com/maps/place/?q=place_id:ChIJ5W0aU5wFrjsRp0yxj7bwSDQ,gmaps_v2,restaurant,food,N_A,1699615207,1607088263.0,140,https://www.google.com/maps/preview/review/listentitiesreviews?authuser=0&hl=en&gl=in&pb=!1m2!1y4300380863152680421!2y3767525755180895399!2m2!2i10!3sCAESB0VnTUlnZ0U=!3e2!4m5!3b1!4b1!6b1!7b1!20b1!5m2!1sPsrQZPb9H5adseMPzOi5IA!7e81,0.11952410316285816
ChIJGxMMe9cFrjsRqVdn_eevzgs,Cafe Iftar,13.071517944335938,77.78294372558594,0x3bae05d77b0c131b:0xbceafe7fd6757a9,N_A,N_A,29,2.799999952316284,https://www.google.com/maps/place/?q=place_id:ChIJGxMMe9cFrjsRqVdn_eevzgs,gmaps_v2,restaurant,food,N_A,1699615207,1678634394.0,36,https://www.google.com/maps/preview/review/listentitiesreviews?authuser=0&hl=en&gl=in&pb=!1m2!1y4300381117225898779!2y850810790543316905!2m2!2i10!3sCAESBkVnSUlIZw==!3e2!4m5!3b1!4b1!6b1!7b1!20b1!5m2!1sPsrQZPb9H5adseMPzOi5IA!7e81,0.11942339889307435
ChIJOxORaX4FrjsRIb_PNQRU4G4,Meat And Eat,13.06809902191162,77.78651428222656,0x3bae057e6991133b:0x6ee0540435cfbf21,meatandeat,Meat and Eat,314,3.799999952316284,https://www.google.com/maps/place/?q=place_id:ChIJOxORaX4FrjsRIb_PNQRU4G4,gmaps_v2,restaurant,food,N_A,1699615207,1470833821.0,332,https://www.google.com/maps/preview/review/listentitiesreviews?authuser=0&hl=en&gl=in&pb=!1m2!1y4300380734680535867!2y7989478116014669601!2m2!2i10!3sCAESB0VnTUl5Z0k=!3e2!4m5!3b1!4b1!6b1!7b1!20b1!5m2!1sPsrQZPb9H5adseMPzOi5IA!7e81,0.11858307388696386
ChIJia4ehf4PrjsRn1Fy6okQPO4,Car + Accessories,13.042301177978516,77.7607650756836,0x3bae0ffe851eae89:0xee3c1089ea72519f,N_A,N_A,22,5.0,https://www.google.com/maps/place/?q=place_id:ChIJia4ehf4PrjsRn1Fy6okQPO4,gmaps_v2,electronic_store,retail,N_A,1695212099,1679153154.0,38,https://www.google.com/maps/preview/review/listentitiesreviews?authuser=0&hl=en&gl=in&pb=!1m2!1y4300392280014892681!2y17166614064159412639!2m2!2i10!3sCAESBkVnSUlIZw==!3e2!4m5!3b1!4b1!6b1!7b1!20b1!5m2!1sPsrQZPb9H5adseMPzOi5IA!7e81,0.11836393984785426
ChIJb1twungFrjsRAplpIv4U5sg,Aakruthi Jewellery,13.073427200317385,77.79003143310547,0x3bae0578ba705b6f:0xc8e614fe22699902,N_A,N_A,334,4.0,https://www.google.com/maps/place/?q=place_id:ChIJb1twungFrjsRAplpIv4U5sg,gmaps_v2,jewelry_store,retail,N_A,1687847039,1443611866.0,335,https://www.google.com/maps/preview/review/listentitiesreviews?authuser=0&hl=en&gl=in&pb=!1m2!1y4300380710267542383!2y14476281133960632578!2m2!2i10!3sCAESB0VnTUl5Z0k=!3e2!4m5!3b1!4b1!6b1!7b1!20b1!5m2!1sPsrQZPb9H5adseMPzOi5IA!7e81,0.11815497188850846
ChIJm8hHkGIFrjsRYcdQA_1oV5w,Raj Dham Biriyani,13.066180229187012,77.77603912353516,0x3bae05629047c89b:0x9c5768fd0350c761,N_A,N_A,246,4.0,https://www.google.com/maps/place/?q=place_id:ChIJm8hHkGIFrjsRYcdQA_1oV5w,gmaps_v2,restaurant,food,N_A,1687847039,1507727947.0,4846,https://www.google.com/maps/preview/review/listentitiesreviews?authuser=0&hl=en&gl=in&pb=!1m2!1y4300380615070959771!2y11265588428782225249!2m2!2i10!3sCAESB0VnTUk2Q1U=!3e2!4m5!3b1!4b1!6b1!7b1!20b1!5m2!1sPsrQZPb9H5adseMPzOi5IA!7e81,0.11800192730263152
ChIJh2IvJZ0PrjsRj4m9PFKvAFU,Wow chicken uptown,13.055397987365724,77.76376342773438,0x3bae0f9d252f6287:0x5500af523cbd898f,N_A,N_A,26,4.699999809265137,https://www.google.com/maps/place/?q=place_id:ChIJh2IvJZ0PrjsRj4m9PFKvAFU,gmaps_v2,restaurant,food,N_A,1699615207,1679921993.0,31,https://www.google.com/maps/preview/review/listentitiesreviews?authuser=0&hl=en&gl=in&pb=!1m2!1y4300391861793546887!2y6125088260965108111!2m2!2i10!3sCAESBkVnSUlIZw==!3e2!4m5!3b1!4b1!6b1!7b1!20b1!5m2!1sPsrQZPb9H5adseMPzOi5IA!7e81,0.1140697501179848
ChIJkdR41C8PrjsRihg-wrPJ1mg,C.S.DABA & BIRIYANI PALACE,13.04214572906494,77.78526306152344,0x3bae0f2fd478d491:0x68d6c9b3c23e188a,N_A,N_A,82,3.700000047683716,https://www.google.com/maps/place/?q=place_id:ChIJkdR41C8PrjsRihg-wrPJ1mg,gmaps_v2,restaurant,food,N_A,1699615207,1636429253.0,90,https://www.google.com/maps/preview/review/listentitiesreviews?authuser=0&hl=en&gl=in&pb=!1m2!1y4300391392287970449!2y7554447198855764106!2m2!2i10!3sCAESBkVnSUlVQQ==!3e2!4m5!3b1!4b1!6b1!7b1!20b1!5m2!1sPsrQZPb9H5adseMPzOi5IA!7e81,0.1121261855126853
ChIJ2SPVwxwPrjsRlhma6YtIFGY,GOLDEN PALM EXTENSION CANTEEN,13.02365779876709,77.76128387451172,0x3bae0f1cc3d523d9:0x6614488be99a1996,N_A,N_A,56,4.5,https://www.google.com/maps/place/?q=place_id:ChIJ2SPVwxwPrjsRlhma6YtIFGY,gmaps_v2,clothing_store,retail,N_A,1687847039,1644643907.0,85,https://www.google.com/maps/preview/review/listentitiesreviews?authuser=0&hl=en&gl=in&pb=!1m2!1y4300391310404428761!2y7355583857159707030!2m2!2i10!3sCAESBkVnSUlVQQ==!3e2!4m5!3b1!4b1!6b1!7b1!20b1!5m2!1sPsrQZPb9H5adseMPzOi5IA!7e81,0.11199188058865732
ChIJsRF0_4cFrjsRylg_wUYwVvY,Namaste Bangalore Restaurant,13.072501182556152,77.75373077392578,0x3bae0587ff7411b1:0xf6563046c13f58ca,N_A,N_A,34,4.900000095367432,https://www.google.com/maps/place/?q=place_id:ChIJsRF0_4cFrjsRylg_wUYwVvY,gmaps_v2,restaurant,food,N_A,1699615207,1673326459.0,33,https://www.google.com/maps/preview/review/listentitiesreviews?authuser=0&hl=en&gl=in&pb=!1m2!1y4300380775849922993!2y17750428061775386826!2m2!2i10!3sCAESBkVnSUlIZw==!3e2!4m5!3b1!4b1!6b1!7b1!20b1!5m2!1sPsrQZPb9H5adseMPzOi5IA!7e81,0.11174362506727213
ChIJuwPz1rcXrjsRlLasEXdtjXY,Ideal Carzz | The House of Car Accessories,13.068808555603027,77.78153228759766,0x3bae17b7d6f303bb:0x768d6d7711acb694,N_A,N_A,60,4.900000095367432,https://www.google.com/maps/place/?q=place_id:ChIJuwPz1rcXrjsRlLasEXdtjXY,gmaps_v2,electronic_store,retail,N_A,1695212099,1648206590.0,71,https://www.google.com/maps/preview/review/listentitiesreviews?authuser=0&hl=en&gl=in&pb=!1m2!1y4300400772538106811!2y8542604426356766356!2m2!2i10!3sCAESBkVnSUlSZw==!3e2!4m5!3b1!4b1!6b1!7b1!20b1!5m2!1sPsrQZPb9H5adseMPzOi5IA!7e81,0.11028494553691569
ChIJETOZ-hoPrjsRq88IwOSzxjg,Techyo IT Solutions,13.080047607421877,77.73747253417969,0x3bae0f1afa993311:0x38c6b3e4c008cfab,N_A,N_A,50,4.900000095367432,https://www.google.com/maps/place/?q=place_id:ChIJETOZ-hoPrjsRq88IwOSzxjg,gmaps_v2,electronic_store,retail,N_A,1695212099,1655827599.0,78,https://www.google.com/maps/preview/review/listentitiesreviews?authuser=0&hl=en&gl=in&pb=!1m2!1y4300391302733312785!2y4091155106568392619!2m2!2i10!3sCAESBkVnSUlSZw==!3e2!4m5!3b1!4b1!6b1!7b1!20b1!5m2!1sPsrQZPb9H5adseMPzOi5IA!7e81,0.10968782135103912
ChIJh5Z5YPUPrjsROhuTCa2UvzI,Fairytale Boutique,13.065302848815918,77.73995971679688,0x3bae0ff560799687:0x32bf94ad09931b3a,N_A,N_A,23,5.0,https://www.google.com/maps/place/?q=place_id:ChIJh5Z5YPUPrjsROhuTCa2UvzI,gmaps_v2,clothing_store,retail,N_A,1687847039,1669627059.0,22,https://www.google.com/maps/preview/review/listentitiesreviews?authuser=0&hl=en&gl=in&pb=!1m2!1y4300392240745387655!2y3656804893359020858!2m2!2i10!3sCAESBkVnSUlGQQ==!3e2!4m5!3b1!4b1!6b1!7b1!20b1!5m2!1sPsrQZPb9H5adseMPzOi5IA!7e81,0.10906707910766093
ChIJ0VdhnzMFrjsR_4q8aAdXiE0,Mom's Pizza,13.07092571258545,77.7511978149414,0x3bae05339f6157d1:0x4d88570768bc8aff,N_A,N_A,28,4.900000095367432,https://www.google.com/maps/place/?q=place_id:ChIJ0VdhnzMFrjsR_4q8aAdXiE0,gmaps_v2,restaurant,food,N_A,1699615207,1677069291.0,28,https://www.google.com/maps/preview/review/listentitiesreviews?authuser=0&hl=en&gl=in&pb=!1m2!1y4300380413460830161!2y5586811027086674687!2m2!2i10!3sCAESBkVnSUlGQQ==!3e2!4m5!3b1!4b1!6b1!7b1!20b1!5m2!1sPsrQZPb9H5adseMPzOi5IA!7e81,0.10730102959666842
ChIJy_d1wYsFrjsRXqELoQztAqA,Pizza Coorneer,13.07024097442627,77.78854370117188,0x3bae058bc175f7cb:0xa002ed0ca10ba15e,N_A,N_A,100,4.300000190734863,https://www.google.com/maps/place/?q=place_id:ChIJy_d1wYsFrjsRXqELoQztAqA,gmaps_v2,restaurant,food,N_A,1699615207,1618745044.0,105,https://www.google.com/maps/preview/review/listentitiesreviews?authuser=0&hl=en&gl=in&pb=!1m2!1y4300380791989729227!2y11530038634519175518!2m2!2i10!3sCAESBkVnSUlaQQ==!3e2!4m5!3b1!4b1!6b1!7b1!20b1!5m2!1sPsrQZPb9H5adseMPzOi5IA!7e81,0.10683791993840794
19472225,Lassi Corner,13.0653575,77.7422336,19472225,zomato_lassi_corner,Lassi Corner,220,3.6,,zomato,restaurant,food,N_A,1688639100,1599589800.0,93,,0.10672739707106063
ChIJW25pFocFrjsRWsR-OMaRgLE,We Buy Anything,13.06934928894043,77.79821014404297,0x3bae058716696e5b:0xb18091c6387ec45a,N_A,N_A,79,5.0,https://www.google.com/maps/place/?q=place_id:ChIJW25pFocFrjsRWsR-OMaRgLE,gmaps_v2,home_decor,retail,N_A,1695212099,1631210199.0,91,https://www.google.com/maps/preview/review/listentitiesreviews?authuser=0&hl=en&gl=in&pb=!1m2!1y4300380771940134491!2y12790383222269592666!2m2!2i10!3sCAESBkVnSUlXZw==!3e2!4m5!3b1!4b1!6b1!7b1!20b1!5m2!1sPsrQZPb9H5adseMPzOi5IA!7e81,0.10664683392211793
ChIJJbBaqFAPrjsRzyYaXz1eCGI,Brindavana Hotel,13.035000801086426,77.7517318725586,0x3bae0f50a85ab025:0x62085e3d5f1a26cf,N_A,N_A,100,4.300000190734863,https://www.google.com/maps/place/?q=place_id:ChIJJbBaqFAPrjsRzyYaXz1eCGI,gmaps_v2,restaurant,food,N_A,1687847039,1605978608.0,110,https://www.google.com/maps/preview/review/listentitiesreviews?authuser=0&hl=en&gl=in&pb=!1m2!1y4300391533281718309!2y7063999633212188367!2m2!2i10!3sCAESBkVnSUlaQQ==!3e2!4m5!3b1!4b1!6b1!7b1!20b1!5m2!1sPsrQZPb9H5adseMPzOi5IA!7e81,0.1055351848626487
ChIJv71ZK_kPrjsRXRYB2Eww-NQ,Sanjana Hotel Bakery,13.03793716430664,77.74867248535156,0x3bae0ff92b59bdbf:0xd4f8304cd801165d,N_A,N_A,165,4.199999809265137,https://www.google.com/maps/place/?q=place_id:ChIJv71ZK_kPrjsRXRYB2Eww-NQ,gmaps_v2,restaurant,food,N_A,1699615207,1562500116.0,164,https://www.google.com/maps/preview/review/listentitiesreviews?authuser=0&hl=en&gl=in&pb=!1m2!1y4300392257033977279!2y15346068836864562781!2m2!2i10!3sCAESB0VnTUlvQUU=!3e2!4m5!3b1!4b1!6b1!7b1!20b1!5m2!1sPsrQZPb9H5adseMPzOi5IA!7e81,0.10397105013043385
ChIJy-NRHMMFrjsRRaZVkg1q_5M,Ambarish Dum Biriyani,13.077975273132324,77.80248260498047,0x3bae05c31c51e3cb:0x93ff6a0d9255a645,N_A,N_A,104,3.700000047683716,https://www.google.com/maps/place/?q=place_id:ChIJy-NRHMMFrjsRRaZVkg1q_5M,gmaps_v2,restaurant,food,N_A,1699615207,1612721484.0,107,https://www.google.com/maps/preview/review/listentitiesreviews?authuser=0&hl=en&gl=in&pb=!1m2!1y4300381029737292747!2y10664359049158829637!2m2!2i10!3sCAESBkVnSUlaQQ==!3e2!4m5!3b1!4b1!6b1!7b1!20b1!5m2!1sPsrQZPb9H5adseMPzOi5IA!7e81,0.10340908053853326
ChIJ____b7YPrjsR5ptInRU-C9U,Domino's Pizza,13.027186393737791,77.77024841308594,0x3bae0fb66fffffff:0xd50b3e159d489be6,dominos,Domino's Pizza,32,3.900000095367432,https://www.google.com/maps/place/?q=place_id:ChIJ____b7YPrjsR5ptInRU-C9U,gmaps_v2,restaurant,food,N_A,1699615207,1672738771.0,33,https://www.google.com/maps/preview/review/listentitiesreviews?authuser=0&hl=en&gl=in&pb=!1m2!1y4300391970422915071!2y15351432017376484326!2m2!2i10!3sCAESBkVnSUlIZw==!3e2!4m5!3b1!4b1!6b1!7b1!20b1!5m2!1sPsrQZPb9H5adseMPzOi5IA!7e81,0.10287078242070488
ChIJbwZiEB8RrjsRhCYW6J6GNd0,The Cannanore Shop,13.029093742370604,77.76374816894531,0x3bae111f1062066f:0xdd35869ee8162684,N_A,N_A,66,5.0,https://www.google.com/maps/place/?q=place_id:ChIJbwZiEB8RrjsRhCYW6J6GNd0,gmaps_v2,home_decor,retail,N_A,1695212099,1639390419.0,80,https://www.google.com/maps/preview/review/listentitiesreviews?authuser=0&hl=en&gl=in&pb=!1m2!1y4300393519301920367!2y15939794473204459140!2m2!2i10!3sCAESBkVnSUlSZw==!3e2!4m5!3b1!4b1!6b1!7b1!20b1!5m2!1sPsrQZPb9H5adseMPzOi5IA!7e81,0.10215385850085487
ChIJw5bIUNkPrjsR8xvL2i5qGgM,SiDDi VinaYaka DarsHiNi RestAuranT,13.058234214782717,77.76924896240234,0x3bae0fd950c896c3:0x31a6a2edacb1bf3,N_A,N_A,43,1.7999999523162842,https://www.google.com/maps/place/?q=place_id:ChIJw5bIUNkPrjsR8xvL2i5qGgM,gmaps_v2,restaurant,food,N_A,1699615207,1662480377.0,60,https://www.google.com/maps/preview/review/listentitiesreviews?authuser=0&hl=en&gl=in&pb=!1m2!1y4300392120223045315!2y223607880980044787!2m2!2i10!3sCAESBkVnSUlNZw==!3e2!4m5!3b1!4b1!6b1!7b1!20b1!5m2!1sPsrQZPb9H5adseMPzOi5IA!7e81,0.10004623691558572
ChIJN3nlr34FrjsR4-0_iTMcnos,Adishwar Electro world - Hoskote,13.071854591369627,77.78591918945312,0x3bae057eafe57937:0x8b9e1c33893fede3,N_A,N_A,214,3.799999952316284,https://www.google.com/maps/place/?q=place_id:ChIJN3nlr34FrjsR4-0_iTMcnos,gmaps_v2,home_decor,retail,N_A,1695212099,1505723906.0,216,https://www.google.com/maps/preview/review/listentitiesreviews?authuser=0&hl=en&gl=in&pb=!1m2!1y4300380735860472119!2y10060509625263844835!2m2!2i10!3sCAESB0VnTUkwZ0U=!3e2!4m5!3b1!4b1!6b1!7b1!20b1!5m2!1sPsrQZPb9H5adseMPzOi5IA!7e81,0.09757652815867002
ChIJyQ-vjHcFrjsRaL9EyZqjC0U,Ganesh Bhavan Hotel,13.07862663269043,77.78934478759766,0x3bae05778caf0fc9:0x450ba39ac944bf68,N_A,N_A,213,4.0,https://www.google.com/maps/place/?q=place_id:ChIJyQ-vjHcFrjsRaL9EyZqjC0U,gmaps_v2,restaurant,food,N_A,1699615207,1506603630.0,229,https://www.google.com/maps/preview/review/listentitiesreviews?authuser=0&hl=en&gl=in&pb=!1m2!1y4300380705204932553!2y4975250098557861736!2m2!2i10!3sCAESB0VnTUkzQUU=!3e2!4m5!3b1!4b1!6b1!7b1!20b1!5m2!1sPsrQZPb9H5adseMPzOi5IA!7e81,0.09534764849882554
ChIJMeUowZoPrjsRLtLlGWuREnM,D P Royal Family Restaurant,13.044334411621094,77.7605972290039,0x3bae0f9ac128e531:0x7312916b19e5d22e,N_A,N_A,41,2.799999952316284,https://www.google.com/maps/place/?q=place_id:ChIJMeUowZoPrjsRLtLlGWuREnM,gmaps_v2,coffee_shop,food,N_A,1687847039,1649596267.0,41,https://www.google.com/maps/preview/review/listentitiesreviews?authuser=0&hl=en&gl=in&pb=!1m2!1y4300391851525465393!2y8291849753124524590!2m2!2i10!3sCAESBkVnSUlLQQ==!3e2!4m5!3b1!4b1!6b1!7b1!20b1!5m2!1sPsrQZPb9H5adseMPzOi5IA!7e81,0.09260989555975498
ChIJB8QCzoEFrjsR5_nsbkfTb3I,Rohini Silks Park,13.070295333862305,77.79167938232422,0x3bae0581ce02c407:0x726fd3476eecf9e7,N_A,N_A,183,4.699999809265137,https://www.google.com/maps/place/?q=place_id:ChIJB8QCzoEFrjsR5_nsbkfTb3I,gmaps_v2,clothing_store,retail,N_A,1687847039,1514221547.0,329,https://www.google.com/maps/preview/review/listentitiesreviews?authuser=0&hl=en&gl=in&pb=!1m2!1y4300380749250610183!2y8246041746495830503!2m2!2i10!3sCAESB0VnTUl3QUk=!3e2!4m5!3b1!4b1!6b1!7b1!20b1!5m2!1sPsrQZPb9H5adseMPzOi5IA!7e81,0.09106496873166528
ChIJ1yJAEU8PrjsRecAcuoPyrac,"Naga's, Orion Uptown",13.05566120147705,77.763671875,0x3bae0f4f114022d7:0xa7adf283ba1cc079,N_A,N_A,40,3.5999999046325684,https://www.google.com/maps/place/?q=place_id:ChIJ1yJAEU8PrjsRecAcuoPyrac,gmaps_v2,restaurant,food,N_A,1699615207,1661317938.0,43,https://www.google.com/maps/preview/review/listentitiesreviews?authuser=0&hl=en&gl=in&pb=!1m2!1y4300391526451651287!2y12082580022881992825!2m2!2i10!3sCAESBkVnSUlLQQ==!3e2!4m5!3b1!4b1!6b1!7b1!20b1!5m2!1sPsrQZPb9H5adseMPzOi5IA!7e81,0.0902414216533299
ChIJn0k8UvgFrjsREULMHI8ZfoY,Bata Shoes Store at Hoskote,13.071958541870115,77.78609466552734,0x3bae05f8523c499f:0x867e198f1ccc4211,N_A,N_A,119,4.400000095367432,https://www.google.com/maps/place/?q=place_id:ChIJn0k8UvgFrjsREULMHI8ZfoY,gmaps_v2,clothing_store,retail,N_A,1687847039,1572624026.0,125,https://www.google.com/maps/preview/review/listentitiesreviews?authuser=0&hl=en&gl=in&pb=!1m2!1y4300381258275113375!2y9691211550602052113!2m2!2i10!3sCAESBkVnSUllQQ==!3e2!4m5!3b1!4b1!6b1!7b1!20b1!5m2!1sPsrQZPb9H5adseMPzOi5IA!7e81,0.08923217447889512
ChIJBabPbHkFrjsRlsB1-0sZt6s,Five Star Chicken,13.074335098266602,77.78689575195312,0x3bae05796ccfa605:0xabb7194bfb75c096,fivestarchicken,Five Star Chicken,233,3.799999952316284,https://www.google.com/maps/place/?q=place_id:ChIJBabPbHkFrjsRlsB1-0sZt6s,gmaps_v2,restaurant,food,N_A,1699615207,1474006749.0,239,https://www.google.com/maps/preview/review/listentitiesreviews?authuser=0&hl=en&gl=in&pb=!1m2!1y4300380713260131845!2y12373386315355766934!2m2!2i10!3sCAESB0VnTUk1Z0U=!3e2!4m5!3b1!4b1!6b1!7b1!20b1!5m2!1sPsrQZPb9H5adseMPzOi5IA!7e81,0.08923069719309903
ChIJ3eOKrH8FrjsRV5415oz6AjM,Vittal Tiffin Centre,13.069183349609377,77.78823852539062,0x3bae057fac8ae3dd:0x3302fa8ce6359e57,N_A,N_A,177,4.199999809265137,https://www.google.com/maps/place/?q=place_id:ChIJ3eOKrH8FrjsRV5415oz6AjM,gmaps_v2,restaurant,food,N_A,1699615207,1527350897.0,179,https://www.google.com/maps/preview/review/listentitiesreviews?authuser=0&hl=en&gl=in&pb=!1m2!1y4300380740099171293!2y3675775728952385111!2m2!2i10!3sCAESB0VnTUlxZ0U=!3e2!4m5!3b1!4b1!6b1!7b1!20b1!5m2!1sPsrQZPb9H5adseMPzOi5IA!7e81,0.08877520828313189
ChIJ8x3N10kRrjsRAh3zO2hBtZc,fineshomeservices,13.048519134521484,77.74304962158203,0x3bae1149d7cd1df3:0x97b541683bf31d02,N_A,N_A,54,4.900000095367432,https://www.google.com/maps/place/?q=place_id:ChIJ8x3N10kRrjsRAh3zO2hBtZc,gmaps_v2,electronic_store,retail,N_A,1695212099,1642178124.0,58,https://www.google.com/maps/preview/review/listentitiesreviews?authuser=0&hl=en&gl=in&pb=!1m2!1y4300393703036231155!2y10931715586449939714!2m2!2i10!3sCAESBkVnSUlNZw==!3e2!4m5!3b1!4b1!6b1!7b1!20b1!5m2!1sPsrQZPb9H5adseMPzOi5IA!7e81,0.08797379415742455
ChIJs6WSFucPrjsRzcwzoDf-wwM,Udupi Grand,13.051801681518556,77.76178741455078,0x3bae0fe71692a5b3:0x3c3fe37a033cccd,N_A,N_A,134,3.5999999046325684,https://www.google.com/maps/place/?q=place_id:ChIJs6WSFucPrjsRzcwzoDf-wwM,gmaps_v2,restaurant,food,N_A,1699615207,1567410972.0,138,https://www.google.com/maps/preview/review/listentitiesreviews?authuser=0&hl=en&gl=in&pb=!1m2!1y4300392179375973811!2y271339917436767437!2m2!2i10!3sCAESB0VnTUlnZ0U=!3e2!4m5!3b1!4b1!6b1!7b1!20b1!5m2!1sPsrQZPb9H5adseMPzOi5IA!7e81,0.0875735939926584
ChIJIcFep0QFrjsRnEDUbl3XtdY,KMK DUM BIRYANI,13.068771362304688,77.78068542480469,0x3bae0544a75ec121:0xd6b5d75d6ed4409c,N_A,N_A,94,4.0,https://www.google.com/maps/place/?q=place_id:ChIJIcFep0QFrjsRnEDUbl3XtdY,gmaps_v2,restaurant,food,N_A,1699615207,1604229661.0,105,https://www.google.com/maps/preview/review/listentitiesreviews?authuser=0&hl=en&gl=in&pb=!1m2!1y4300380486609322273!2y15471508891192541340!2m2!2i10!3sCAESBkVnSUlaQQ==!3e2!4m5!3b1!4b1!6b1!7b1!20b1!5m2!1sPsrQZPb9H5adseMPzOi5IA!7e81,0.08514497573877702
ChIJhyZnT2wbrjsRLYrsSn2xIsY,Royal Rover Motors - BOSCH Car Service,13.08836269378662,77.74016571044922,0x3bae1b6c4f672687:0xc622b17d4aec8a2d,N_A,N_A,48,4.5,https://www.google.com/maps/place/?q=place_id:ChIJhyZnT2wbrjsRLYrsSn2xIsY,gmaps_v2,electronic_store,retail,N_A,1695212099,1646299040.0,53,https://www.google.com/maps/preview/review/listentitiesreviews?authuser=0&hl=en&gl=in&pb=!1m2!1y4300404846187980423!2y14277168920403937837!2m2!2i10!3sCAESBkVnSUlNZw==!3e2!4m5!3b1!4b1!6b1!7b1!20b1!5m2!1sPsrQZPb9H5adseMPzOi5IA!7e81,0.08478717309420374
ChIJ7RT3QrwFrjsROThAEwowG8g,SLV Dum Biryani,13.08184814453125,77.81712341308594,0x3bae05bc42f714ed:0xc81b300a13403839,N_A,N_A,98,4.699999809265137,https://www.google.com/maps/place/?q=place_id:ChIJ7RT3QrwFrjsROThAEwowG8g,gmaps_v2,restaurant,food,N_A,1699615207,1598704807.0,104,https://www.google.com/maps/preview/review/listentitiesreviews?authuser=0&hl=en&gl=in&pb=!1m2!1y4300381000320881901!2y14419171451787556921!2m2!2i10!3sCAESBkVnSUlaQQ==!3e2!4m5!3b1!4b1!6b1!7b1!20b1!5m2!1sPsrQZPb9H5adseMPzOi5IA!7e81,0.08390810065166722
19324017,Bangalore Biriyani Palace,13.0122792899,77.7627428994,19324017,N_A,N_A,209,3.3,,zomato,restaurant,food,N_A,1688639100,1580495400.0,90,,0.08348891336249824
ChIJL2ad-dgPrjsR_CpcTSZEQsI,Five Star Chicken And Koli Hut,13.051461219787598,77.76168060302734,0x3bae0fd8f99d662f:0xc24244264d5c2afc,fivestarchicken,Five Star Chicken,64,4.300000190734863,https://www.google.com/maps/place/?q=place_id:ChIJL2ad-dgPrjsR_CpcTSZEQsI,gmaps_v2,restaurant,food,N_A,1699615207,1632711941.0,64,https://www.google.com/maps/preview/review/listentitiesreviews?authuser=0&hl=en&gl=in&pb=!1m2!1y4300392118760597039!2y13997825523118254844!2m2!2i10!3sCAESBkVnSUlQQQ==!3e2!4m5!3b1!4b1!6b1!7b1!20b1!5m2!1sPsrQZPb9H5adseMPzOi5IA!7e81,0.0826506735859502
ChIJQUbN6pwFrjsRDoV2KgE3Cvs,Chaat Hub,13.069021224975586,77.79439544677734,0x3bae059ceacd4641:0xfb0a37012a76850e,N_A,N_A,27,5.0,https://www.google.com/maps/place/?q=place_id:ChIJQUbN6pwFrjsRDoV2KgE3Cvs,gmaps_v2,restaurant,food,N_A,1699615207,1670346797.0,27,https://www.google.com/maps/preview/review/listentitiesreviews?authuser=0&hl=en&gl=in&pb=!1m2!1y4300380865697760833!2y18089331331433923854!2m2!2i10!3sCAESBkVnSUlGQQ==!3e2!4m5!3b1!4b1!6b1!7b1!20b1!5m2!1sPsrQZPb9H5adseMPzOi5IA!7e81,0.07970368052108058
18405045,LG Park Restaurant,13.07338,77.788384,18405045,N_A,N_A,228,3.7,,zomato,restaurant,food,N_A,1688639100,1564079400.0,52,,0.07907533495986262
ChIJBYL4X34FrjsR5oVfTu3p-GM,Hotel Siri Utsav,13.06962776184082,77.78678894042969,0x3bae057e5ff88205:0x63f8e9ed4e5f85e6,N_A,N_A,208,3.700000047683716,https://www.google.com/maps/place/?q=place_id:ChIJBYL4X34FrjsR5oVfTu3p-GM,gmaps_v2,restaurant,food,N_A,1699615207,1470220256.0,217,https://www.google.com/maps/preview/review/listentitiesreviews?authuser=0&hl=en&gl=in&pb=!1m2!1y4300380734519542277!2y7203764809410512358!2m2!2i10!3sCAESB0VnTUkwZ0U=!3e2!4m5!3b1!4b1!6b1!7b1!20b1!5m2!1sPsrQZPb9H5adseMPzOi5IA!7e81,0.07834174170642491
ChIJ8eRZ9hERrjsRPkmI1jcZU_o,GARAM DHARAM RESTAURANT,13.047754287719728,77.73799896240234,0x3bae1111f659e4f1:0xfa531937d688493e,N_A,N_A,38,3.900000095367432,https://www.google.com/maps/place/?q=place_id:ChIJ8eRZ9hERrjsRPkmI1jcZU_o,gmaps_v2,restaurant,food,N_A,1687847039,1645899424.0,51,https://www.google.com/maps/preview/review/listentitiesreviews?authuser=0&hl=en&gl=in&pb=!1m2!1y4300393463030605041!2y18037788660162119998!2m2!2i10!3sCAESBkVnSUlNZw==!3e2!4m5!3b1!4b1!6b1!7b1!20b1!5m2!1sPsrQZPb9H5adseMPzOi5IA!7e81,0.07826905057653456
ChIJWTzcce8PrjsRXCuZVi6T7JM,SBR Keerthi,13.050764083862305,77.7580337524414,0x3bae0fef71dc3c59:0x93ec932e56992b5c,sbrgroup,sbrgroup,124,4.199999809265137,https://www.google.com/maps/place/?q=place_id:ChIJWTzcce8PrjsRXCuZVi6T7JM,gmaps_v2,clothing_store,retail,N_A,1687847039,1548937370.0,168,https://www.google.com/maps/preview/review/listentitiesreviews?authuser=0&hl=en&gl=in&pb=!1m2!1y4300392215267261529!2y10659056245309778780!2m2!2i10!3sCAESB0VnTUlvQUU=!3e2!4m5!3b1!4b1!6b1!7b1!20b1!5m2!1sPsrQZPb9H5adseMPzOi5IA!7e81,0.07712638059773938
ChIJxUXwsYEFrjsRWVdfzLOlxbU,srinivasa bakery,13.07046890258789,77.79342651367188,0x3bae0581b1f045c5:0xb5c5a5b3cc5f5759,N_A,N_A,160,3.700000047683716,https://www.google.com/maps/place/?q=place_id:ChIJxUXwsYEFrjsRWVdfzLOlxbU,gmaps_v2,coffee_shop,food,N_A,1687847039,1508329548.0,201,https://www.google.com/maps/preview/review/listentitiesreviews?authuser=0&hl=en&gl=in&pb=!1m2!1y4300380748779636165!2y13098057282923485017!2m2!2i10!3sCAESB0VnTUl5QUU=!3e2!4m5!3b1!4b1!6b1!7b1!20b1!5m2!1sPsrQZPb9H5adseMPzOi5IA!7e81,0.07700642384757929
ChIJk5Pg7bkFrjsRawUCv-9K_gM,Haronics Consumer Products LLP,13.06899070739746,77.7563705444336,0x3bae05b9ede09393:0x3fe4aefbf02056b,N_A,N_A,48,4.900000095367432,https://www.google.com/maps/place/?q=place_id:ChIJk5Pg7bkFrjsRawUCv-9K_gM,gmaps_v2,coffee_shop,food,N_A,1687847039,1633953383.0,60,https://www.google.com/maps/preview/review/listentitiesreviews?authuser=0&hl=en&gl=in&pb=!1m2!1y4300380990303409043!2y287749819760510315!2m2!2i10!3sCAESBkVnSUlNZw==!3e2!4m5!3b1!4b1!6b1!7b1!20b1!5m2!1sPsrQZPb9H5adseMPzOi5IA!7e81,0.0769515432391523
ChIJhwsd-JsFrjsR_Yj5GtI1AjI,Azad 4 WD,13.078758239746094,77.80376434326172,0x3bae059bf81d0b87:0x320235d21af988fd,N_A,N_A,45,4.699999809265137,https://www.google.com/maps/place/?q=place_id:ChIJhwsd-JsFrjsR_Yj5GtI1AjI,gmaps_v2,electronic_store,retail,N_A,1695212099,1643006877.0,43,https://www.google.com/maps/preview/review/listentitiesreviews?authuser=0&hl=en&gl=in&pb=!1m2!1y4300380861626125191!2y3603501828361783549!2m2!2i10!3sCAESBkVnSUlLQQ==!3e2!4m5!3b1!4b1!6b1!7b1!20b1!5m2!1sPsrQZPb9H5adseMPzOi5IA!7e81,0.07447530823640593
