id,name,lat,lng,cid,brand_id,brand_name,number_of_votes,rating,place_url,source,category,top_category,type,created_at,number_of_reviews,date,url,reviews_per_day
18767303,Imperio Restaurant,13.0242075696,77.6431576163,18767303,zomato_imperio_restaurant,Imperio Restaurant,77900,4.0,,zomato,restaurant,food,N_A,1688639100,10124,1534962600.0,,21.89846853617827
ChIJcW4gxdIZrjsRd8QUzarn5TY,GRT Jewellers,13.100046157836914,77.59808349609375,0x3bae19d2c5206e71:0x36e5e7aacd14c477,grtjewels,GRT Jewellers,1189,4.900000095367432,https://www.google.com/maps/place/?q=place_id:ChIJcW4gxdIZrjsRd8QUzarn5TY,gmaps_v2,jewelry_store,retail,N_A,1687847039,4953,1677603802.0,https://www.google.com/maps/preview/review/listentitiesreviews?authuser=0&hl=en&gl=in&pb=!1m2!1y4300403087226465905!2y3955822568485995639!2m2!2i10!3sCAESB0VnTUkxaVk=!3e2!4m5!3b1!4b1!6b1!7b1!20b1!5m2!1sPsrQZPb9H5adseMPzOi5IA!7e81,10.029017194466944
ChIJ19ZPCycYrjsRMhZUT_42f5U,Swathi Gardenia,13.059048652648926,77.5931167602539,0x3bae18270b4fd6d7:0x957f36fe4f541632,swathigroup,swathigroup,18462,3.900000095367432,https://www.google.com/maps/place/?q=place_id:ChIJ19ZPCycYrjsRMhZUT_42f5U,gmaps_v2,restaurant,food,N_A,1699615207,18828,1507043527.0,https://www.google.com/maps/preview/review/listentitiesreviews?authuser=0&hl=en&gl=in&pb=!1m2!1y4300401250157975255!2y10772389299574019634!2m2!2i10!3sCAESCEVnUUlyb1VC!3e2!4m5!3b1!4b1!6b1!7b1!20b1!5m2!1sPsrQZPb9H5adseMPzOi5IA!7e81,8.283236662836405
18784055,Aattutheeram Kerala Restaurant,13.0650992782,77.6460202038,18784055,N_A,N_A,25500,4.1,,zomato,restaurant,food,N_A,1688639100,2862,1536949800.0,,7.262212957670712
ChIJ9Wd9RJgZrjsRcfCk3Vb-XQA,Malik Furnitures & Interior,13.062400817871094,77.64940643310547,0x3bae1998447d67f5:0x5dfe56dda4f071,N_A,N_A,149,5.0,https://www.google.com/maps/place/?q=place_id:ChIJ9Wd9RJgZrjsRcfCk3Vb-XQA,gmaps_v2,home_decor,retail,N_A,1695212099,328,1693404355.0,https://www.google.com/maps/preview/review/listentitiesreviews?authuser=0&hl=en&gl=in&pb=!1m2!1y4300402835960195061!2y26456821873307761!2m2!2i10!3sCAESB0VnTUl3QUk=!3e2!4m5!3b1!4b1!6b1!7b1!20b1!5m2!1sPsrQZPb9H5adseMPzOi5IA!7e81,7.121362316788217
ChIJ63U63_gXrjsR5Q6T1AFaSYY,The Arogya Cafe,13.040624618530272,77.62049102783203,0x3bae17f8df3a75eb:0x86495a01d4930ee5,N_A,N_A,1112,4.199999809265137,https://www.google.com/maps/place/?q=place_id:ChIJ63U63_gXrjsR5Q6T1AFaSYY,gmaps_v2,restaurant,food,N_A,1699615207,1359,1685718629.0,https://www.google.com/maps/preview/review/listentitiesreviews?authuser=0&hl=en&gl=in&pb=!1m2!1y4300401051849881067!2y9676364238290095845!2m2!2i10!3sCAESB0VnTUl4Z28=!3e2!4m5!3b1!4b1!6b1!7b1!20b1!5m2!1sPsrQZPb9H5adseMPzOi5IA!7e81,6.913702063918182
18987973,Leon's Burgers & Wings,13.0636782501,77.5906413049,18987973,zomato_leon's_burgers_&_wings,Leon's Burgers & Wings,20000,4.1,,zomato,restaurant,food,N_A,1688639100,3291,1550687400.0,,6.263061636790268
ChIJO7zyW_gZrjsRJLZ_yGyKev8,Decathlon Hennur Road,13.06590175628662,77.65235900878906,0x3bae19f85bf2bc3b:0xff7a8a6cc87fb624,decathlon,Decathlon,15889,4.400000095367432,https://www.google.com/maps/place/?q=place_id:ChIJO7zyW_gZrjsRJLZ_yGyKev8,gmaps_v2,clothing_store,retail,N_A,1706767070,15901,1477676624.0,https://www.google.com/maps/preview/review/listentitiesreviews?authuser=0&hl=en&gl=in&pb=!1m2!1y4300403248670620731!2y18409178626655237668!2m2!2i10!3sCAESB0VnTUluSHc=!3e2!4m5!3b1!4b1!6b1!7b1!20b1!5m2!1sPsrQZPb9H5adseMPzOi5IA!7e81,5.992434970422119
ChIJL7KnJfEXrjsRLvn-BaXCj30,"AB's - Absolute Barbecues | Kalyan Nagar, Bangalore",13.026633262634276,77.63377380371094,0x3bae17f125a7b22f:0x7d8fc2a505fef92e,absolutebarbecues,Absolute Barbecues,11189,4.400000095367432,https://www.google.com/maps/place/?q=place_id:ChIJL7KnJfEXrjsRLvn-BaXCj30,gmaps_v2,restaurant,food,N_A,1699615207,11705,1527407302.0,https://www.google.com/maps/preview/review/listentitiesreviews?authuser=0&hl=en&gl=in&pb=!1m2!1y4300401018671706671!2y9047664190436604206!2m2!2i10!3sCAESB0VnTUl0RnM=!3e2!4m5!3b1!4b1!6b1!7b1!20b1!5m2!1sPsrQZPb9H5adseMPzOi5IA!7e81,5.613735327655255
18904628,Kadak Biryanis & Grill,13.0660575123,77.5983164459,18904628,N_A,N_A,18600,3.7,,zomato,restaurant,food,N_A,1688639100,1748,1545503400.0,,5.613693858345612
ChIJtyVW9skZrjsRlr16LVvVMKk,OnePlus Exclusive Service Center,13.094649314880373,77.59518432617188,0x3bae19c9f65625b7:0xa930d55b2d7abd96,oneplus,OnePlus India,2129,4.800000190734863,https://www.google.com/maps/place/?q=place_id:ChIJtyVW9skZrjsRlr16LVvVMKk,gmaps_v2,electronic_store,retail,N_A,1695212099,2178,1659072160.0,https://www.google.com/maps/preview/review/listentitiesreviews?authuser=0&hl=en&gl=in&pb=!1m2!1y4300403049397364151!2y12191478778873691542!2m2!2i10!3sCAESB0VnTUktaEE=!3e2!4m5!3b1!4b1!6b1!7b1!20b1!5m2!1sPsrQZPb9H5adseMPzOi5IA!7e81,5.089814899798253
ChIJlw7V9WgXrjsRoYOCPAp2FTo,Kake Di Hatti Hennur,13.0637845993042,77.64976501464844,0x3bae1768f5d50e97:0x3a15760a3c8283a1,kakedihatti,Kake Di Hatti,787,4.5,https://www.google.com/maps/place/?q=place_id:ChIJlw7V9WgXrjsRoYOCPAp2FTo,gmaps_v2,restaurant,food,N_A,1699615207,1193,1686211866.0,https://www.google.com/maps/preview/review/listentitiesreviews?authuser=0&hl=en&gl=in&pb=!1m2!1y4300400433753820823!2y4185381215047680929!2m2!2i10!3sCAESB0VnTUlwZ2s=!3e2!4m5!3b1!4b1!6b1!7b1!20b1!5m2!1sPsrQZPb9H5adseMPzOi5IA!7e81,5.0731231862264785
ChIJh2Q-JCkZrjsRH9wB4yppSg8,The Krishna Cafe,13.076624870300291,77.63345336914062,0x3bae1929243e6487:0xf4a692ae301dc1f,N_A,N_A,1763,4.099999904632568,https://www.google.com/maps/place/?q=place_id:ChIJh2Q-JCkZrjsRH9wB4yppSg8,gmaps_v2,restaurant,food,N_A,1699615207,2108,1669459498.0,https://www.google.com/maps/preview/review/listentitiesreviews?authuser=0&hl=en&gl=in&pb=!1m2!1y4300402358677824647!2y1101808691763600415!2m2!2i10!3sCAESB0VnTUl0QkE=!3e2!4m5!3b1!4b1!6b1!7b1!20b1!5m2!1sPsrQZPb9H5adseMPzOi5IA!7e81,5.051222639136092
ChIJ8biIVHEXrjsRgN5HRGvabx4,Peepai Kitchen & Brewery,13.055708885192873,77.59307861328125,0x3bae17715488b8f1:0x1e6fda6b4447de80,N_A,N_A,2790,4.400000095367432,https://www.google.com/maps/place/?q=place_id:ChIJ8biIVHEXrjsRgN5HRGvabx4,gmaps_v2,restaurant,food,N_A,1699615207,3015,1649820571.0,https://www.google.com/maps/preview/review/listentitiesreviews?authuser=0&hl=en&gl=in&pb=!1m2!1y4300400469702392049!2y2193211697794637440!2m2!2i10!3sCAESB0VnTUl3aGM=!3e2!4m5!3b1!4b1!6b1!7b1!20b1!5m2!1sPsrQZPb9H5adseMPzOi5IA!7e81,4.84100335626512
ChIJdeIlUMsZrjsRzuSSX9QEuwA,Akshatha Nati style@Amruthahalli,13.06612491607666,77.59838104248047,0x3bae19cb5025e275:0xbb04d45f92e4ce,N_A,N_A,32,4.699999809265137,https://www.google.com/maps/place/?q=place_id:ChIJdeIlUMsZrjsRzuSSX9QEuwA,gmaps_v2,restaurant,food,N_A,1699615207,296,1699032113.0,https://www.google.com/maps/preview/review/listentitiesreviews?authuser=0&hl=en&gl=in&pb=!1m2!1y4300403055199117941!2y52641130827932878!2m2!2i10!3sCAESB0VnTUlvZ0k=!3e2!4m5!3b1!4b1!6b1!7b1!20b1!5m2!1sPsrQZPb9H5adseMPzOi5IA!7e81,4.741602554648136
ChIJaTv6sCIXrjsRKOrhaJKo_e0,Chulha Chauki da Dhaba | Kalyan Nagar Restaurant,13.024930953979492,77.63162231445312,0x3bae1722b0fa3b69:0xedfda89268e1ea28,chulhachaukidadhaba,Chulha Chauki Da Dhaba,10749,4.300000190734863,https://www.google.com/maps/place/?q=place_id:ChIJaTv6sCIXrjsRKOrhaJKo_e0,gmaps_v2,restaurant,food,N_A,1699615207,10898,1502302544.0,https://www.google.com/maps/preview/review/listentitiesreviews?authuser=0&hl=en&gl=in&pb=!1m2!1y4300400131950918505!2y17149048302875044392!2m2!2i10!3sCAESB0VnTUlpbFU=!3e2!4m5!3b1!4b1!6b1!7b1!20b1!5m2!1sPsrQZPb9H5adseMPzOi5IA!7e81,4.706811949519936
ChIJiyl9bCAYrjsRceK7GDOXKzA,"More Hypermart Sahakar Nagar, Bangalore",13.057913780212402,77.59188079833984,0x3bae18206c7d298b:0x302b973318bbe271,moreretail,More Retail,13175,4.199999809265137,https://www.google.com/maps/place/?q=place_id:ChIJiyl9bCAYrjsRceK7GDOXKzA,gmaps_v2,supermarket,retail,N_A,1699615207,13260,1422162125.0,https://www.google.com/maps/preview/review/listentitiesreviews?authuser=0&hl=en&gl=in&pb=!1m2!1y4300401221723564427!2y3471034183533191793!2m2!2i10!3sCAESB0VnTUl3bWM=!3e2!4m5!3b1!4b1!6b1!7b1!20b1!5m2!1sPsrQZPb9H5adseMPzOi5IA!7e81,4.102747721504856
ChIJ-SvNN9AZrjsREapjg3v2oYc,"AB's - Absolute Barbecues | Yelahanka, Bangalore",13.091989517211914,77.5938720703125,0x3bae19d037cd2bf9:0x87a1f67b8363aa11,absolutebarbecues,Absolute Barbecues,6527,4.400000095367432,https://www.google.com/maps/place/?q=place_id:ChIJ-SvNN9AZrjsREapjg3v2oYc,gmaps_v2,restaurant,food,N_A,1699615207,6727,1550920271.0,https://www.google.com/maps/preview/review/listentitiesreviews?authuser=0&hl=en&gl=in&pb=!1m2!1y4300403076265487353!2y9773363676716444177!2m2!2i10!3sCAESB0VnTUl3RFE=!3e2!4m5!3b1!4b1!6b1!7b1!20b1!5m2!1sPsrQZPb9H5adseMPzOi5IA!7e81,3.792548792650208
18417519,De Grand Restaurant,13.0664987429,77.6400157437,18417519,N_A,N_A,17500,3.6,,zomato,restaurant,food,N_A,1688639100,2690,1485455400.0,,3.7207709082962857
ChIJe9XAw0MZrjsRfloWw-fLmFQ,Nandhana Palace - Andhra Style Restaurant - Hennur,13.06962776184082,77.65174865722656,0x3bae1943c3c0d57b:0x5498cbe7c3165a7e,nandhanarestaurants,Nandhana Palace,2250,4.5,https://www.google.com/maps/place/?q=place_id:ChIJe9XAw0MZrjsRfloWw-fLmFQ,gmaps_v2,restaurant,food,N_A,1699615207,2739,1646372094.0,https://www.google.com/maps/preview/review/listentitiesreviews?authuser=0&hl=en&gl=in&pb=!1m2!1y4300402473023100283!2y6095846291916872318!2m2!2i10!3sCAESB0VnTUlxaFU=!3e2!4m5!3b1!4b1!6b1!7b1!20b1!5m2!1sPsrQZPb9H5adseMPzOi5IA!7e81,3.6511764441722256
ChIJ58j4S0wXrjsRmK1ydMqCq_0,Croma - Nagavara,13.044321060180664,77.62599182128906,0x3bae174c4bf8c8e7:0xfdab82ca7472ad98,croma,Croma,378,4.800000190734863,https://www.google.com/maps/place/?q=place_id:ChIJ58j4S0wXrjsRmK1ydMqCq_0,gmaps_v2,electronic_store,retail,N_A,1687847039,865,1678886314.0,https://www.google.com/maps/preview/review/listentitiesreviews?authuser=0&hl=en&gl=in&pb=!1m2!1y4300400310644951271!2y18278847318661967256!2m2!2i10!3sCAESB0VnTUkzQVk=!3e2!4m5!3b1!4b1!6b1!7b1!20b1!5m2!1sPsrQZPb9H5adseMPzOi5IA!7e81,3.6447050880369614
ChIJawXWNYIZrjsR0FlX618uQ98,"The Sleep Company Experience Store - Yelahanka, Bangalore",13.094578742980955,77.59502410888672,0x3bae198235d6056b:0xdf432e5feb5759d0,thesleepcompany,The Sleep Company,253,4.900000095367432,https://www.google.com/maps/place/?q=place_id:ChIJawXWNYIZrjsR0FlX618uQ98,gmaps_v2,home_decor,retail,mattress_store,1695212099,615,1688801004.0,https://www.google.com/maps/preview/review/listentitiesreviews?authuser=0&hl=en&gl=in&pb=!1m2!1y4300402741225063787!2y16087753283402684880!2m2!2i10!3sCAESB0VnTUk0Z1E=!3e2!4m5!3b1!4b1!6b1!7b1!20b1!5m2!1sPsrQZPb9H5adseMPzOi5IA!7e81,3.4095891575464097
ChIJp-rPBCQYrjsRqxwLdqfDEWo,The Druid Garden,13.063612937927246,77.59127044677734,0x3bae182404cfeaa7:0x6a11c3a7760b1cab,N_A,N_A,8622,4.199999809265137,https://www.google.com/maps/place/?q=place_id:ChIJp-rPBCQYrjsRqxwLdqfDEWo,gmaps_v2,restaurant,food,N_A,1699615207,8735,1478870347.0,https://www.google.com/maps/preview/review/listentitiesreviews?authuser=0&hl=en&gl=in&pb=!1m2!1y4300401237164026535!2y7643105166631836843!2m2!2i10!3sCAESB0VnTUlta1E=!3e2!4m5!3b1!4b1!6b1!7b1!20b1!5m2!1sPsrQZPb9H5adseMPzOi5IA!7e81,3.3746688371362303
ChIJhUdDu54ZrjsRhvZNLqIoWZI,Kapoor's Cafe - Yelahanka,13.09401798248291,77.59402465820312,0x3bae199ebb434785:0x925928a22e4df686,me-qr,ME-QR,26,4.800000190734863,https://www.google.com/maps/place/?q=place_id:ChIJhUdDu54ZrjsRhvZNLqIoWZI,gmaps_v2,restaurant,food,N_A,1699615207,423,1698933565.0,https://www.google.com/maps/preview/review/listentitiesreviews?authuser=0&hl=en&gl=in&pb=!1m2!1y4300402863722678149!2y10545504679491401350!2m2!2i10!3sCAESB0VnTUlwQU0=!3e2!4m5!3b1!4b1!6b1!7b1!20b1!5m2!1sPsrQZPb9H5adseMPzOi5IA!7e81,3.29557157569516
ChIJaXfee4QVrjsR_2BwP9JRs-c,Wakefit Furniture Store - Yelahanka,13.095237731933594,77.59741973876953,0x3bae15847bde7769:0xe7b351d23f7060ff,wakefit,Wakefit,1690,4.599999904632568,https://www.google.com/maps/place/?q=place_id:ChIJaXfee4QVrjsR_2BwP9JRs-c,gmaps_v2,home_decor,retail,mattress_store,1695212099,1871,1648461132.0,https://www.google.com/maps/preview/review/listentitiesreviews?authuser=0&hl=en&gl=in&pb=!1m2!1y4300398352943445865!2y16695778207041872127!2m2!2i10!3sCAESB0VnTUl6ZzQ=!3e2!4m5!3b1!4b1!6b1!7b1!20b1!5m2!1sPsrQZPb9H5adseMPzOi5IA!7e81,3.123272295094987
ChIJtdaRzFUZrjsRjk0QGu9Dlu0,Malabar Gold and Diamonds - Yelahanka - Bangalore,13.094017028808594,77.59403228759766,0x3bae1955cc91d6b5:0xed9643ef1a104d8e,malabargoldanddiamonds,Malabar Gold & Diamonds,779,4.699999809265137,https://www.google.com/maps/place/?q=place_id:ChIJtdaRzFUZrjsRjk0QGu9Dlu0,gmaps_v2,jewelry_store,retail,N_A,1687847039,1386,1665917012.0,https://www.google.com/maps/preview/review/listentitiesreviews?authuser=0&hl=en&gl=in&pb=!1m2!1y4300402550480426677!2y17119945727709040014!2m2!2i10!3sCAESB0VnTUk1QW8=!3e2!4m5!3b1!4b1!6b1!7b1!20b1!5m2!1sPsrQZPb9H5adseMPzOi5IA!7e81,3.069107028459199
ChIJIaq-5NgZrjsRr65EIV1ofUw,Beauty&Beyond - The Galleria Mall,13.094250679016112,77.59494018554688,0x3bae19d8e4beaa21:0x4c7d685d2144aeaf,beautyandbeyond,beautyandbeyond,531,4.900000095367432,https://www.google.com/maps/place/?q=place_id:ChIJIaq-5NgZrjsRr65EIV1ofUw,gmaps_v2,restaurant,food,N_A,1687847039,989,1672636050.0,https://www.google.com/maps/preview/review/listentitiesreviews?authuser=0&hl=en&gl=in&pb=!1m2!1y4300403113526733345!2y5511676268170751663!2m2!2i10!3sCAESB0VnTUkxQWM=!3e2!4m5!3b1!4b1!6b1!7b1!20b1!5m2!1sPsrQZPb9H5adseMPzOi5IA!7e81,3.016135242751145
ChIJy5pPi_IZrjsRqnNlOr_zBbk,Taawoon Restaurant,13.06462574005127,77.64842224121094,0x3bae19f28b4f9acb:0xb905f3bf3a6573aa,N_A,N_A,4960,4.199999809265137,https://www.google.com/maps/place/?q=place_id:ChIJy5pPi_IZrjsRqnNlOr_zBbk,gmaps_v2,restaurant,food,N_A,1699615207,5064,1556085703.0,https://www.google.com/maps/preview/review/listentitiesreviews?authuser=0&hl=en&gl=in&pb=!1m2!1y4300403223695432395!2y13332330274544251818!2m2!2i10!3sCAESB0VnTUl4Q2M=!3e2!4m5!3b1!4b1!6b1!7b1!20b1!5m2!1sPsrQZPb9H5adseMPzOi5IA!7e81,2.9857554583341974
18706097,Jai Bhavani Dhaba,13.0414048275,77.6218739524,18706097,zomato_jai_bhavani_dhaba,Jai Bhavani Dhaba,10900,3.0,,zomato,restaurant,food,N_A,1688639100,1025,1529605800.0,,2.960889323179485
ChIJn60-haQZrjsRtUc8oleVq9I,Bluebrick Cafe,13.09541130065918,77.58890533447266,0x3bae19a4853ead9f:0xd2ab9557a23c47b5,N_A,N_A,131,4.699999809265137,https://www.google.com/maps/place/?q=place_id:ChIJn60-haQZrjsRtUc8oleVq9I,gmaps_v2,coffee_shop,food,N_A,1687847039,422,1683989844.0,https://www.google.com/maps/preview/review/listentitiesreviews?authuser=0&hl=en&gl=in&pb=!1m2!1y4300402888586210719!2y15180391172598941621!2m2!2i10!3sCAESB0VnTUlwQU0=!3e2!4m5!3b1!4b1!6b1!7b1!20b1!5m2!1sPsrQZPb9H5adseMPzOi5IA!7e81,2.9343603317955145
ChIJDcAWteE7rjsR5MFPQXyDaMk,Manyavar & Mohey,13.026171684265137,77.63603210449219,0x3bae3be1b516c00d:0xc968837c414fc1e4,manyavar,Manyavar,1381,4.900000095367432,https://www.google.com/maps/place/?q=place_id:ChIJDcAWteE7rjsR5MFPQXyDaMk,gmaps_v2,clothing_store,retail,N_A,1687847039,1884,1647152322.0,https://www.google.com/maps/preview/review/listentitiesreviews?authuser=0&hl=en&gl=in&pb=!1m2!1y4300440534777249805!2y14512994368896352740!2m2!2i10!3sCAESB0VnTUkyQTQ=!3e2!4m5!3b1!4b1!6b1!7b1!20b1!5m2!1sPsrQZPb9H5adseMPzOi5IA!7e81,2.9320366080933797
ChIJadhBECcYrjsRJxPIOhuUM2s,Nandhana Palace - Andhra Style Restaurant - Sahakar Nagar,13.059627532958984,77.5926284790039,0x3bae18271041d869:0x6b33941b3ac81327,nandhanarestaurants,Nandhana Palace,7327,4.0,https://www.google.com/maps/place/?q=place_id:ChIJadhBECcYrjsRJxPIOhuUM2s,gmaps_v2,restaurant,food,N_A,1699615207,7613,1483243189.0,https://www.google.com/maps/preview/review/listentitiesreviews?authuser=0&hl=en&gl=in&pb=!1m2!1y4300401250240944233!2y7724680630541751079!2m2!2i10!3sCAESB0VnTUl1anM=!3e2!4m5!3b1!4b1!6b1!7b1!20b1!5m2!1sPsrQZPb9H5adseMPzOi5IA!7e81,2.9257609456690465
ChIJVQvsyAMXrjsRQ1pwP1A1KmM,KFC,13.055222511291504,77.5996322631836,0x3bae1703c8ec0b55:0x632a35503f705a43,N_A,N_A,211,4.199999809265137,https://www.google.com/maps/place/?q=place_id:ChIJVQvsyAMXrjsRQ1pwP1A1KmM,gmaps_v2,restaurant,food,N_A,1699615207,279,1693294627.0,https://www.google.com/maps/preview/review/listentitiesreviews?authuser=0&hl=en&gl=in&pb=!1m2!1y4300399999208655701!2y7145582377554696771!2m2!2i10!3sCAESB0VnTUlqZ0k=!3e2!4m5!3b1!4b1!6b1!7b1!20b1!5m2!1sPsrQZPb9H5adseMPzOi5IA!7e81,2.8842922643175153
18961719,Park Street Restaurant,13.0572128117,77.6102992147,18961719,N_A,N_A,9181,3.9,,zomato,restaurant,food,N_A,1688639100,1421,1550773800.0,,2.87686023966872
ChIJH7lK6OEZrjsRT8OXdatltpc,Punjab Grill - Phoenix Mall of Asia,13.071585655212402,77.58993530273438,0x3bae19e1e84ab91f:0x97b665ab7597c34f,lbf,Lite Bite Foods,25,4.400000095367432,https://www.google.com/maps/place/?q=place_id:ChIJH7lK6OEZrjsRT8OXdatltpc,gmaps_v2,restaurant,food,N_A,1699615207,307,1698834535.0,https://www.google.com/maps/preview/review/listentitiesreviews?authuser=0&hl=en&gl=in&pb=!1m2!1y4300403152240949535!2y10932036932575150927!2m2!2i10!3sCAESB0VnTUlyQUk=!3e2!4m5!3b1!4b1!6b1!7b1!20b1!5m2!1sPsrQZPb9H5adseMPzOi5IA!7e81,2.766847024102312
ChIJh2DosBkYrjsRX7-ybTMlULY,Brahmin's Kitchen,13.06760311126709,77.58326721191406,0x3bae1819b0e86087:0xb65025336db2bf5f,N_A,N_A,5276,4.0,https://www.google.com/maps/place/?q=place_id:ChIJh2DosBkYrjsRX7-ybTMlULY,gmaps_v2,restaurant,food,N_A,1687847039,5505,1517632607.0,https://www.google.com/maps/preview/review/listentitiesreviews?authuser=0&hl=en&gl=in&pb=!1m2!1y4300401192806670471!2y13137041015853727583!2m2!2i10!3sCAESB0VnTUlfQ28=!3e2!4m5!3b1!4b1!6b1!7b1!20b1!5m2!1sPsrQZPb9H5adseMPzOi5IA!7e81,2.6780713870372637
ChIJ82Gu820XrjsR7HYYILtvFRA,Aroma's Hyderabad House,13.040619850158691,77.61978149414062,0x3bae176df3ae61f3:0x10156fbb201876ec,N_A,N_A,6529,4.099999904632568,https://www.google.com/maps/place/?q=place_id:ChIJ82Gu820XrjsR7HYYILtvFRA,gmaps_v2,restaurant,food,N_A,1699615207,6554,1487986214.0,https://www.google.com/maps/preview/review/listentitiesreviews?authuser=0&hl=en&gl=in&pb=!1m2!1y4300400455192568307!2y1158955328605812460!2m2!2i10!3sCAESB0VnTUlsak0=!3e2!4m5!3b1!4b1!6b1!7b1!20b1!5m2!1sPsrQZPb9H5adseMPzOi5IA!7e81,2.6655402551577607
18656576,Hyderabadi Bawarchi,13.099193661,77.5895318761,18656576,N_A,N_A,10400,3.7,,zomato,restaurant,food,N_A,1688639100,779,1519756200.0,,2.660304862126361
18298250,Hyderabadi Bawarchi,13.052298299,77.6040647551,18298250,N_A,N_A,13700,3.8,,zomato,restaurant,food,N_A,1688639100,680,1463509800.0,,2.6288892649690645
ChIJ--0nEHEXrjsRxobh7BQJmP4,"Biriyani Zone, Manyata Tech Park, Hyderabadi Dum Biryani Restaurant",13.0413818359375,77.62150573730469,0x3bae17711027edfb:0xfe980914ece186c6,biryani,biryani,2255,4.199999809265137,https://www.google.com/maps/place/?q=place_id:ChIJ--0nEHEXrjsRxobh7BQJmP4,gmaps_v2,restaurant,food,N_A,1699615207,2409,1625327189.0,https://www.google.com/maps/preview/review/listentitiesreviews?authuser=0&hl=en&gl=in&pb=!1m2!1y4300400468555197947!2y18345423067571914438!2m2!2i10!3sCAESB0VnTUk0Qkk=!3e2!4m5!3b1!4b1!6b1!7b1!20b1!5m2!1sPsrQZPb9H5adseMPzOi5IA!7e81,2.622657128906037
ChIJsWTBnhcYrjsRbQ5JGkwgF1I,Kritunga Restaurant & Take Away,13.059301376342772,77.59309387207031,0x3bae18179ec164b1:0x5217204c1a490e6d,N_A,N_A,7741,3.900000095367432,https://www.google.com/maps/place/?q=place_id:ChIJsWTBnhcYrjsRbQ5JGkwgF1I,gmaps_v2,restaurant,food,N_A,1699615207,7818,1443457498.0,https://www.google.com/maps/preview/review/listentitiesreviews?authuser=0&hl=en&gl=in&pb=!1m2!1y4300401183912191153!2y5915232146805034605!2m2!2i10!3sCAESB0VnTUlnajA=!3e2!4m5!3b1!4b1!6b1!7b1!20b1!5m2!1sPsrQZPb9H5adseMPzOi5IA!7e81,2.610979004344546
18375484,Al-Bek,13.0448954809,77.6210012287,18375484,zomato_al-bek,Al-Bek,12100,3.8,,zomato,restaurant,food,N_A,1688639100,1684,1479061800.0,,2.494163251459008
ChIJbZWYghYXrjsRHDDcUM-BwJg,Venkatam Cafe,13.044017791748049,77.60105895996094,0x3bae17168298956d:0x98c081cf50dc301c,N_A,N_A,469,3.799999952316284,https://www.google.com/maps/place/?q=place_id:ChIJbZWYghYXrjsRHDDcUM-BwJg,gmaps_v2,restaurant,food,N_A,1699615207,541,1683221401.0,https://www.google.com/maps/preview/review/listentitiesreviews?authuser=0&hl=en&gl=in&pb=!1m2!1y4300400079633159533!2y11006940216708313116!2m2!2i10!3sCAESB0VnTUluQVE=!3e2!4m5!3b1!4b1!6b1!7b1!20b1!5m2!1sPsrQZPb9H5adseMPzOi5IA!7e81,2.4717628109055334
ChIJlcv-PpEZrjsRCR5Rn-mEOiM,GANDHADAGUDI BIRYANI,13.063297271728516,77.593017578125,0x3bae19913efecb95:0x233a84e99f511e09,N_A,N_A,642,4.300000190734863,https://www.google.com/maps/place/?q=place_id:ChIJlcv-PpEZrjsRCR5Rn-mEOiM,gmaps_v2,restaurant,food,N_A,1699615207,722,1677060297.0,https://www.google.com/maps/preview/review/listentitiesreviews?authuser=0&hl=en&gl=in&pb=!1m2!1y4300402805803240341!2y2538487478911835657!2m2!2i10!3sCAESB0VnTUkwQVU=!3e2!4m5!3b1!4b1!6b1!7b1!20b1!5m2!1sPsrQZPb9H5adseMPzOi5IA!7e81,2.4592782680134837
ChIJBTxmK1QZrjsRkZ_e0jCNtYg,Food Planks,13.087566375732422,77.59058380126953,0x3bae19542b663c05:0x88b58d30d2de9f91,N_A,N_A,372,3.900000095367432,https://www.google.com/maps/place/?q=place_id:ChIJBTxmK1QZrjsRkZ_e0jCNtYg,gmaps_v2,restaurant,food,N_A,1699615207,575,1686506289.0,https://www.google.com/maps/preview/review/listentitiesreviews?authuser=0&hl=en&gl=in&pb=!1m2!1y4300402543481469957!2y9850935000778579857!2m2!2i10!3sCAESB0VnTUl1Z1E=!3e2!4m5!3b1!4b1!6b1!7b1!20b1!5m2!1sPsrQZPb9H5adseMPzOi5IA!7e81,2.4518270691753505
ChIJCdMG1DUZrjsRVhYhdID2sYw,The Peak,13.073057174682615,77.59526824951172,0x3bae1935d406d309:0x8cb1f68074211656,N_A,N_A,407,4.300000190734863,https://www.google.com/maps/place/?q=place_id:ChIJCdMG1DUZrjsRVhYhdID2sYw,gmaps_v2,restaurant,food,N_A,1699615207,583,1685209190.0,https://www.google.com/maps/preview/review/listentitiesreviews?authuser=0&hl=en&gl=in&pb=!1m2!1y4300402413166580489!2y10138155267752269398!2m2!2i10!3sCAESB0VnTUl4QVE=!3e2!4m5!3b1!4b1!6b1!7b1!20b1!5m2!1sPsrQZPb9H5adseMPzOi5IA!7e81,2.44098004326942
ChIJfc9yyUUZrjsRFMtg3nwtbLU,Wada Junction - A Culinary Journey of Maharashtrian Thalis,13.064981460571287,77.646728515625,0x3bae1945c972cf7d:0xb56c2d7cde60cb14,N_A,N_A,228,4.699999809265137,https://www.google.com/maps/place/?q=place_id:ChIJfc9yyUUZrjsRFMtg3nwtbLU,gmaps_v2,restaurant,food,N_A,1699615207,303,1691405716.0,https://www.google.com/maps/preview/review/listentitiesreviews?authuser=0&hl=en&gl=in&pb=!1m2!1y4300402481708584829!2y13072873832679787284!2m2!2i10!3sCAESB0VnTUlyQUk=!3e2!4m5!3b1!4b1!6b1!7b1!20b1!5m2!1sPsrQZPb9H5adseMPzOi5IA!7e81,2.399564114267255
ChIJcYIxPwcXrjsR_eW4xJbGmyM,Nagavara SOCIAL,13.041448593139648,77.62027740478516,0x3bae17073f318271:0x239bc696c4b8e5fd,socialoffline,Social Offline,288,3.799999952316284,https://www.google.com/maps/place/?q=place_id:ChIJcYIxPwcXrjsR_eW4xJbGmyM,gmaps_v2,restaurant,food,N_A,1699615207,451,1688897605.0,https://www.google.com/maps/preview/review/listentitiesreviews?authuser=0&hl=en&gl=in&pb=!1m2!1y4300400014077821553!2y2565862763565475325!2m2!2i10!3sCAESB0VnTUl3Z00=!3e2!4m5!3b1!4b1!6b1!7b1!20b1!5m2!1sPsrQZPb9H5adseMPzOi5IA!7e81,2.321713383273609
ChIJHfe1l0wZrjsR4N3kN9yogec,CTC - Choudhary Tara Chand,13.05922031402588,77.61917114257812,0x3bae194c97b5f71d:0xe781a8dc37e4dde0,N_A,N_A,229,4.699999809265137,https://www.google.com/maps/place/?q=place_id:ChIJHfe1l0wZrjsR4N3kN9yogec,gmaps_v2,restaurant,food,N_A,1699615207,473,1691046775.0,https://www.google.com/maps/preview/review/listentitiesreviews?authuser=0&hl=en&gl=in&pb=!1m2!1y4300402510938896157!2y16681800158541045216!2m2!2i10!3sCAESB0VnTUkxZ00=!3e2!4m5!3b1!4b1!6b1!7b1!20b1!5m2!1sPsrQZPb9H5adseMPzOi5IA!7e81,2.3091272708939043
ChIJmU87mlcYrjsRB0bkzwHSNmM,Udupi Grand,13.103306770324709,77.60077667236328,0x3bae18579a3b4f99:0x6336d201cfe44607,udupigrand,UdupiGrand,7100,3.799999952316284,https://www.google.com/maps/place/?q=place_id:ChIJmU87mlcYrjsRB0bkzwHSNmM,gmaps_v2,restaurant,food,N_A,1699615207,7227,1427385606.0,https://www.google.com/maps/preview/review/listentitiesreviews?authuser=0&hl=en&gl=in&pb=!1m2!1y4300401458714202009!2y7149132363721885191!2m2!2i10!3sCAESB0VnTUl0RGc=!3e2!4m5!3b1!4b1!6b1!7b1!20b1!5m2!1sPsrQZPb9H5adseMPzOi5IA!7e81,2.2533919814252674
ChIJlSSJg80ZrjsR_p10gsEm7sQ,The Food Factory,13.079431533813477,77.59260559082031,0x3bae19cd83892495:0xc4ee26c182749dfe,N_A,N_A,1842,4.5,https://www.google.com/maps/place/?q=place_id:ChIJlSSJg80ZrjsR_p10gsEm7sQ,gmaps_v2,restaurant,food,N_A,1699615207,1950,1627067760.0,https://www.google.com/maps/preview/review/listentitiesreviews?authuser=0&hl=en&gl=in&pb=!1m2!1y4300403064651195541!2y14190322088450235902!2m2!2i10!3sCAESB0VnTUlsQTg=!3e2!4m5!3b1!4b1!6b1!7b1!20b1!5m2!1sPsrQZPb9H5adseMPzOi5IA!7e81,2.193720200794936
ChIJ_RaZYi4ZrjsRxzFEJFBfuUw,And It Was Called Yellow Modernist Desi Kitchen + Bar,13.063642501831056,77.59066009521484,0x3bae192e629916fd:0x4cb95f50244431c7,N_A,N_A,1690,4.599999904632568,https://www.google.com/maps/place/?q=place_id:ChIJ_RaZYi4ZrjsRxzFEJFBfuUw,gmaps_v2,restaurant,food,N_A,1699615207,1770,1632210199.0,https://www.google.com/maps/preview/review/listentitiesreviews?authuser=0&hl=en&gl=in&pb=!1m2!1y4300402381198792445!2y5528554815384465863!2m2!2i10!3sCAESB0VnTUk0QTA=!3e2!4m5!3b1!4b1!6b1!7b1!20b1!5m2!1sPsrQZPb9H5adseMPzOi5IA!7e81,2.166248537497392
19357533,Dindigul Thalappakatti,13.0257313924,77.6369010285,19357533,zomato_dindigul_thalappakatti,Dindigul Thalappakatti,4878,3.5,,zomato,restaurant,food,N_A,1688639100,1705,1587061800.0,,2.07457374826856
ChIJJR9oW1QZrjsR8dQz7B3nssA,Sharief Bhai - Thanisandra,13.089726448059082,77.63542938232422,0x3bae19545b681f25:0xc0b2e71dec33d4f1,N_A,N_A,164,4.5,https://www.google.com/maps/place/?q=place_id:ChIJJR9oW1QZrjsR8dQz7B3nssA,gmaps_v2,restaurant,food,N_A,1699615207,579,1692783943.0,https://www.google.com/maps/preview/review/listentitiesreviews?authuser=0&hl=en&gl=in&pb=!1m2!1y4300402544286900005!2y13885414716839548145!2m2!2i10!3sCAESB0VnTUl1Z1E=!3e2!4m5!3b1!4b1!6b1!7b1!20b1!5m2!1sPsrQZPb9H5adseMPzOi5IA!7e81,2.0742281369889963
ChIJI7avpfoTrjsRqB-V3aoXuHs,The Irish House,13.094038963317873,77.59486389160156,0x3bae13faa5afb623:0x7bb817aadd951fa8,theirishhouse,The Irish House,3160,4.199999809265137,https://www.google.com/maps/place/?q=place_id:ChIJI7avpfoTrjsRqB-V3aoXuHs,gmaps_v2,restaurant,food,N_A,1699615207,3198,1566721354.0,https://www.google.com/maps/preview/review/listentitiesreviews?authuser=0&hl=en&gl=in&pb=!1m2!1y4300396661427910179!2y8914901485009313704!2m2!2i10!3sCAESB0VnTUk5aGc=!3e2!4m5!3b1!4b1!6b1!7b1!20b1!5m2!1sPsrQZPb9H5adseMPzOi5IA!7e81,2.054451683329552
ChIJ3RzV5SMYrjsRwLqBIvIjV6I,McDonald's,13.063653945922852,77.58956909179688,0x3bae1823e5d51cdd:0xa25723f22281bac0,mcdelivery,McDonald's,5917,4.099999904632568,https://www.google.com/maps/place/?q=place_id:ChIJ3RzV5SMYrjsRwLqBIvIjV6I,gmaps_v2,restaurant,food,N_A,1699615207,6033,1449197739.0,https://www.google.com/maps/preview/review/listentitiesreviews?authuser=0&hl=en&gl=in&pb=!1m2!1y4300401236644273373!2y11697858079986137792!2m2!2i10!3sCAESB0VnTUlqaTg=!3e2!4m5!3b1!4b1!6b1!7b1!20b1!5m2!1sPsrQZPb9H5adseMPzOi5IA!7e81,2.041506146048885
18278224,Nandhana Palace,13.0595803784,77.5926281512,18278224,zomato_nandhana_palace,Nandhana Palace,9727,4.2,,zomato,restaurant,food,N_A,1688639100,4238,1481913000.0,,2.0326722170059806
19076131,Potful - Claypot Biryanis,13.0299826941,77.6347167045,19076131,zomato_potful_-_claypot_biryanis,Potful - Claypot Biryanis,6045,4.0,,zomato,restaurant,food,N_A,1688639100,1336,1559241000.0,,2.018144006751258
ChIJSWJIisUXrjsRR0N6B2opdpA,Kannadiga's Golden Food ( KGF Hotel),13.057597160339355,77.58736419677734,0x3bae17c58a486249:0x9076296a077a4347,N_A,N_A,716,3.900000095367432,https://www.google.com/maps/place/?q=place_id:ChIJSWJIisUXrjsRR0N6B2opdpA,gmaps_v2,restaurant,food,N_A,1699615207,780,1668764312.0,https://www.google.com/maps/preview/review/listentitiesreviews?authuser=0&hl=en&gl=in&pb=!1m2!1y4300400831381398089!2y10409553124082205511!2m2!2i10!3sCAESB0VnTUlnZ1k=!3e2!4m5!3b1!4b1!6b1!7b1!20b1!5m2!1sPsrQZPb9H5adseMPzOi5IA!7e81,2.0052060077997735
ChIJ5whnkVoYrjsReFnDV2rGu6I,Spar Hypermarket,13.09470272064209,77.5949478149414,0x3bae185a916708e7:0xa2bbc66a57c35978,sparindia,Spar India,3715,4.099999904632568,https://www.google.com/maps/place/?q=place_id:ChIJ5whnkVoYrjsReFnDV2rGu6I,gmaps_v2,supermarket,retail,N_A,1700469324,3754,1538232146.0,https://www.google.com/maps/preview/review/listentitiesreviews?authuser=0&hl=en&gl=in&pb=!1m2!1y4300401471450974439!2y11726184214830471544!2m2!2i10!3sCAESB0VnTUlwaDA=!3e2!4m5!3b1!4b1!6b1!7b1!20b1!5m2!1sPsrQZPb9H5adseMPzOi5IA!7e81,1.9784367797620346
ChIJP9FdjUYZrjsRkXen54ng4WY,New Krishna Sagar Food Court,13.07276439666748,77.60420989990234,0x3bae19468d5dd13f:0x66e1e089e7a77791,N_A,N_A,3152,4.0,https://www.google.com/maps/place/?q=place_id:ChIJP9FdjUYZrjsRkXen54ng4WY,gmaps_v2,restaurant,food,N_A,1699615207,3263,1561079498.0,https://www.google.com/maps/preview/review/listentitiesreviews?authuser=0&hl=en&gl=in&pb=!1m2!1y4300402484995543359!2y7413453344530200465!2m2!2i10!3sCAESB0VnTUl2Qms=!3e2!4m5!3b1!4b1!6b1!7b1!20b1!5m2!1sPsrQZPb9H5adseMPzOi5IA!7e81,1.96579497059491
ChIJMZl5emwXrjsRxJScoNB1yKc,Hebbal Social,13.055499076843262,77.59404754638672,0x3bae176c7a799931:0xa7c875d0a09c94c4,socialoffline,Social Offline,351,3.900000095367432,https://www.google.com/maps/place/?q=place_id:ChIJMZl5emwXrjsRxJScoNB1yKc,gmaps_v2,restaurant,food,N_A,1699615207,490,1684155187.0,https://www.google.com/maps/preview/review/listentitiesreviews?authuser=0&hl=en&gl=in&pb=!1m2!1y4300400448864098609!2y12090042738584360132!2m2!2i10!3sCAESB0VnTUk0QU0=!3e2!4m5!3b1!4b1!6b1!7b1!20b1!5m2!1sPsrQZPb9H5adseMPzOi5IA!7e81,1.961601602067785
ChIJlyjyh4EXrjsRmBWT9crqX3Y,Coffee board layout park,13.052361488342283,77.60589599609375,0x3bae178187f22897:0x765feacaf5931598,N_A,N_A,6501,4.199999809265137,https://www.google.com/maps/place/?q=place_id:ChIJlyjyh4EXrjsRmBWT9crqX3Y,gmaps_v2,coffee_shop,food,N_A,1687847039,6758,1400035441.0,https://www.google.com/maps/preview/review/listentitiesreviews?authuser=0&hl=en&gl=in&pb=!1m2!1y4300400539284416663!2y8529794376687359384!2m2!2i10!3sCAESB0VnTUkzalE=!3e2!4m5!3b1!4b1!6b1!7b1!20b1!5m2!1sPsrQZPb9H5adseMPzOi5IA!7e81,1.9515766699575463
ChIJmSnQ2O0XrjsRYkwpSEzcU9E,Udupi Upachar,13.052253723144531,77.60426330566406,0x3bae17edd8d02999:0xd153dc4c48294c62,N_A,N_A,1094,4.099999904632568,https://www.google.com/maps/place/?q=place_id:ChIJmSnQ2O0XrjsRYkwpSEzcU9E,gmaps_v2,restaurant,food,N_A,1699615207,1215,1650541001.0,https://www.google.com/maps/preview/review/listentitiesreviews?authuser=0&hl=en&gl=in&pb=!1m2!1y4300401004497611161!2y15083641797180214370!2m2!2i10!3sCAESB0VnTUl1Z2s=!3e2!4m5!3b1!4b1!6b1!7b1!20b1!5m2!1sPsrQZPb9H5adseMPzOi5IA!7e81,1.9260953503761222
ChIJFbGdnCYYrjsRYqCEEr7Ti80,Rara Avis Multicusine Restaurant,13.06289291381836,77.59263610839844,0x3bae18269c9db115:0xcd8bd3be1284a062,N_A,N_A,3962,4.199999809265137,https://www.google.com/maps/place/?q=place_id:ChIJFbGdnCYYrjsRYqCEEr7Ti80,gmaps_v2,restaurant,food,N_A,1699615207,3997,1514394993.0,https://www.google.com/maps/preview/review/listentitiesreviews?authuser=0&hl=en&gl=in&pb=!1m2!1y4300401248300806421!2y14811164612845936738!2m2!2i10!3sCAESB0VnTUlsaDg=!3e2!4m5!3b1!4b1!6b1!7b1!20b1!5m2!1sPsrQZPb9H5adseMPzOi5IA!7e81,1.8481611299725633
18545269,New Punjabi Pure Veg Restaurant,13.0403,77.6223803,18545269,zomato_new_punjabi_pure_veg_restaurant,New Punjabi Pure Veg Restaurant,7335,3.2,,zomato,restaurant,food,N_A,1688639100,318,1517164200.0,,1.8479205994579966
ChIJRb__mfgZrjsR1sRSI_9fj_4,Dilli Se,13.062819480895996,77.59298706054688,0x3bae19f899ffbf45:0xfe8f5fff2352c4d6,N_A,N_A,223,4.400000095367432,https://www.google.com/maps/place/?q=place_id:ChIJRb__mfgZrjsR1sRSI_9fj_4,gmaps_v2,restaurant,food,N_A,1699615207,317,1689161648.0,https://www.google.com/maps/preview/review/listentitiesreviews?authuser=0&hl=en&gl=in&pb=!1m2!1y4300403249711660869!2y18342985356717245654!2m2!2i10!3sCAESB0VnTUl0Z0k=!3e2!4m5!3b1!4b1!6b1!7b1!20b1!5m2!1sPsrQZPb9H5adseMPzOi5IA!7e81,1.8431234759377164
50360,Delicacy,13.0259767057,77.6404505968,50360,zomato_delicacy,Delicacy,16900,4.0,,zomato,restaurant,food,N_A,1688639100,2012,1292524200.0,,1.8431015849189212
ChIJK7Hq8c8ZrjsR_a9vAQ4-gnw,Shubha Sagar,13.07102108001709,77.61885070800781,0x3bae19cff1eab12b:0x7c823e0e016faffd,N_A,N_A,3511,3.900000095367432,https://www.google.com/maps/place/?q=place_id:ChIJK7Hq8c8ZrjsR_a9vAQ4-gnw,gmaps_v2,restaurant,food,N_A,1687847039,3520,1523164564.0,https://www.google.com/maps/preview/review/listentitiesreviews?authuser=0&hl=en&gl=in&pb=!1m2!1y4300403075093016875!2y8971801637550010365!2m2!2i10!3sCAESB0VnTUl0aHM=!3e2!4m5!3b1!4b1!6b1!7b1!20b1!5m2!1sPsrQZPb9H5adseMPzOi5IA!7e81,1.842032068075246
ChIJOzXHkaIZrjsRwC9CSqlrClk,The Fisherman's Wharf Jakkur,13.079119682312012,77.59280395507812,0x3bae19a291c7353b:0x590a6ba94a422fc0,thefishermanswharf,Fisherman's Wharf,184,4.5,https://www.google.com/maps/place/?q=place_id:ChIJOzXHkaIZrjsRwC9CSqlrClk,gmaps_v2,restaurant,food,N_A,1699615207,683,1690972813.0,https://www.google.com/maps/preview/review/listentitiesreviews?authuser=0&hl=en&gl=in&pb=!1m2!1y4300402880206550331!2y6416058993982189504!2m2!2i10!3sCAESB0VnTUlxQVU=!3e2!4m5!3b1!4b1!6b1!7b1!20b1!5m2!1sPsrQZPb9H5adseMPzOi5IA!7e81,1.8394903078938545
ChIJ-Y91WH4ZrjsRibHSkgaH40I,NewU,13.09443187713623,77.59489440917969,0x3bae197e58758ff9:0x42e3870692d2b189,newu,NewU,592,4.900000095367432,https://www.google.com/maps/place/?q=place_id:ChIJ-Y91WH4ZrjsRibHSkgaH40I,gmaps_v2,clothing_store,retail,N_A,1699615207,677,1671785002.0,https://www.google.com/maps/preview/review/listentitiesreviews?authuser=0&hl=en&gl=in&pb=!1m2!1y4300402724626075641!2y4819844488519397769!2m2!2i10!3sCAESB0VnTUluZ1U=!3e2!4m5!3b1!4b1!6b1!7b1!20b1!5m2!1sPsrQZPb9H5adseMPzOi5IA!7e81,1.837888006933474
ChIJYZJWWJ0XrjsRdYE1z4FNFek,Dindigul Thalappakatti Restaurant Kalyan Nagar,13.025894165039062,77.63717651367188,0x3bae179d58569261:0xe9154d81cf358175,thalappakatti,Dindigul Thalappakatti Restaurant,2341,4.0,https://www.google.com/maps/place/?q=place_id:ChIJYZJWWJ0XrjsRdYE1z4FNFek,gmaps_v2,restaurant,food,N_A,1699615207,2386,1589135580.0,https://www.google.com/maps/preview/review/listentitiesreviews?authuser=0&hl=en&gl=in&pb=!1m2!1y4300400658744775265!2y16795415605270643061!2m2!2i10!3sCAESB0VnTUl6Qkk=!3e2!4m5!3b1!4b1!6b1!7b1!20b1!5m2!1sPsrQZPb9H5adseMPzOi5IA!7e81,1.8307664996008721
ChIJZeXk--gZrjsRXAVsFngroCM,Watson's Sahakara Nagar,13.063678741455078,77.59066772460938,0x3bae19e8fbe4e565:0x23a02b78166c055c,N_A,N_A,3090,4.300000190734863,https://www.google.com/maps/place/?q=place_id:ChIJZeXk--gZrjsRXAVsFngroCM,gmaps_v2,restaurant,food,N_A,1699615207,3199,1553610224.0,https://www.google.com/maps/preview/review/listentitiesreviews?authuser=0&hl=en&gl=in&pb=!1m2!1y4300403182634591589!2y2567099582373430620!2m2!2i10!3sCAESB0VnTUk5aGc=!3e2!4m5!3b1!4b1!6b1!7b1!20b1!5m2!1sPsrQZPb9H5adseMPzOi5IA!7e81,1.828540331394032
ChIJC9hpo8gZrjsRfZMveLImOjU,Glen’s Bakehouse Sahakarnagar,13.062774658203123,77.58714294433594,0x3bae19c8a369d80b:0x353a26b2782f937d,N_A,N_A,729,4.199999809265137,https://www.google.com/maps/place/?q=place_id:ChIJC9hpo8gZrjsRfZMveLImOjU,gmaps_v2,restaurant,food,N_A,1699615207,922,1664897635.0,https://www.google.com/maps/preview/review/listentitiesreviews?authuser=0&hl=en&gl=in&pb=!1m2!1y4300403043711178763!2y3835420580621816701!2m2!2i10!3sCAESB0VnTUltQWM=!3e2!4m5!3b1!4b1!6b1!7b1!20b1!5m2!1sPsrQZPb9H5adseMPzOi5IA!7e81,1.8142282530587104
ChIJYep8_-AZrjsRwLXMnre6yF4,SPAR Hypermarket,13.04490089416504,77.62643432617188,0x3bae19e0ff7cea61:0x5ec8bab79eccb5c0,sparindia,Spar India,5203,4.0,https://www.google.com/maps/place/?q=place_id:ChIJYep8_-AZrjsRwLXMnre6yF4,gmaps_v2,supermarket,retail,N_A,1699615207,5253,1449225874.0,https://www.google.com/maps/preview/review/listentitiesreviews?authuser=0&hl=en&gl=in&pb=!1m2!1y4300403148335147617!2y6829914132713354688!2m2!2i10!3sCAESB0VnTUlnaWs=!3e2!4m5!3b1!4b1!6b1!7b1!20b1!5m2!1sPsrQZPb9H5adseMPzOi5IA!7e81,1.7953608271323602
ChIJ-z9pSD0ZrjsRv3wONyDnZNo,VISHAL MEGA MART,13.064290046691896,77.64808654785156,0x3bae193d48693ffb:0xda64e720370e7cbf,vishalmegamart,Vishal Mega Mart,1900,4.0,https://www.google.com/maps/place/?q=place_id:ChIJ-z9pSD0ZrjsRv3wONyDnZNo,gmaps_v2,supermarket,retail,N_A,1699615207,2018,1606626187.0,https://www.google.com/maps/preview/review/listentitiesreviews?authuser=0&hl=en&gl=in&pb=!1m2!1y4300402445183959035!2y15736957123488021695!2m2!2i10!3sCAESB0VnTUkyZzg=!3e2!4m5!3b1!4b1!6b1!7b1!20b1!5m2!1sPsrQZPb9H5adseMPzOi5IA!7e81,1.7653697178441068
ChIJwbQ9MSYZrjsRS8vtJ84rMEs,Reliance Digital,13.06300163269043,77.64946746826172,0x3bae1926313db4c1:0x4b302bce27edcb4b,reliancedigitalstores,Reliance Digital,610,4.699999809265137,https://www.google.com/maps/place/?q=place_id:ChIJwbQ9MSYZrjsRS8vtJ84rMEs,gmaps_v2,electronic_store,retail,N_A,1695212099,755,1665019963.0,https://www.google.com/maps/preview/review/listentitiesreviews?authuser=0&hl=en&gl=in&pb=!1m2!1y4300402346010981569!2y5417878516159859531!2m2!2i10!3sCAESB0VnTUk3Z1U=!3e2!4m5!3b1!4b1!6b1!7b1!20b1!5m2!1sPsrQZPb9H5adseMPzOi5IA!7e81,1.745620117768415
ChIJI1Rv3-EWrjsRh7rMyJuALMg,Shegan Gastro Pub,13.060019493103027,77.64778137207031,0x3bae16e1df6f5423:0xc82c809bc8ccba87,N_A,N_A,1260,4.099999904632568,https://www.google.com/maps/place/?q=place_id:ChIJI1Rv3-EWrjsRh7rMyJuALMg,gmaps_v2,restaurant,food,N_A,1699615207,1318,1637216231.0,https://www.google.com/maps/preview/review/listentitiesreviews?authuser=0&hl=en&gl=in&pb=!1m2!1y4300399853557470243!2y14424045113138002567!2m2!2i10!3sCAESB0VnTUluZ28=!3e2!4m5!3b1!4b1!6b1!7b1!20b1!5m2!1sPsrQZPb9H5adseMPzOi5IA!7e81,1.74464401467101
ChIJ7a7e0oEXrjsRTeGrJgj-ljQ,Aastha Domestic and International Packers and Movers,13.055340766906738,77.60721588134766,0x3bae1781d2deaeed:0x3496fe0826abe14d,N_A,N_A,1120,4.900000095367432,https://www.google.com/maps/place/?q=place_id:ChIJ7a7e0oEXrjsRTeGrJgj-ljQ,gmaps_v2,home_decor,retail,N_A,1695212099,1134,1638884941.0,https://www.google.com/maps/preview/review/listentitiesreviews?authuser=0&hl=en&gl=in&pb=!1m2!1y4300400540541431533!2y3789495447440843085!2m2!2i10!3sCAESB0VnTUk2Z2c=!3e2!4m5!3b1!4b1!6b1!7b1!20b1!5m2!1sPsrQZPb9H5adseMPzOi5IA!7e81,1.7179634733213418
ChIJQZMumkQXrjsRDwGTEZswjOw,Max,13.049196243286133,77.5933609008789,0x3bae17449a2e9341:0xec8c309b1193010f,maxfashion,Max Fashion,7322,3.5999999046325684,https://www.google.com/maps/place/?q=place_id:ChIJQZMumkQXrjsRDwGTEZswjOw,gmaps_v2,clothing_store,retail,N_A,1687847039,7371,1318739182.0,https://www.google.com/maps/preview/review/listentitiesreviews?authuser=0&hl=en&gl=in&pb=!1m2!1y4300400277597360961!2y17045052132263395599!2m2!2i10!3sCAESB0VnTUl5ams=!3e2!4m5!3b1!4b1!6b1!7b1!20b1!5m2!1sPsrQZPb9H5adseMPzOi5IA!7e81,1.7139185417014844
ChIJ-7w4fGIXrjsREwtYP3eJBcs,Bombay Spice Cafe,13.055835723876951,77.64459228515625,0x3bae17627c38bcfb:0xcb0589773f580b13,N_A,N_A,164,5.0,https://www.google.com/maps/place/?q=place_id:ChIJ-7w4fGIXrjsREwtYP3eJBcs,gmaps_v2,restaurant,food,N_A,1699615207,157,1691232331.0,https://www.google.com/maps/preview/review/listentitiesreviews?authuser=0&hl=en&gl=in&pb=!1m2!1y4300400405943729403!2y14629250109839772435!2m2!2i10!3sCAESB0VnTUlsZ0U=!3e2!4m5!3b1!4b1!6b1!7b1!20b1!5m2!1sPsrQZPb9H5adseMPzOi5IA!7e81,1.690302946148792
ChIJJYK3RC08rjsR-MKWIwh6iqo,Croma - Kalyan Nagar,13.025787353515623,77.64099884033203,0x3bae3c2d44b78225:0xaa8a7a082396c2f8,croma,Croma,6909,4.099999904632568,https://www.google.com/maps/place/?q=place_id:ChIJJYK3RC08rjsR-MKWIwh6iqo,gmaps_v2,electronic_store,retail,N_A,1695212099,7120,1340449591.0,https://www.google.com/maps/preview/review/listentitiesreviews?authuser=0&hl=en&gl=in&pb=!1m2!1y4300440859309474341!2y12288768708609229560!2m2!2i10!3sCAESB0VnTUl4amM=!3e2!4m5!3b1!4b1!6b1!7b1!20b1!5m2!1sPsrQZPb9H5adseMPzOi5IA!7e81,1.682640038163221
ChIJP2_cMlsZrjsRBHrbtQ--7IQ,OnePlus Experience Store,13.094491004943848,77.59512329101562,0x3bae195b32dc6f3f:0x84ecbe0fb5db7a04,oneplus,OnePlus India,1940,4.400000095367432,https://www.google.com/maps/place/?q=place_id:ChIJP2_cMlsZrjsRBHrbtQ--7IQ,gmaps_v2,electronic_store,retail,N_A,1695212099,1989,1595395593.0,https://www.google.com/maps/preview/review/listentitiesreviews?authuser=0&hl=en&gl=in&pb=!1m2!1y4300402573671427903!2y9578239482195048964!2m2!2i10!3sCAESB0VnTUl2QTg=!3e2!4m5!3b1!4b1!6b1!7b1!20b1!5m2!1sPsrQZPb9H5adseMPzOi5IA!7e81,1.6792413070439471
ChIJucBpkdMXrjsRI-EvN34opXs,Wooden Street- Furniture Store Yelahanka Bangalore,13.055574417114258,77.593017578125,0x3bae17d39169c0b9:0x7ba5287e372fe123,woodenstreet,WoodenStreet,626,4.599999904632568,https://www.google.com/maps/place/?q=place_id:ChIJucBpkdMXrjsRI-EvN34opXs,gmaps_v2,home_decor,retail,furniture_store,1695212099,640,1662902108.0,https://www.google.com/maps/preview/review/listentitiesreviews?authuser=0&hl=en&gl=in&pb=!1m2!1y4300400891630567609!2y8909571960379269411!2m2!2i10!3sCAESB0VnTUk5Z1E=!3e2!4m5!3b1!4b1!6b1!7b1!20b1!5m2!1sPsrQZPb9H5adseMPzOi5IA!7e81,1.673983753198817
ChIJtXy7TwgZrjsROQG-QZlsh_Y,Restaurant1179,13.063921928405762,77.58812713623047,0x3bae19084fbb7cb5:0xf6876c9941be0139,N_A,N_A,1723,4.099999904632568,https://www.google.com/maps/place/?q=place_id:ChIJtXy7TwgZrjsROQG-QZlsh_Y,gmaps_v2,restaurant,food,N_A,1699615207,1744,1610391866.0,https://www.google.com/maps/preview/review/listentitiesreviews?authuser=0&hl=en&gl=in&pb=!1m2!1y4300402217673522357!2y17764286660674978105!2m2!2i10!3sCAESB0VnTUl6QTA=!3e2!4m5!3b1!4b1!6b1!7b1!20b1!5m2!1sPsrQZPb9H5adseMPzOi5IA!7e81,1.6684782068405173
ChIJa2GzhyQXrjsRlDZs0Jur_Rk,KFC,13.025789260864258,77.63692474365234,0x3bae172487b3616b:0x19fdab9bd06c3694,kfc,KFC,7511,3.900000095367432,https://www.google.com/maps/place/?q=place_id:ChIJa2GzhyQXrjsRlDZs0Jur_Rk,gmaps_v2,restaurant,food,N_A,1699615207,7772,1303751799.0,https://www.google.com/maps/preview/review/listentitiesreviews?authuser=0&hl=en&gl=in&pb=!1m2!1y4300400139848343915!2y1872841705761027732!2m2!2i10!3sCAESB0VnTUkyanc=!3e2!4m5!3b1!4b1!6b1!7b1!20b1!5m2!1sPsrQZPb9H5adseMPzOi5IA!7e81,1.6393290889871792
ChIJT1gfvD8ZrjsReSX5VqS-lXg,Suruchi Veg,13.068693161010742,77.6274642944336,0x3bae193fbc1f584f:0x7895bea456f92579,N_A,N_A,1042,4.099999904632568,https://www.google.com/maps/place/?q=place_id:ChIJT1gfvD8ZrjsReSX5VqS-lXg,gmaps_v2,restaurant,food,N_A,1699615207,1135,1643768567.0,https://www.google.com/maps/preview/review/listentitiesreviews?authuser=0&hl=en&gl=in&pb=!1m2!1y4300402455715207247!2y8689060669124322681!2m2!2i10!3sCAESB0VnTUk2Z2c=!3e2!4m5!3b1!4b1!6b1!7b1!20b1!5m2!1sPsrQZPb9H5adseMPzOi5IA!7e81,1.6120719169497038
ChIJTRYvngsXrjsR19TZa3VhYd0,Barbeque Nation - Hebbal,13.055242538452148,77.59406280517578,0x3bae170b9e2f164d:0xdd6161756bd9d4d7,barbequenation,Barbeque Nation,545,4.0,https://www.google.com/maps/place/?q=place_id:ChIJTRYvngsXrjsR19TZa3VhYd0,gmaps_v2,restaurant,food,N_A,1699615207,630,1670345108.0,https://www.google.com/maps/preview/review/listentitiesreviews?authuser=0&hl=en&gl=in&pb=!1m2!1y4300400032851367501!2y15952138512071513303!2m2!2i10!3sCAESB0VnTUk3QVE=!3e2!4m5!3b1!4b1!6b1!7b1!20b1!5m2!1sPsrQZPb9H5adseMPzOi5IA!7e81,1.6087407152261426
ChIJN5QtNGcVrjsRq6KZOZHytoQ,"Maruti Suzuki ARENA (Varun Motors, Bengaluru, Hebbala)",13.042980194091797,77.59899139404297,0x3bae1567342d9437:0x84b6f2913999a2ab,N_A,N_A,2597,4.800000190734863,https://www.google.com/maps/place/?q=place_id:ChIJN5QtNGcVrjsRq6KZOZHytoQ,gmaps_v2,electronic_store,retail,N_A,1695212099,2781,1555398439.0,https://www.google.com/maps/preview/review/listentitiesreviews?authuser=0&hl=en&gl=in&pb=!1m2!1y4300398227186619447!2y9563097564318376619!2m2!2i10!3sCAESB0VnTUkzQlU=!3e2!4m5!3b1!4b1!6b1!7b1!20b1!5m2!1sPsrQZPb9H5adseMPzOi5IA!7e81,1.6048560634204125
ChIJSd5Wq3QXrjsROR2Vzbde9Oc,Prequel,13.05184268951416,77.59388732910156,0x3bae1774ab56de49:0xe7f45eb7cd951d39,aahospitality,AA Hospitality,534,4.099999904632568,https://www.google.com/maps/place/?q=place_id:ChIJSd5Wq3QXrjsROR2Vzbde9Oc,gmaps_v2,restaurant,food,N_A,1699615207,614,1670572376.0,https://www.google.com/maps/preview/review/listentitiesreviews?authuser=0&hl=en&gl=in&pb=!1m2!1y4300400484043644489!2y16714088260599881017!2m2!2i10!3sCAESB0VnTUk0Z1E=!3e2!4m5!3b1!4b1!6b1!7b1!20b1!5m2!1sPsrQZPb9H5adseMPzOi5IA!7e81,1.5886054634274462
ChIJY0cQDg4ZrjsRCYvAMr0xu20,Sri Venkateswara Garments Unit 7,13.06547737121582,77.60062408447266,0x3bae190e0e104763:0x6dbb31bd32c08b09,premtextiles,Prem Textiles,1630,4.099999904632568,https://www.google.com/maps/place/?q=place_id:ChIJY0cQDg4ZrjsRCYvAMr0xu20,gmaps_v2,clothing_store,retail,N_A,1687847039,1989,1598683997.0,https://www.google.com/maps/preview/review/listentitiesreviews?authuser=0&hl=en&gl=in&pb=!1m2!1y4300402242341586787!2y7906968259449096969!2m2!2i10!3sCAESB0VnTUl2QTg=!3e2!4m5!3b1!4b1!6b1!7b1!20b1!5m2!1sPsrQZPb9H5adseMPzOi5IA!7e81,1.5794885060112687
ChIJ9Zh-q5gZrjsR1dgKbYUGAmM,Croma - Yelahanka,13.088542938232422,77.59519958496094,0x3bae1998ab7e98f5:0x630206856d0ad8d5,croma,Croma,2746,4.199999809265137,https://www.google.com/maps/place/?q=place_id:ChIJ9Zh-q5gZrjsR1dgKbYUGAmM,gmaps_v2,electronic_store,retail,N_A,1687847039,2928,1536226160.0,https://www.google.com/maps/preview/review/listentitiesreviews?authuser=0&hl=en&gl=in&pb=!1m2!1y4300402837688326389!2y7134271929838131413!2m2!2i10!3sCAESB0VnTUk2Qlk=!3e2!4m5!3b1!4b1!6b1!7b1!20b1!5m2!1sPsrQZPb9H5adseMPzOi5IA!7e81,1.5647871293504372
18627591,Rara Avis,13.0628483606,77.5925735012,18627591,N_A,N_A,6197,4.2,,zomato,restaurant,food,N_A,1688639100,1219,1515177000.0,,1.5433365559393089
ChIJdYz5hckZrjsRiIdsMWp8xF4,AMBUR STAR BRIYANI® SINCE 1890- SHAHAKAR NAGAR,13.063365936279297,77.59156799316406,0x3bae19c985f98c75:0x5ec47c6a316c8788,amburstarbriyani,Ambur Star Briyani,377,4.300000190734863,https://www.google.com/maps/place/?q=place_id:ChIJdYz5hckZrjsRiIdsMWp8xF4,gmaps_v2,restaurant,food,N_A,1699615207,466,1678434719.0,https://www.google.com/maps/preview/review/listentitiesreviews?authuser=0&hl=en&gl=in&pb=!1m2!1y4300403047512247413!2y6828719730538088328!2m2!2i10!3sCAESB0VnTUl6QU0=!3e2!4m5!3b1!4b1!6b1!7b1!20b1!5m2!1sPsrQZPb9H5adseMPzOi5IA!7e81,1.5378682493056817
19845812,McDonald's,13.0695618609,77.6515582949,19845812,zomato_mcdonald's,McDonald's,2101,3.6,,zomato,restaurant,food,N_A,1688639100,730,1629484200.0,,1.5343310528798122
ChIJnRADwn0ZrjsRYpGy_dIqyPU,Bharath Cycle Hub,13.093013763427734,77.58381652832031,0x3bae197dc203109d:0xf5c82ad2fdb29162,N_A,N_A,211,5.0,https://www.google.com/maps/place/?q=place_id:ChIJnRADwn0ZrjsRYpGy_dIqyPU,gmaps_v2,shoe_store,retail,N_A,1687847039,409,1675434429.0,https://www.google.com/maps/preview/review/listentitiesreviews?authuser=0&hl=en&gl=in&pb=!1m2!1y4300402722101989533!2y17710452620322312546!2m2!2i10!3sCAESB0VnTUlrQU0=!3e2!4m5!3b1!4b1!6b1!7b1!20b1!5m2!1sPsrQZPb9H5adseMPzOi5IA!7e81,1.4686999752670873
ChIJcxXQIbAXrjsRIadWSYbIRio,New Udupi Grand,13.032753944396973,77.63111877441406,0x3bae17b021d01573:0x2a46c8864956a721,N_A,N_A,2686,4.099999904632568,https://www.google.com/maps/place/?q=place_id:ChIJcxXQIbAXrjsRIadWSYbIRio,gmaps_v2,restaurant,food,N_A,1699615207,2743,1540313288.0,https://www.google.com/maps/preview/review/listentitiesreviews?authuser=0&hl=en&gl=in&pb=!1m2!1y4300400739434370419!2y3046342677044307745!2m2!2i10!3sCAESB0VnTUl0QlU=!3e2!4m5!3b1!4b1!6b1!7b1!20b1!5m2!1sPsrQZPb9H5adseMPzOi5IA!7e81,1.4567960100970283
ChIJq6qqutU8rjsR8RuDeMDuWUw,Ginger Greens,13.026029586791992,77.64054107666016,0x3bae3cd5baaaaaab:0x4c59eec078831bf1,N_A,N_A,6500,4.0,https://www.google.com/maps/place/?q=place_id:ChIJq6qqutU8rjsR8RuDeMDuWUw,gmaps_v2,restaurant,food,N_A,1699615207,6592,1313615680.0,https://www.google.com/maps/preview/review/listentitiesreviews?authuser=0&hl=en&gl=in&pb=!1m2!1y4300441582842849963!2y5501690930232761329!2m2!2i10!3sCAESB0VnTUl2ak0=!3e2!4m5!3b1!4b1!6b1!7b1!20b1!5m2!1sPsrQZPb9H5adseMPzOi5IA!7e81,1.4549240626401079
ChIJ2f_lnX8ZrjsRzlsq4SVuRXE,Aattutheeram Family Restaurant,13.06513500213623,77.64584350585938,0x3bae197f9de5ffd9:0x71456e25e12a5bce,N_A,N_A,2652,4.199999809265137,https://www.google.com/maps/place/?q=place_id:ChIJ2f_lnX8ZrjsRzlsq4SVuRXE,gmaps_v2,restaurant,food,N_A,1699615207,2727,1541486383.0,https://www.google.com/maps/preview/review/listentitiesreviews?authuser=0&hl=en&gl=in&pb=!1m2!1y4300402730086039513!2y8162051008649386958!2m2!2i10!3sCAESB0VnTUlvQlU=!3e2!4m5!3b1!4b1!6b1!7b1!20b1!5m2!1sPsrQZPb9H5adseMPzOi5IA!7e81,1.4490261433930602
19547603,Paratha Club,13.0399777837,77.6223389804,19547603,N_A,N_A,2654,3.2,,zomato,restaurant,food,N_A,1688639100,1161,1609093800.0,,1.44135228605587
ChIJofSqsQUXrjsRfzE5NxTLHyI,Andhra Chilli's,13.0412015914917,77.62456512451172,0x3bae1705b1aaf4a1:0x221fcb143739317f,N_A,N_A,753,4.5,https://www.google.com/maps/place/?q=place_id:ChIJofSqsQUXrjsRfzE5NxTLHyI,gmaps_v2,restaurant,food,N_A,1699615207,771,1654349117.0,https://www.google.com/maps/preview/review/listentitiesreviews?authuser=0&hl=en&gl=in&pb=!1m2!1y4300400007408448673!2y2458907209253859711!2m2!2i10!3sCAESB0VnTUlnZ1k=!3e2!4m5!3b1!4b1!6b1!7b1!20b1!5m2!1sPsrQZPb9H5adseMPzOi5IA!7e81,1.4372613141537076
ChIJ07Gob4EZrjsRH9ILapEx0_w,DONNE BIRIYANI ARAMANE,13.062894821166992,77.59201049804688,0x3bae19816fa8b1d3:0xfcd331916a0bd21f,N_A,N_A,1528,4.199999809265137,https://www.google.com/maps/place/?q=place_id:ChIJ07Gob4EZrjsRH9ILapEx0_w,gmaps_v2,restaurant,food,N_A,1699615207,1579,1607252326.0,https://www.google.com/maps/preview/review/listentitiesreviews?authuser=0&hl=en&gl=in&pb=!1m2!1y4300402737900204499!2y18217959418262966815!2m2!2i10!3sCAESB0VnTUlvZ3c=!3e2!4m5!3b1!4b1!6b1!7b1!20b1!5m2!1sPsrQZPb9H5adseMPzOi5IA!7e81,1.429353421749588
ChIJjxquzfgZrjsRGLO86fQA0c4,Sangam Sweets,13.066515922546388,77.65165710449219,0x3bae19f8cdae1a8f:0xced100f4e9bcb318,sangamsweets,Sangam Sweets,4160,4.199999809265137,https://www.google.com/maps/place/?q=place_id:ChIJjxquzfgZrjsRGLO86fQA0c4,gmaps_v2,restaurant,food,N_A,1699615207,4224,1448032869.0,https://www.google.com/maps/preview/review/listentitiesreviews?authuser=0&hl=en&gl=in&pb=!1m2!1y4300403250578725519!2y14902693693839160088!2m2!2i10!3sCAESB0VnTUlfQ0E=!3e2!4m5!3b1!4b1!6b1!7b1!20b1!5m2!1sPsrQZPb9H5adseMPzOi5IA!7e81,1.428653548803573
ChIJIzmFCecZrjsR6njtEqYn-LE,New Krishna Sagar,13.067874908447266,77.63246154785156,0x3bae19e709853923:0xb1f827a612ed78ea,N_A,N_A,4175,3.900000095367432,https://www.google.com/maps/place/?q=place_id:ChIJIzmFCecZrjsR6njtEqYn-LE,gmaps_v2,restaurant,food,N_A,1699615207,4225,1442149310.0,https://www.google.com/maps/preview/review/listentitiesreviews?authuser=0&hl=en&gl=in&pb=!1m2!1y4300403174273268003!2y12824043533173094634!2m2!2i10!3sCAESB0VnTUlfQ0E=!3e2!4m5!3b1!4b1!6b1!7b1!20b1!5m2!1sPsrQZPb9H5adseMPzOi5IA!7e81,1.4010399210269002
ChIJQYk0G5wXrjsRbCieD4Jk-XI,Bombay Curry House,13.04190731048584,77.619873046875,0x3bae179c1b348941:0x72f964820f9e286c,N_A,N_A,207,4.699999809265137,https://www.google.com/maps/place/?q=place_id:ChIJQYk0G5wXrjsRbCieD4Jk-XI,gmaps_v2,restaurant,food,N_A,1699615207,349,1686828044.0,https://www.google.com/maps/preview/review/listentitiesreviews?authuser=0&hl=en&gl=in&pb=!1m2!1y4300400653424167233!2y8284763499295287404!2m2!2i10!3sCAESB0VnTUkxQUk=!3e2!4m5!3b1!4b1!6b1!7b1!20b1!5m2!1sPsrQZPb9H5adseMPzOi5IA!7e81,1.3986526956761245
ChIJ-1qplP0ZrjsR9NeVEsyN5CA,Copper Chimney,13.094165802001951,77.59536743164062,0x3bae19fd94a95afb:0x20e48dcc1295d7f4,copperchimney,Copper Chimney,2063,4.5,https://www.google.com/maps/place/?q=place_id:ChIJ-1qplP0ZrjsR9NeVEsyN5CA,gmaps_v2,restaurant,food,N_A,1699615207,2407,1570773577.0,https://www.google.com/maps/preview/review/listentitiesreviews?authuser=0&hl=en&gl=in&pb=!1m2!1y4300403271096949499!2y2370175211528378356!2m2!2i10!3sCAESB0VnTUk0Qkk=!3e2!4m5!3b1!4b1!6b1!7b1!20b1!5m2!1sPsrQZPb9H5adseMPzOi5IA!7e81,1.3834286325002252
ChIJVQwY8k8ZrjsRO_dMi3KF53Q,KFC,13.09450340270996,77.59526062011719,0x3bae194ff2180c55:0x74e785728b4cf73b,kfc,KFC,2011,3.900000095367432,https://www.google.com/maps/place/?q=place_id:ChIJVQwY8k8ZrjsRO_dMi3KF53Q,gmaps_v2,restaurant,food,N_A,1699615207,2042,1570979251.0,https://www.google.com/maps/preview/review/listentitiesreviews?authuser=0&hl=en&gl=in&pb=!1m2!1y4300402525340175445!2y8423848355029645115!2m2!2i10!3sCAESB0VnTUktQTg=!3e2!4m5!3b1!4b1!6b1!7b1!20b1!5m2!1sPsrQZPb9H5adseMPzOi5IA!7e81,1.3507141036056824
ChIJFx8DFI4ZrjsRS-9redmn9wg,"Thalassery Restaurant , kothanur",13.064143180847168,77.64924621582031,0x3bae198e14031f17:0x8f7a7d9796bef4b,N_A,N_A,1375,3.799999952316284,https://www.google.com/maps/place/?q=place_id:ChIJFx8DFI4ZrjsRS-9redmn9wg,gmaps_v2,restaurant,food,N_A,1699615207,1519,1611028195.0,https://www.google.com/maps/preview/review/listentitiesreviews?authuser=0&hl=en&gl=in&pb=!1m2!1y4300402792197201687!2y646169624037814091!2m2!2i10!3sCAESB0VnTUk1Z3M=!3e2!4m5!3b1!4b1!6b1!7b1!20b1!5m2!1sPsrQZPb9H5adseMPzOi5IA!7e81,1.34105437487834
ChIJ0xgUl6YZrjsRaQbaTRsIA1w,Tea Day,13.089247703552246,77.63282012939453,0x3bae19a6971418d3:0x5c03081b4dda0669,teadaycompany,Tea Day,92,5.0,https://www.google.com/maps/place/?q=place_id:ChIJ0xgUl6YZrjsRaQbaTRsIA1w,gmaps_v2,coffee_shop,food,N_A,1687847039,94,1681889268.0,https://www.google.com/maps/preview/review/listentitiesreviews?authuser=0&hl=en&gl=in&pb=!1m2!1y4300402897475344595!2y6630151989782775401!2m2!2i10!3sCAESBkVnSUlXZw==!3e2!4m5!3b1!4b1!6b1!7b1!20b1!5m2!1sPsrQZPb9H5adseMPzOi5IA!7e81,1.334190253368248
ChIJP8VmUzsXrjsRa3Z0iYxatTY,Tanishq Jewellery - Bangalore - Kammanahalli,13.025871276855469,77.6370849609375,0x3bae173b5366c53f:0x36b55a8c8974766b,tanishq,Tanishq,4439,4.5,https://www.google.com/maps/place/?q=place_id:ChIJP8VmUzsXrjsRa3Z0iYxatTY,gmaps_v2,jewelry_store,retail,N_A,1687847039,5319,1392800167.0,https://www.google.com/maps/preview/review/listentitiesreviews?authuser=0&hl=en&gl=in&pb=!1m2!1y4300400237755155775!2y3942156608480769643!2m2!2i10!3sCAESB0VnTUl2aWs=!3e2!4m5!3b1!4b1!6b1!7b1!20b1!5m2!1sPsrQZPb9H5adseMPzOi5IA!7e81,1.2998938012804961
ChIJJSLQQOYZrjsRVj4DcydKiRk,Zoca Cafe Sahakarnagar,13.063368797302246,77.59156799316406,0x3bae19e640d02225:0x19894a2773033e56,N_A,N_A,183,4.800000190734863,https://www.google.com/maps/place/?q=place_id:ChIJJSLQQOYZrjsRVj4DcydKiRk,gmaps_v2,restaurant,food,N_A,1699615207,226,1687449436.0,https://www.google.com/maps/preview/review/listentitiesreviews?authuser=0&hl=en&gl=in&pb=!1m2!1y4300403170905956901!2y1840083456051330646!2m2!2i10!3sCAESB0VnTUkzQUU=!3e2!4m5!3b1!4b1!6b1!7b1!20b1!5m2!1sPsrQZPb9H5adseMPzOi5IA!7e81,1.2996463602676722
ChIJSU4eFBAXrjsRaPG1Zsn4Y6E,Domino's Pizza,13.040855407714844,77.62032318115234,0x3bae1710141e4e49:0xa163f8c966b5f168,dominos,Domino's Pizza,3404,4.0,https://www.google.com/maps/place/?q=place_id:ChIJSU4eFBAXrjsRaPG1Zsn4Y6E,gmaps_v2,restaurant,food,N_A,1699615207,3412,1469951348.0,https://www.google.com/maps/preview/review/listentitiesreviews?authuser=0&hl=en&gl=in&pb=!1m2!1y4300400052009848393!2y11629412206696067432!2m2!2i10!3sCAESB0VnTUkwaG8=!3e2!4m5!3b1!4b1!6b1!7b1!20b1!5m2!1sPsrQZPb9H5adseMPzOi5IA!7e81,1.2805915622971398
ChIJAzYpKIEXrjsRRpM2cBNDD5g,Udupi Utsav,13.055118560791016,77.60272979736328,0x3bae178128293603:0x980f431370369346,N_A,N_A,2637,4.099999904632568,https://www.google.com/maps/place/?q=place_id:ChIJAzYpKIEXrjsRRpM2cBNDD5g,gmaps_v2,restaurant,food,N_A,1699615207,2725,1518680218.0,https://www.google.com/maps/preview/review/listentitiesreviews?authuser=0&hl=en&gl=in&pb=!1m2!1y4300400537677411843!2y10957050169181770566!2m2!2i10!3sCAESB0VnTUlvQlU=!3e2!4m5!3b1!4b1!6b1!7b1!20b1!5m2!1sPsrQZPb9H5adseMPzOi5IA!7e81,1.2592191331218971
ChIJ-3GTzyMYrjsRBzGkgTGYO8k,Poorvika Mobiles Sahakar Nagar,13.063858032226562,77.58838653564453,0x3bae1823cf9371fb:0xc93b983181a43107,poorvika,Poorvika,2657,4.800000190734863,https://www.google.com/maps/place/?q=place_id:ChIJ-3GTzyMYrjsRBzGkgTGYO8k,gmaps_v2,electronic_store,retail,N_A,1695212099,2823,1508213831.0,https://www.google.com/maps/preview/review/listentitiesreviews?authuser=0&hl=en&gl=in&pb=!1m2!1y4300401236270871035!2y14500350763645284615!2m2!2i10!3sCAESB0VnTUloQlk=!3e2!4m5!3b1!4b1!6b1!7b1!20b1!5m2!1sPsrQZPb9H5adseMPzOi5IA!7e81,1.2276306216911057
18687633,AB's - Absolute Barbecues,13.0268839563,77.6336441514,18687633,zomato_ab's_-_absolute_barbecues,AB's - Absolute Barbecues,4568,3.9,,zomato,restaurant,food,N_A,1688639100,5952,1527273000.0,,1.2229185683981951
ChIJjYNAYBQXrjsR-KWJ-y8HCGM,UDUPI GARDEN,13.025911331176758,77.6407241821289,0x3bae17146040838d:0x6308072ffb89a5f8,N_A,N_A,423,4.099999904632568,https://www.google.com/maps/place/?q=place_id:ChIJjYNAYBQXrjsR-KWJ-y8HCGM,gmaps_v2,restaurant,food,N_A,1699615207,518,1669637936.0,https://www.google.com/maps/preview/review/listentitiesreviews?authuser=0&hl=en&gl=in&pb=!1m2!1y4300400070467027853!2y7135961512233510392!2m2!2i10!3sCAESB0VnTUlfZ00=!3e2!4m5!3b1!4b1!6b1!7b1!20b1!5m2!1sPsrQZPb9H5adseMPzOi5IA!7e81,1.2191636790420315
19776251,Biriyani Zone,13.0413016129,77.6215745509,19776251,zomato_biriyani_zone,Biriyani Zone,1764,4.0,,zomato,restaurant,food,N_A,1688639100,1053,1625855400.0,,1.2137672676188247
18305660,DUNKIN',13.0449033199,77.620052062,18305660,zomato_dunkin',DUNKIN',6156,4.1,,zomato,restaurant,food,N_A,1688639100,746,1463077800.0,,1.1790107611545066
ChIJ3SZ14WgXrjsRYcPHXCzcv8E,Poorvika Mobiles Elements Mall,13.045405387878418,77.6266860961914,0x3bae1768e17526dd:0xc1bfdc2c5cc7c361,poorvika,Poorvika,2407,4.699999809265137,https://www.google.com/maps/place/?q=place_id:ChIJ3SZ14WgXrjsRYcPHXCzcv8E,gmaps_v2,electronic_store,retail,N_A,1695212099,2496,1517651299.0,https://www.google.com/maps/preview/review/listentitiesreviews?authuser=0&hl=en&gl=in&pb=!1m2!1y4300400433411991261!2y13961119452965094241!2m2!2i10!3sCAESB0VnTUl1aE0=!3e2!4m5!3b1!4b1!6b1!7b1!20b1!5m2!1sPsrQZPb9H5adseMPzOi5IA!7e81,1.171231488031142
ChIJjRvw9IYZrjsRR5E13EucUvw,CAFE IFTAR - ಕೆಫೆ ಇಫ್ತಾರ್,13.063997268676758,77.65184020996094,0x3bae1986f4f01b8d:0xfc529c4bdc359147,N_A,N_A,1747,4.0,https://www.google.com/maps/place/?q=place_id:ChIJjRvw9IYZrjsRR5E13EucUvw,gmaps_v2,restaurant,food,N_A,1699615207,1894,1570634364.0,https://www.google.com/maps/preview/review/listentitiesreviews?authuser=0&hl=en&gl=in&pb=!1m2!1y4300402761611090829!2y18181766495279092039!2m2!2i10!3sCAESB0VnTUk0ZzQ=!3e2!4m5!3b1!4b1!6b1!7b1!20b1!5m2!1sPsrQZPb9H5adseMPzOi5IA!7e81,1.1702575087061573
ChIJu_X12m4ZrjsRdfM55Xq5EdY,Champaran Junction,13.08387279510498,77.63623809814453,0x3bae196edaf5f5bb:0xd611b97ae539f375,N_A,N_A,165,4.699999809265137,https://www.google.com/maps/place/?q=place_id:ChIJu_X12m4ZrjsRdfM55Xq5EdY,gmaps_v2,restaurant,food,N_A,1699615207,180,1687355545.0,https://www.google.com/maps/preview/review/listentitiesreviews?authuser=0&hl=en&gl=in&pb=!1m2!1y4300402658096051643!2y15425314136203588469!2m2!2i10!3sCAESB0VnTUlxZ0U=!3e2!4m5!3b1!4b1!6b1!7b1!20b1!5m2!1sPsrQZPb9H5adseMPzOi5IA!7e81,1.1628379314209478
ChIJS8Wc0nwXrjsRu_enpgHzVxw,Dilawar Restaurant,13.029930114746094,77.63434600830078,0x3bae177cd29cc54b:0x1c57f301a6a7f7bb,N_A,N_A,1986,4.0,https://www.google.com/maps/place/?q=place_id:ChIJS8Wc0nwXrjsRu_enpgHzVxw,gmaps_v2,restaurant,food,N_A,1699615207,2044,1551436927.0,https://www.google.com/maps/preview/review/listentitiesreviews?authuser=0&hl=en&gl=in&pb=!1m2!1y4300400519062275403!2y2042368144452351931!2m2!2i10!3sCAESB0VnTUktQTg=!3e2!4m5!3b1!4b1!6b1!7b1!20b1!5m2!1sPsrQZPb9H5adseMPzOi5IA!7e81,1.1579996744462144
18614337,California Burrito,13.0492055713,77.5932152197,18614337,zomato_california_burrito,California Burrito,4592,4.0,,zomato,restaurant,food,N_A,1688639100,964,1515781800.0,,1.147619452577357
ChIJdf2x52gXrjsRgFGGO67Q01k,Reliance Digital,13.045507431030272,77.62661743164062,0x3bae1768e7b1fd75:0x59d3d0ae3b865180,reliancedigitalstores,Reliance Digital,3349,4.099999904632568,https://www.google.com/maps/place/?q=place_id:ChIJdf2x52gXrjsRgFGGO67Q01k,gmaps_v2,electronic_store,retail,N_A,1695212099,3798,1442934022.0,https://www.google.com/maps/preview/review/listentitiesreviews?authuser=0&hl=en&gl=in&pb=!1m2!1y4300400433516641653!2y6472746536203080064!2m2!2i10!3sCAESB0VnTUl6aDA=!3e2!4m5!3b1!4b1!6b1!7b1!20b1!5m2!1sPsrQZPb9H5adseMPzOi5IA!7e81,1.1469629206028868
ChIJqx91wG0ZrjsRIpH7I8NOXLU,Srinidhi Sagar,13.058506965637209,77.58470916748047,0x3bae196dc0751fab:0xb55c4ec323fb9122,N_A,N_A,1803,3.900000095367432,https://www.google.com/maps/place/?q=place_id:ChIJqx91wG0ZrjsRIpH7I8NOXLU,gmaps_v2,restaurant,food,N_A,1699615207,1895,1563306151.0,https://www.google.com/maps/preview/review/listentitiesreviews?authuser=0&hl=en&gl=in&pb=!1m2!1y4300402653356433323!2y13068406818751615266!2m2!2i10!3sCAESB0VnTUk0ZzQ=!3e2!4m5!3b1!4b1!6b1!7b1!20b1!5m2!1sPsrQZPb9H5adseMPzOi5IA!7e81,1.1428382278577294
ChIJL5tDHDkYrjsRngDH8jDNAVo,Uday Huts Family Restaurant,13.07702350616455,77.59247589111328,0x3bae18391c439b2f:0x5a01cd30f2c7009e,N_A,N_A,3513,4.0,https://www.google.com/maps/place/?q=place_id:ChIJL5tDHDkYrjsRngDH8jDNAVo,gmaps_v2,restaurant,food,N_A,1699615207,3714,1431244671.0,https://www.google.com/maps/preview/review/listentitiesreviews?authuser=0&hl=en&gl=in&pb=!1m2!1y4300401327751797551!2y6485690548505477278!2m2!2i10!3sCAESB0VnTUlfaHc=!3e2!4m5!3b1!4b1!6b1!7b1!20b1!5m2!1sPsrQZPb9H5adseMPzOi5IA!7e81,1.1309855564770344
ChIJWxRXVXoZrjsRm-ZA_IWm7V0,KFC Hegde Nagar,13.067744255065918,77.63043975830078,0x3bae197a5557145b:0x5deda685fc40e69b,kfc,KFC,556,4.5,https://www.google.com/maps/place/?q=place_id:ChIJWxRXVXoZrjsRm-ZA_IWm7V0,gmaps_v2,restaurant,food,N_A,1699615207,632,1656864346.0,https://www.google.com/maps/preview/review/listentitiesreviews?authuser=0&hl=en&gl=in&pb=!1m2!1y4300402707393877083!2y6768248909400696475!2m2!2i10!3sCAESB0VnTUk5Z1E=!3e2!4m5!3b1!4b1!6b1!7b1!20b1!5m2!1sPsrQZPb9H5adseMPzOi5IA!7e81,1.1236826317954158
ChIJ0Yvhw20XrjsRr1oGulrnPzM,Kuttanad Restaurant,13.040874481201172,77.62096405029297,0x3bae176dc3e18bd1:0x333fe75aba065aaf,N_A,N_A,3693,3.900000095367432,https://www.google.com/maps/place/?q=place_id:ChIJ0Yvhw20XrjsRr1oGulrnPzM,gmaps_v2,restaurant,food,N_A,1699615207,3769,1415504925.0,https://www.google.com/maps/preview/review/listentitiesreviews?authuser=0&hl=en&gl=in&pb=!1m2!1y4300400454390614993!2y3692924596321147567!2m2!2i10!3sCAESB0VnTUlzQjA=!3e2!4m5!3b1!4b1!6b1!7b1!20b1!5m2!1sPsrQZPb9H5adseMPzOi5IA!7e81,1.1230681190200642
ChIJwwWSJwUZrjsReNJOAEFFju4,Imagine Store - Apple Premium Reseller,13.094392776489258,77.59486389160156,0x3bae1905279205c3:0xee8e4541004ed278,imagineonline,Imagine Online Store,1901,4.699999809265137,https://www.google.com/maps/place/?q=place_id:ChIJwwWSJwUZrjsReNJOAEFFju4,gmaps_v2,electronic_store,retail,N_A,1695212099,2034,1547973699.0,https://www.google.com/maps/preview/review/listentitiesreviews?authuser=0&hl=en&gl=in&pb=!1m2!1y4300402204114814403!2y17189752973200118392!2m2!2i10!3sCAESB0VnTUk3Zzg=!3e2!4m5!3b1!4b1!6b1!7b1!20b1!5m2!1sPsrQZPb9H5adseMPzOi5IA!7e81,1.1155133443449534
ChIJw-AAmf0ZrjsRyt_rVHNfL08,PMJ Jewels Boutique - The Galleria Mall,13.094230651855469,77.59537506103516,0x3bae19fd9900e0c3:0x4f2f5f7354ebdfca,pmjjewels,PMJ GEMS AND JEWELLERS PRIVATE LIMITED,31,4.900000095367432,https://www.google.com/maps/place/?q=place_id:ChIJw-AAmf0ZrjsRyt_rVHNfL08,gmaps_v2,jewelry_store,retail,N_A,1687847039,74,1685426934.0,https://www.google.com/maps/preview/review/listentitiesreviews?authuser=0&hl=en&gl=in&pb=!1m2!1y4300403271169794243!2y5705884201852329930!2m2!2i10!3sCAESBkVnSUlSZw==!3e2!4m5!3b1!4b1!6b1!7b1!20b1!5m2!1sPsrQZPb9H5adseMPzOi5IA!7e81,1.1067288402775912
ChIJu75TXoQXrjsRegD15I1mIyk,B. S. Raja Alteration Tailor,13.0497465133667,77.60016632080078,0x3bae17845e53bebb:0x2923668de4f5007a,N_A,N_A,758,4.900000095367432,https://www.google.com/maps/place/?q=place_id:ChIJu75TXoQXrjsRegD15I1mIyk,gmaps_v2,clothing_store,retail,N_A,1687847039,1119,1628667442.0,https://www.google.com/maps/preview/review/listentitiesreviews?authuser=0&hl=en&gl=in&pb=!1m2!1y4300400551471070907!2y2964325739357601914!2m2!2i10!3sCAESB0VnTUkxZ2c=!3e2!4m5!3b1!4b1!6b1!7b1!20b1!5m2!1sPsrQZPb9H5adseMPzOi5IA!7e81,1.1066516725350461
19201936,California Burrito,13.0988003,77.5901396,19201936,zomato_california_burrito,California Burrito,2955,3.8,,zomato,restaurant,food,N_A,1688639100,1107,1573065000.0,,1.1045381274870407
ChIJoz7yY1wZrjsR69UVRZWdHFM,Croma - Hennur,13.064742088317873,77.65208435058594,0x3bae195c63f23ea3:0x531c9d954515d5eb,croma,Croma,1561,4.300000190734863,https://www.google.com/maps/place/?q=place_id:ChIJoz7yY1wZrjsR69UVRZWdHFM,gmaps_v2,electronic_store,retail,N_A,1695212099,1708,1572687471.0,https://www.google.com/maps/preview/review/listentitiesreviews?authuser=0&hl=en&gl=in&pb=!1m2!1y4300402578789908131!2y5988834868930663915!2m2!2i10!3sCAESB0VnTUlwQTA=!3e2!4m5!3b1!4b1!6b1!7b1!20b1!5m2!1sPsrQZPb9H5adseMPzOi5IA!7e81,1.1007615546484255
ChIJ4-00svwZrjsR9C6PyDQQTbQ,"KFC RESTAURANT, SAHAKAR NAGAR",13.06361198425293,77.59078979492188,0x3bae19fcb234ede3:0xb44d1034c88f2ef4,N_A,N_A,441,4.400000095367432,https://www.google.com/maps/place/?q=place_id:ChIJ4-00svwZrjsR9C6PyDQQTbQ,gmaps_v2,restaurant,food,N_A,1699615207,479,1664717127.0,https://www.google.com/maps/preview/review/listentitiesreviews?authuser=0&hl=en&gl=in&pb=!1m2!1y4300403267297668579!2y12992058318922919668!2m2!2i10!3sCAESB0VnTUkxZ00=!3e2!4m5!3b1!4b1!6b1!7b1!20b1!5m2!1sPsrQZPb9H5adseMPzOi5IA!7e81,1.09181937802882
ChIJZb76OP8ZrjsRePntSI6TqX4,Lulu Value Mart,13.06507396697998,77.65219116210938,0x3bae19ff38fabe65:0x7ea9938e48edf978,N_A,N_A,4128,4.199999809265137,https://www.google.com/maps/place/?q=place_id:ChIJZb76OP8ZrjsRePntSI6TqX4,gmaps_v2,supermarket,retail,N_A,1699615207,4180,1369853502.0,https://www.google.com/maps/preview/review/listentitiesreviews?authuser=0&hl=en&gl=in&pb=!1m2!1y4300403278148714085!2y9126988359161215352!2m2!2i10!3sCAESB0VnTUl5aUE=!3e2!4m5!3b1!4b1!6b1!7b1!20b1!5m2!1sPsrQZPb9H5adseMPzOi5IA!7e81,1.081566460241343
ChIJb1-oifgZrjsR_Fb0fPtcqTI,NH8 Restaurant,13.063904762268066,77.58863067626953,0x3bae19f889a85f6f:0x32a95cfb7cf456fc,N_A,N_A,1846,3.900000095367432,https://www.google.com/maps/place/?q=place_id:ChIJb1-oifgZrjsR_Fb0fPtcqTI,gmaps_v2,restaurant,food,N_A,1699615207,1879,1551444891.0,https://www.google.com/maps/preview/review/listentitiesreviews?authuser=0&hl=en&gl=in&pb=!1m2!1y4300403249437499247!2y3650551208163432188!2m2!2i10!3sCAESB0VnTUl6ZzQ=!3e2!4m5!3b1!4b1!6b1!7b1!20b1!5m2!1sPsrQZPb9H5adseMPzOi5IA!7e81,1.0764261311287209
ChIJ6abTcUIZrjsRimRSSUXIPwU,SBTC Davangere benne dose,13.061952590942385,77.58781433105469,0x3bae194271d3a6e9:0x53fc8454952648a,N_A,N_A,1920,4.099999904632568,https://www.google.com/maps/place/?q=place_id:ChIJ6abTcUIZrjsRimRSSUXIPwU,gmaps_v2,restaurant,food,N_A,1699615207,2005,1545454578.0,https://www.google.com/maps/preview/review/listentitiesreviews?authuser=0&hl=en&gl=in&pb=!1m2!1y4300402467353634537!2y378241093630846090!2m2!2i10!3sCAESB0VnTUkwQTg=!3e2!4m5!3b1!4b1!6b1!7b1!20b1!5m2!1sPsrQZPb9H5adseMPzOi5IA!7e81,1.0760724127559185
ChIJQ5yS5xkYrjsRUD3vRQ1QruU,S M Fresh Mart,13.067655563354492,77.58052062988281,0x3bae1819e7929c43:0xe5ae500d45ef3d50,N_A,N_A,2323,4.099999904632568,https://www.google.com/maps/place/?q=place_id:ChIJQ5yS5xkYrjsRUD3vRQ1QruU,gmaps_v2,supermarket,retail,N_A,1699615207,2350,1512662557.0,https://www.google.com/maps/preview/review/listentitiesreviews?authuser=0&hl=en&gl=in&pb=!1m2!1y4300401193723796547!2y16550253698571255120!2m2!2i10!3sCAESB0VnTUlwQkk=!3e2!4m5!3b1!4b1!6b1!7b1!20b1!5m2!1sPsrQZPb9H5adseMPzOi5IA!7e81,1.0735723724697135
ChIJ4yWxc8cZrjsRIEUCCcn3dm0,IDLI & CHICKEN CURRY,13.065840721130373,77.5804443359375,0x3bae19c773b125e3:0x6d76f7c909024520,N_A,N_A,32,4.900000095367432,https://www.google.com/maps/place/?q=place_id:ChIJ4yWxc8cZrjsRIEUCCcn3dm0,gmaps_v2,restaurant,food,N_A,1699615207,59,1696997201.0,https://www.google.com/maps/preview/review/listentitiesreviews?authuser=0&hl=en&gl=in&pb=!1m2!1y4300403038615578083!2y7887764240197633312!2m2!2i10!3sCAESBkVnSUlNZw==!3e2!4m5!3b1!4b1!6b1!7b1!20b1!5m2!1sPsrQZPb9H5adseMPzOi5IA!7e81,1.0560709180956804
ChIJX_Rvz68ZrjsREXE9SGZO3VU,Cafe Rome,13.060606956481934,77.5896224975586,0x3bae19afcf6ff45f:0x55dd4e66483d7111,N_A,N_A,1347,4.5,https://www.google.com/maps/place/?q=place_id:ChIJX_Rvz68ZrjsREXE9SGZO3VU,gmaps_v2,coffee_shop,food,N_A,1687847039,1536,1577621925.0,https://www.google.com/maps/preview/review/listentitiesreviews?authuser=0&hl=en&gl=in&pb=!1m2!1y4300402937075594335!2y6187187664282546449!2m2!2i10!3sCAESB0VnTUktZ3M=!3e2!4m5!3b1!4b1!6b1!7b1!20b1!5m2!1sPsrQZPb9H5adseMPzOi5IA!7e81,1.055846492479019
ChIJJ6_LbZsZrjsRp64y0s1maGs,Starbucks,13.060235023498535,77.5875473022461,0x3bae199b6dcbaf27:0x6b6866cdd232aea7,starbucks,Starbucks,363,4.300000190734863,https://www.google.com/maps/place/?q=place_id:ChIJJ6_LbZsZrjsRp64y0s1maGs,gmaps_v2,coffee_shop,food,N_A,1687847039,579,1657695801.0,https://www.google.com/maps/preview/review/listentitiesreviews?authuser=0&hl=en&gl=in&pb=!1m2!1y4300402849538092839!2y7739548993817063079!2m2!2i10!3sCAESB0VnTUl1Z1E=!3e2!4m5!3b1!4b1!6b1!7b1!20b1!5m2!1sPsrQZPb9H5adseMPzOi5IA!7e81,1.0401960941039967
19013257,NH8,13.0637906001,77.5884556398,19013257,zomato_nh8,NH8,3252,4.1,,zomato,restaurant,food,N_A,1688639100,1974,1552761000.0,,1.0339149575980235
ChIJJerVkIAZrjsRn7JT6zgxJZQ,Little India Food Court,13.083857536315918,77.63627624511719,0x3bae198090d5ea25:0x94253138eb53b29f,N_A,N_A,148,3.900000095367432,https://www.google.com/maps/place/?q=place_id:ChIJJerVkIAZrjsRn7JT6zgxJZQ,gmaps_v2,restaurant,food,N_A,1699615207,244,1687176066.0,https://www.google.com/maps/preview/review/listentitiesreviews?authuser=0&hl=en&gl=in&pb=!1m2!1y4300402734161848869!2y10674992612287689375!2m2!2i10!3sCAESB0VnTUk4QUU=!3e2!4m5!3b1!4b1!6b1!7b1!20b1!5m2!1sPsrQZPb9H5adseMPzOi5IA!7e81,1.027980951417787
ChIJ9TYpREgZrjsRAC9B8sOAsY8,Shalimar Kichen,13.083646774291992,77.63648986816406,0x3bae1948442936f5:0x8fb180c3f2412f00,N_A,N_A,818,4.0,https://www.google.com/maps/place/?q=place_id:ChIJ9TYpREgZrjsRAC9B8sOAsY8,gmaps_v2,restaurant,food,N_A,1699615207,850,1630845947.0,https://www.google.com/maps/preview/review/listentitiesreviews?authuser=0&hl=en&gl=in&pb=!1m2!1y4300402492357293813!2y10354198597372817152!2m2!2i10!3sCAESB0VnTUl5QVk=!3e2!4m5!3b1!4b1!6b1!7b1!20b1!5m2!1sPsrQZPb9H5adseMPzOi5IA!7e81,1.0277149994052575
ChIJmz0-7xAZrjsRcpN9h2wnZ8w,All Market,13.068320274353027,77.62944793701172,0x3bae1910ef3e3d9b:0xcc67276c877d9372,N_A,N_A,1471,4.300000190734863,https://www.google.com/maps/place/?q=place_id:ChIJmz0-7xAZrjsRcpN9h2wnZ8w,gmaps_v2,supermarket,retail,N_A,1699615207,1530,1575511209.0,https://www.google.com/maps/preview/review/listentitiesreviews?authuser=0&hl=en&gl=in&pb=!1m2!1y4300402254709407131!2y14728784453421601650!2m2!2i10!3sCAESB0VnTUk4QXM=!3e2!4m5!3b1!4b1!6b1!7b1!20b1!5m2!1sPsrQZPb9H5adseMPzOi5IA!7e81,1.0240959360551785
ChIJTxYzzGcXrjsRpJc-cNbI-JY,Durgashree samruddhi grand,13.035581588745115,77.60957336425781,0x3bae1767cc33164f:0x96f8c8d6703e97a4,N_A,N_A,1180,4.199999809265137,https://www.google.com/maps/place/?q=place_id:ChIJTxYzzGcXrjsRpJc-cNbI-JY,gmaps_v2,restaurant,food,N_A,1699615207,1254,1598466960.0,https://www.google.com/maps/preview/review/listentitiesreviews?authuser=0&hl=en&gl=in&pb=!1m2!1y4300400428760372815!2y10878665723245139876!2m2!2i10!3sCAESB0VnTUk0Z2s=!3e2!4m5!3b1!4b1!6b1!7b1!20b1!5m2!1sPsrQZPb9H5adseMPzOi5IA!7e81,1.0079462869979348
ChIJuTmfUk0ZrjsRSG62RJmON2E,Tea Amo Cafe,13.058542251586914,77.58332824707031,0x3bae194d529f39b9:0x61378e9944b66e48,N_A,N_A,71,4.900000095367432,https://www.google.com/maps/place/?q=place_id:ChIJuTmfUk0ZrjsRSG62RJmON2E,gmaps_v2,coffee_shop,food,N_A,1687847039,88,1681755603.0,https://www.google.com/maps/preview/review/listentitiesreviews?authuser=0&hl=en&gl=in&pb=!1m2!1y4300402514074745273!2y7005224534332042824!2m2!2i10!3sCAESBkVnSUlVQQ==!3e2!4m5!3b1!4b1!6b1!7b1!20b1!5m2!1sPsrQZPb9H5adseMPzOi5IA!7e81,1.0070531808919934
ChIJL93UM-sZrjsRQFWtTQBdxFk,Domino's Pizza,13.08189868927002,77.63451385498047,0x3bae19eb33d4dd2f:0x59c45d004dad5540,dominos,Domino's Pizza,2901,4.0,https://www.google.com/maps/place/?q=place_id:ChIJL93UM-sZrjsRQFWtTQBdxFk,gmaps_v2,restaurant,food,N_A,1699615207,2912,1443883507.0,https://www.google.com/maps/preview/review/listentitiesreviews?authuser=0&hl=en&gl=in&pb=!1m2!1y4300403192162999599!2y6468397220695463232!2m2!2i10!3sCAESB0VnTUkzaFk=!3e2!4m5!3b1!4b1!6b1!7b1!20b1!5m2!1sPsrQZPb9H5adseMPzOi5IA!7e81,0.9801147061549272
19204262,Chaatimes,13.0831630302,77.6347200572,19204262,N_A,N_A,2555,4.0,,zomato,restaurant,food,N_A,1688639100,388,1576002600.0,,0.979931017032667
ChIJC07Uz5IXrjsRscE_Xa44O_k,"NEXA (Varun Motors, Bengaluru, Hebbal)",13.042928695678713,77.60845184326172,0x3bae1792cfd44e0b:0xf93b38ae5d3fc1b1,N_A,N_A,1314,4.699999809265137,https://www.google.com/maps/place/?q=place_id:ChIJC07Uz5IXrjsRscE_Xa44O_k,gmaps_v2,coffee_shop,food,N_A,1687847039,1912,1571635813.0,https://www.google.com/maps/preview/review/listentitiesreviews?authuser=0&hl=en&gl=in&pb=!1m2!1y4300400613504863755!2y17959010260609909169!2m2!2i10!3sCAESB0VnTUk5ZzQ=!3e2!4m5!3b1!4b1!6b1!7b1!20b1!5m2!1sPsrQZPb9H5adseMPzOi5IA!7e81,0.9769245528826965
ChIJRZ-aIGwZrjsRvZRTmMehSGA,Zaatar,13.06836986541748,77.62937927246094,0x3bae196c209a9f45:0x6048a1c7985394bd,N_A,N_A,1645,4.199999809265137,https://www.google.com/maps/place/?q=place_id:ChIJRZ-aIGwZrjsRvZRTmMehSGA,gmaps_v2,restaurant,food,N_A,1699615207,1712,1554094967.0,https://www.google.com/maps/preview/review/listentitiesreviews?authuser=0&hl=en&gl=in&pb=!1m2!1y4300402646379568965!2y6937973104590427325!2m2!2i10!3sCAESB0VnTUlyZzA=!3e2!4m5!3b1!4b1!6b1!7b1!20b1!5m2!1sPsrQZPb9H5adseMPzOi5IA!7e81,0.9766888784680399
ChIJ2bPNFoEZrjsRHAmZXy0qYbk,Reliance SMART Superstore,13.061285018920898,77.63207244873047,0x3bae198116cdb3d9:0xb9612a2d5f99091c,reliancesmartbazaar,Reliance SMART,1503,4.0,https://www.google.com/maps/place/?q=place_id:ChIJ2bPNFoEZrjsRHAmZXy0qYbk,gmaps_v2,supermarket,retail,N_A,1700469324,1517,1566720138.0,https://www.google.com/maps/preview/review/listentitiesreviews?authuser=0&hl=en&gl=in&pb=!1m2!1y4300402736409457625!2y13358004344123361564!2m2!2i10!3sCAESB0VnTUk1Z3M=!3e2!4m5!3b1!4b1!6b1!7b1!20b1!5m2!1sPsrQZPb9H5adseMPzOi5IA!7e81,0.9709158155175613
ChIJ3688AD4XrjsRO4zr2VtRgi0,Bhima Jewellers HBR Layout,13.03133773803711,77.63076782226562,0x3bae173e003cafdf:0x2d82515bd9eb8c3b,bhimagold,Bhima Gold,3704,4.300000190734863,https://www.google.com/maps/place/?q=place_id:ChIJ3688AD4XrjsRO4zr2VtRgi0,gmaps_v2,jewelry_store,retail,N_A,1687847039,5893,1356514604.0,https://www.google.com/maps/preview/review/listentitiesreviews?authuser=0&hl=en&gl=in&pb=!1m2!1y4300400249244790751!2y3279272933619108923!2m2!2i10!3sCAESB0VnTUlnaTQ=!3e2!4m5!3b1!4b1!6b1!7b1!20b1!5m2!1sPsrQZPb9H5adseMPzOi5IA!7e81,0.9658746509378111
ChIJX9BS0FoYrjsR2207rtk-bZg,Westside,13.092869758605955,77.59392547607422,0x3bae185ad052d05f:0x986d3ed9ae3b6ddb,mywestside,mywestside,2048,4.199999809265137,https://www.google.com/maps/place/?q=place_id:ChIJX9BS0FoYrjsR2207rtk-bZg,gmaps_v2,clothing_store,retail,N_A,1687847039,2195,1504415221.0,https://www.google.com/maps/preview/review/listentitiesreviews?authuser=0&hl=en&gl=in&pb=!1m2!1y4300401472506613855!2y10983504170878463451!2m2!2i10!3sCAESB0VnTUlqaEU=!3e2!4m5!3b1!4b1!6b1!7b1!20b1!5m2!1sPsrQZPb9H5adseMPzOi5IA!7e81,0.9646483468860347
ChIJpX1n1uUZrjsRzsK6T2skmYg,Garden City Supermarket,13.066856384277344,77.63829803466797,0x3bae19e5d6677da5:0x8899246b4fbac2ce,N_A,N_A,2271,4.099999904632568,https://www.google.com/maps/place/?q=place_id:ChIJpX1n1uUZrjsRzsK6T2skmYg,gmaps_v2,supermarket,retail,N_A,1699615207,2283,1496154415.0,https://www.google.com/maps/preview/review/listentitiesreviews?authuser=0&hl=en&gl=in&pb=!1m2!1y4300403169120714149!2y9842938503912669902!2m2!2i10!3sCAESB0VnTUk2QkU=!3e2!4m5!3b1!4b1!6b1!7b1!20b1!5m2!1sPsrQZPb9H5adseMPzOi5IA!7e81,0.9643843320928388
ChIJ2TpXiuYXrjsRouL7oleRKlE,Star bazaar,13.051785469055176,77.5940170288086,0x3bae17e68a573ad9:0x512a9157a2fbe2a2,starbazaarindia,Star Bazaar,951,4.199999809265137,https://www.google.com/maps/place/?q=place_id:ChIJ2TpXiuYXrjsRouL7oleRKlE,gmaps_v2,supermarket,retail,N_A,1700469324,975,1614662630.0,https://www.google.com/maps/preview/review/listentitiesreviews?authuser=0&hl=en&gl=in&pb=!1m2!1y4300400973116291801!2y5848646871676609186!2m2!2i10!3sCAESB0VnTUl5Z2M=!3e2!4m5!3b1!4b1!6b1!7b1!20b1!5m2!1sPsrQZPb9H5adseMPzOi5IA!7e81,0.9575756408934716
ChIJQZEetz8ZrjsRTshYdKnK91o,"Zudio - Hennur Hobli, Bengaluru",13.064285278320312,77.65209197998047,0x3bae193fb71e9141:0x5af7caa97458c84e,zudio,Zudio,951,4.300000190734863,https://www.google.com/maps/place/?q=place_id:ChIJQZEetz8ZrjsRTshYdKnK91o,gmaps_v2,clothing_store,retail,N_A,1687847039,1308,1601705463.0,https://www.google.com/maps/preview/review/listentitiesreviews?authuser=0&hl=en&gl=in&pb=!1m2!1y4300402455631270209!2y6554930611811305550!2m2!2i10!3sCAESB0VnTUlsQW8=!3e2!4m5!3b1!4b1!6b1!7b1!20b1!5m2!1sPsrQZPb9H5adseMPzOi5IA!7e81,0.9538529919629053
ChIJBxrqhsgXrjsRTDFjZTnUlSw,One For the Road,13.04490089416504,77.62657165527344,0x3bae17c886ea1a07:0x2c95d4396563314c,N_A,N_A,1842,4.199999809265137,https://www.google.com/maps/place/?q=place_id:ChIJBxrqhsgXrjsRTDFjZTnUlSw,gmaps_v2,restaurant,food,N_A,1699615207,1868,1532251435.0,https://www.google.com/maps/preview/review/listentitiesreviews?authuser=0&hl=en&gl=in&pb=!1m2!1y4300400844209789447!2y3212707252177940812!2m2!2i10!3sCAESB0VnTUl4QTQ=!3e2!4m5!3b1!4b1!6b1!7b1!20b1!5m2!1sPsrQZPb9H5adseMPzOi5IA!7e81,0.9509154705236925
ChIJoQnEqxcZrjsRxAsAcZA7scQ,SGS NONVEG GUNDU PALAV (Yelahanka new town),13.09864902496338,77.59011840820312,0x3bae1917abc409a1:0xc4b13b9071000bc4,N_A,N_A,99,4.900000095367432,https://www.google.com/maps/place/?q=place_id:ChIJoQnEqxcZrjsRxAsAcZA7scQ,gmaps_v2,restaurant,food,N_A,1699615207,141,1690548225.0,https://www.google.com/maps/preview/review/listentitiesreviews?authuser=0&hl=en&gl=in&pb=!1m2!1y4300402283642096033!2y14173174993868819396!2m2!2i10!3sCAESB0VnTUlqQUU=!3e2!4m5!3b1!4b1!6b1!7b1!20b1!5m2!1sPsrQZPb9H5adseMPzOi5IA!7e81,0.9433789545407723
19296961,Chaatimes,13.063403781,77.5862376445,19296961,N_A,N_A,2386,3.8,,zomato,restaurant,food,N_A,1688639100,406,1578940200.0,,0.9396192669206346
20183645,Biryani By Kilo,13.041292,77.624611,20183645,N_A,N_A,864,4.2,,zomato,restaurant,food,N_A,1688639100,1072,1648751400.0,,0.9357471100113569
ChIJJfie13EZrjsRrXlgq06eiV0,Chaayos Cafe Sahakar Nagar,13.059534072875977,77.58755493164062,0x3bae1971d79ef825:0x5d899e4eab6079ad,chaayos,Chaayos,332,4.400000095367432,https://www.google.com/maps/place/?q=place_id:ChIJJfie13EZrjsRrXlgq06eiV0,gmaps_v2,coffee_shop,food,N_A,1687847039,471,1657035359.0,https://www.google.com/maps/preview/review/listentitiesreviews?authuser=0&hl=en&gl=in&pb=!1m2!1y4300402670924920869!2y6740092378056522157!2m2!2i10!3sCAESB0VnTUkxZ00=!3e2!4m5!3b1!4b1!6b1!7b1!20b1!5m2!1sPsrQZPb9H5adseMPzOi5IA!7e81,0.9309716315371314
ChIJ9_pUB6YZrjsR0tReD_NwmC8,Jockey Exclusive Store,13.072454452514648,77.6048355102539,0x3bae19a60754faf7:0x2f9870f30f5ed4d2,jockey,Jockey,617,4.800000190734863,https://www.google.com/maps/place/?q=place_id:ChIJ9_pUB6YZrjsR0tReD_NwmC8,gmaps_v2,clothing_store,retail,N_A,1687847039,909,1630576699.0,https://www.google.com/maps/preview/review/listentitiesreviews?authuser=0&hl=en&gl=in&pb=!1m2!1y4300402895063677687!2y3429615305479869650!2m2!2i10!3sCAESB0VnTUloQWM=!3e2!4m5!3b1!4b1!6b1!7b1!20b1!5m2!1sPsrQZPb9H5adseMPzOi5IA!7e81,0.9308273706773873
ChIJS3rpfHwZrjsRJI_cfIdKDSU,Nasi and Mee - Yelahanka,13.094186782836914,77.59536743164062,0x3bae197c7ce97a4b:0x250d4a877cdc8f24,N_A,N_A,286,4.699999809265137,https://www.google.com/maps/place/?q=place_id:ChIJS3rpfHwZrjsRJI_cfIdKDSU,gmaps_v2,restaurant,food,N_A,1699615207,368,1672815771.0,https://www.google.com/maps/preview/review/listentitiesreviews?authuser=0&hl=en&gl=in&pb=!1m2!1y4300402716647717451!2y2669872099876441892!2m2!2i10!3sCAESB0VnTUk2QUk=!3e2!4m5!3b1!4b1!6b1!7b1!20b1!5m2!1sPsrQZPb9H5adseMPzOi5IA!7e81,0.9220492550664126
ChIJ0_RXD8EZrjsR2Xb5j0dQe_E,Bangalore Tiffins,13.071366310119627,77.61839294433594,0x3bae19c10f57f4d3:0xf17b50478ff976d9,N_A,N_A,1417,4.0,https://www.google.com/maps/place/?q=place_id:ChIJ0_RXD8EZrjsR2Xb5j0dQe_E,gmaps_v2,restaurant,food,N_A,1699615207,1472,1565866011.0,https://www.google.com/maps/preview/review/listentitiesreviews?authuser=0&hl=en&gl=in&pb=!1m2!1y4300403011162207443!2y17400589853564434137!2m2!2i10!3sCAESB0VnTUl2Z3M=!3e2!4m5!3b1!4b1!6b1!7b1!20b1!5m2!1sPsrQZPb9H5adseMPzOi5IA!7e81,0.9153610164505214
ChIJMx-kCYoXrjsRS0Cru10AibY,The Woodpegger Retro Bar & Kitchen,13.040573120117188,77.6197738647461,0x3bae178a09a41f33:0xb689005dbbab404b,N_A,N_A,594,4.199999809265137,https://www.google.com/maps/place/?q=place_id:ChIJMx-kCYoXrjsRS0Cru10AibY,gmaps_v2,restaurant,food,N_A,1699615207,636,1643479492.0,https://www.google.com/maps/preview/review/listentitiesreviews?authuser=0&hl=en&gl=in&pb=!1m2!1y4300400575820078899!2y13153044589292765259!2m2!2i10!3sCAESB0VnTUk5Z1E=!3e2!4m5!3b1!4b1!6b1!7b1!20b1!5m2!1sPsrQZPb9H5adseMPzOi5IA!7e81,0.9142414949199453
ChIJ93BDmocXrjsRUrTRdknu1KY,Savi Dosa,13.049991607666016,77.5979995727539,0x3bae17879a4370f7:0xa6d4ee4976d1b452,N_A,N_A,81,4.900000095367432,https://www.google.com/maps/place/?q=place_id:ChIJ93BDmocXrjsRUrTRdknu1KY,gmaps_v2,restaurant,food,N_A,1699615207,84,1691755528.0,https://www.google.com/maps/preview/review/listentitiesreviews?authuser=0&hl=en&gl=in&pb=!1m2!1y4300400565361537271!2y12021495304652174418!2m2!2i10!3sCAESBkVnSUlVQQ==!3e2!4m5!3b1!4b1!6b1!7b1!20b1!5m2!1sPsrQZPb9H5adseMPzOi5IA!7e81,0.890418043790338
ChIJK1LBUIEXrjsRm2LjZWxud_Y,Lucky Chan - Dim Sum and Sushi Parlour - Hebbal,13.052124977111816,77.59398651123047,0x3bae178150c1522b:0xf6776e6c65e3629b,N_A,N_A,300,4.300000190734863,https://www.google.com/maps/place/?q=place_id:ChIJK1LBUIEXrjsRm2LjZWxud_Y,gmaps_v2,restaurant,food,N_A,1699615207,328,1670351443.0,https://www.google.com/maps/preview/review/listentitiesreviews?authuser=0&hl=en&gl=in&pb=!1m2!1y4300400538358469163!2y17759785067403764379!2m2!2i10!3sCAESB0VnTUl3QUk=!3e2!4m5!3b1!4b1!6b1!7b1!20b1!5m2!1sPsrQZPb9H5adseMPzOi5IA!7e81,0.885737050093761
51567,Chulha Chauki Da Dhaba,13.0249814049,77.6315540448,51567,N_A,N_A,7646,4.3,,zomato,restaurant,food,N_A,1688639100,4448,1313346600.0,,0.8801326964967325
ChIJv7CZsJ0ZrjsRh6McsUrTXSc,Malvan Tadka,13.058691024780272,77.59259796142578,0x3bae199db099b0bf:0x275dd34ab11ca387,N_A,N_A,993,4.5,https://www.google.com/maps/place/?q=place_id:ChIJv7CZsJ0ZrjsRh6McsUrTXSc,gmaps_v2,restaurant,food,N_A,1699615207,1039,1601827250.0,https://www.google.com/maps/preview/review/listentitiesreviews?authuser=0&hl=en&gl=in&pb=!1m2!1y4300402859248824511!2y2836655658065765255!2m2!2i10!3sCAESB0VnTUloZ2c=!3e2!4m5!3b1!4b1!6b1!7b1!20b1!5m2!1sPsrQZPb9H5adseMPzOi5IA!7e81,0.8773595709745731
ChIJpdvKmYUXrjsRRVjJ4Q76huQ,Reliance Fresh,13.055344581604004,77.60258483886719,0x3bae178599cadba5:0xe486fa0ee1c95845,relianceretail,Reliance Retail,2543,3.700000047683716,https://www.google.com/maps/place/?q=place_id:ChIJpdvKmYUXrjsRRVjJ4Q76huQ,gmaps_v2,shoe_store,retail,N_A,1700469324,2559,1448705607.0,https://www.google.com/maps/preview/review/listentitiesreviews?authuser=0&hl=en&gl=in&pb=!1m2!1y4300400556763700133!2y16467124029351352389!2m2!2i10!3sCAESB0VnTUk5aE0=!3e2!4m5!3b1!4b1!6b1!7b1!20b1!5m2!1sPsrQZPb9H5adseMPzOi5IA!7e81,0.8727039885576523
ChIJac0-X58ZrjsRvEZjZ8yarTQ,UDAY SAGAR SKILL ACADEMY - Computer Education & Spoken English),13.097173690795898,77.59661102294922,0x3bae199f5f3ecd69:0x34ad9acc676346bc,N_A,N_A,102,5.0,https://www.google.com/maps/place/?q=place_id:ChIJac0-X58ZrjsRvEZjZ8yarTQ,gmaps_v2,electronic_store,retail,N_A,1695212099,207,1685101419.0,https://www.google.com/maps/preview/review/listentitiesreviews?authuser=0&hl=en&gl=in&pb=!1m2!1y4300402866473848169!2y3795860263641761468!2m2!2i10!3sCAESB0VnTUl5QUU=!3e2!4m5!3b1!4b1!6b1!7b1!20b1!5m2!1sPsrQZPb9H5adseMPzOi5IA!7e81,0.8716327685180423
19596017,Baohood,13.0554432456,77.6080431417,19596017,N_A,N_A,1554,4.2,,zomato,restaurant,food,N_A,1688639100,725,1611340200.0,,0.8684832513787389
ChIJBxFlv8QXrjsRNMmGjJJ51GU,Malik Furnitures & Interior,13.052215576171877,77.62641906738281,0x3bae17c4bf651107:0x65d479928c86c934,N_A,N_A,262,5.0,https://www.google.com/maps/place/?q=place_id:ChIJBxFlv8QXrjsRNMmGjJJ51GU,gmaps_v2,home_decor,retail,N_A,1695212099,428,1669017756.0,https://www.google.com/maps/preview/review/listentitiesreviews?authuser=0&hl=en&gl=in&pb=!1m2!1y4300400827977502983!2y7337623363223210292!2m2!2i10!3sCAESB0VnTUlwQU0=!3e2!4m5!3b1!4b1!6b1!7b1!20b1!5m2!1sPsrQZPb9H5adseMPzOi5IA!7e81,0.8641865917385292
ChIJY12GqrEZrjsRGcjR-X3RPIU,Third Wave Coffee,13.061092376708984,77.58721923828125,0x3bae19b1aa865d63:0x853cd17df9d1c819,thirdwavecoffee,Third Wave Coffee,142,4.699999809265137,https://www.google.com/maps/place/?q=place_id:ChIJY12GqrEZrjsRGcjR-X3RPIU,gmaps_v2,coffee_shop,food,N_A,1687847039,300,1673602078.0,https://www.google.com/maps/preview/review/listentitiesreviews?authuser=0&hl=en&gl=in&pb=!1m2!1y4300402945046240611!2y9600778844639447065!2m2!2i10!3sCAESB0VnTUlvZ0k=!3e2!4m5!3b1!4b1!6b1!7b1!20b1!5m2!1sPsrQZPb9H5adseMPzOi5IA!7e81,0.8612729792661419
ChIJAQAAQBkYrjsR91Mo-NsUhmE,The Bel St.,13.0611572265625,77.58720397949219,0x3bae181940000001:0x618614dbf82853f7,N_A,N_A,2502,3.900000095367432,https://www.google.com/maps/place/?q=place_id:ChIJAQAAQBkYrjsR91Mo-NsUhmE,gmaps_v2,restaurant,food,N_A,1699615207,2521,1447557002.0,https://www.google.com/maps/preview/review/listentitiesreviews?authuser=0&hl=en&gl=in&pb=!1m2!1y4300401190912393217!2y7027327203552023543!2m2!2i10!3sCAESB0VnTUkyQk0=!3e2!4m5!3b1!4b1!6b1!7b1!20b1!5m2!1sPsrQZPb9H5adseMPzOi5IA!7e81,0.8576304826101574
ChIJZzw6b1cYrjsRiumTS7SI6lk,Yelahanka Flower Market,13.09934902191162,77.5973129272461,0x3bae18576f3a3c67:0x59ea88b44b93e98a,N_A,N_A,1761,4.099999904632568,https://www.google.com/maps/place/?q=place_id:ChIJZzw6b1cYrjsRiumTS7SI6lk,gmaps_v2,supermarket,retail,N_A,1687847039,1948,1509166399.0,https://www.google.com/maps/preview/review/listentitiesreviews?authuser=0&hl=en&gl=in&pb=!1m2!1y4300401457992711271!2y6479141321869355402!2m2!2i10!3sCAESB0VnTUlsQTg=!3e2!4m5!3b1!4b1!6b1!7b1!20b1!5m2!1sPsrQZPb9H5adseMPzOi5IA!7e81,0.851521463097513
ChIJOTLRb6IXrjsR1HqjG-_ZHPk,"One More Roti Please | North Indian Restaurants in Kalyan Nagar, Bangalore",13.028799057006836,77.63495635986328,0x3bae17a26fd13239:0xf91cd9ef1ba37ad4,N_A,N_A,390,4.400000095367432,https://www.google.com/maps/place/?q=place_id:ChIJOTLRb6IXrjsR1HqjG-_ZHPk,gmaps_v2,restaurant,food,N_A,1699615207,609,1659720208.0,https://www.google.com/maps/preview/review/listentitiesreviews?authuser=0&hl=en&gl=in&pb=!1m2!1y4300400680613524025!2y17950461835776064212!2m2!2i10!3sCAESB0VnTUkyQVE=!3e2!4m5!3b1!4b1!6b1!7b1!20b1!5m2!1sPsrQZPb9H5adseMPzOi5IA!7e81,0.8446171411108445
ChIJTX8HsScXrjsRUC8P1v8OSTM,"Chianti, Hebbal",13.055364608764648,77.59385681152344,0x3bae1727b1077f4d:0x33490effd60f2f50,N_A,N_A,270,4.400000095367432,https://www.google.com/maps/place/?q=place_id:ChIJTX8HsScXrjsRUC8P1v8OSTM,gmaps_v2,restaurant,food,N_A,1699615207,303,1671897664.0,https://www.google.com/maps/preview/review/listentitiesreviews?authuser=0&hl=en&gl=in&pb=!1m2!1y4300400153426624333!2y3695501461204971344!2m2!2i10!3sCAESB0VnTUlyQUk=!3e2!4m5!3b1!4b1!6b1!7b1!20b1!5m2!1sPsrQZPb9H5adseMPzOi5IA!7e81,0.8416330408506988
ChIJ-2k9tVoZrjsRVl22Wgv4asU,Thalassery Restaurant,13.058622360229492,77.5931167602539,0x3bae195ab53d69fb:0xc56af80b5ab65d56,N_A,N_A,935,3.900000095367432,https://www.google.com/maps/place/?q=place_id:ChIJ-2k9tVoZrjsRVl22Wgv4asU,gmaps_v2,restaurant,food,N_A,1699615207,993,1603432101.0,https://www.google.com/maps/preview/review/listentitiesreviews?authuser=0&hl=en&gl=in&pb=!1m2!1y4300402571563854331!2y14225455100653362518!2m2!2i10!3sCAESB0VnTUkzZ2M=!3e2!4m5!3b1!4b1!6b1!7b1!20b1!5m2!1sPsrQZPb9H5adseMPzOi5IA!7e81,0.8398980170176663
ChIJ6X1DT9oZrjsR4KAMwtTrlS0,Mr. Kulukki Resto & Cafe,13.088955879211426,77.6349868774414,0x3bae19da4f437de9:0x2d95ebd4c20ca0e0,N_A,N_A,75,4.900000095367432,https://www.google.com/maps/place/?q=place_id:ChIJ6X1DT9oZrjsR4KAMwtTrlS0,gmaps_v2,restaurant,food,N_A,1699615207,92,1691883924.0,https://www.google.com/maps/preview/review/listentitiesreviews?authuser=0&hl=en&gl=in&pb=!1m2!1y4300403119608790505!2y3284790802257846496!2m2!2i10!3sCAESBkVnSUlXZw==!3e2!4m5!3b1!4b1!6b1!7b1!20b1!5m2!1sPsrQZPb9H5adseMPzOi5IA!7e81,0.8381532534768162
ChIJQae7fyYZrjsRxMkKC4CHa34,"ASHA SWEET CENTER, Sahakar Nagar",13.063675880432127,77.58921813964844,0x3bae19267fbba741:0x7e6b87800b0ac9c4,ashasweetcenter,Asha Sweet Center,910,4.300000190734863,https://www.google.com/maps/place/?q=place_id:ChIJQae7fyYZrjsRxMkKC4CHa34,gmaps_v2,restaurant,food,N_A,1699615207,969,1604468855.0,https://www.google.com/maps/preview/review/listentitiesreviews?authuser=0&hl=en&gl=in&pb=!1m2!1y4300402347327858497!2y9109523655297780164!2m2!2i10!3sCAESB0VnTUl3QWM=!3e2!4m5!3b1!4b1!6b1!7b1!20b1!5m2!1sPsrQZPb9H5adseMPzOi5IA!7e81,0.8263480243572554
ChIJ-Y1cYV0ZrjsRSN0-f3v8ZM4,GOPIZZA Sahakar Nagar,13.058764457702637,77.58770751953125,0x3bae195d615c8df9:0xce64fc7b7f3edd48,gopizza,GoPizza,673,4.300000190734863,https://www.google.com/maps/place/?q=place_id:ChIJ-Y1cYV0ZrjsRSN0-f3v8ZM4,gmaps_v2,restaurant,food,N_A,1699615207,675,1629127238.0,https://www.google.com/maps/preview/review/listentitiesreviews?authuser=0&hl=en&gl=in&pb=!1m2!1y4300402583041510905!2y14872289476830223688!2m2!2i10!3sCAESB0VnTUluZ1U=!3e2!4m5!3b1!4b1!6b1!7b1!20b1!5m2!1sPsrQZPb9H5adseMPzOi5IA!7e81,0.8249237540097091
18499717,Manna Treat,13.0611840009,77.605692856,18499717,zomato_manna_treat,Manna Treat,3653,3.6,,zomato,restaurant,food,N_A,1688639100,95,1497292200.0,,0.8247303719056854
ChIJUX7sV_MZrjsRVVQky9-hzME,MILLION MARKET,13.08115577697754,77.6339111328125,0x3bae19f357ec7e51:0xc1cca1dfcb245455,N_A,N_A,35,4.5,https://www.google.com/maps/place/?q=place_id:ChIJUX7sV_MZrjsRVVQky9-hzME,gmaps_v2,supermarket,retail,N_A,1699615207,137,1695924520.0,https://www.google.com/maps/preview/review/listentitiesreviews?authuser=0&hl=en&gl=in&pb=!1m2!1y4300403227128266321!2y13964714527127000149!2m2!2i10!3sCAESB0VnTUlnZ0U=!3e2!4m5!3b1!4b1!6b1!7b1!20b1!5m2!1sPsrQZPb9H5adseMPzOi5IA!7e81,0.8193596476753515
ChIJpZM8iHIZrjsRbQLiRXqRbjQ,Global Dhaba - The Global Restobar,13.079544067382812,77.59259033203125,0x3bae1972883c93a5:0x346e917a45e2026d,swathigroup,swathigroup,637,4.199999809265137,https://www.google.com/maps/place/?q=place_id:ChIJpZM8iHIZrjsRbQLiRXqRbjQ,gmaps_v2,restaurant,food,N_A,1699615207,690,1632381631.0,https://www.google.com/maps/preview/review/listentitiesreviews?authuser=0&hl=en&gl=in&pb=!1m2!1y4300402673888039845!2y3778117091754902125!2m2!2i10!3sCAESB0VnTUlxQVU=!3e2!4m5!3b1!4b1!6b1!7b1!20b1!5m2!1sPsrQZPb9H5adseMPzOi5IA!7e81,0.8185909968554997
ChIJ19YDimAXrjsRRH1TAENjQTw,Families Supermarket Rachanahalli Main Road Thanisandra,13.056729316711426,77.6296157836914,0x3bae17608a03d6d7:0x3c41634300537d44,N_A,N_A,1892,4.0,https://www.google.com/maps/place/?q=place_id:ChIJ19YDimAXrjsRRH1TAENjQTw,gmaps_v2,supermarket,retail,N_A,1699615207,1893,1499867001.0,https://www.google.com/maps/preview/review/listentitiesreviews?authuser=0&hl=en&gl=in&pb=!1m2!1y4300400397585209047!2y4341860655181299012!2m2!2i10!3sCAESB0VnTUk0ZzQ=!3e2!4m5!3b1!4b1!6b1!7b1!20b1!5m2!1sPsrQZPb9H5adseMPzOi5IA!7e81,0.8183743087034283
19230139,Ranaghor,13.0508814433,77.6047379896,19230139,N_A,N_A,2177,4.2,,zomato,restaurant,food,N_A,1688639100,382,1573410600.0,,0.8161730821801898
ChIJaeKL06EXrjsRuLrDcVlygmU,Sri Manjunatha Grand,13.035128593444824,77.60472106933594,0x3bae17a1d38be269:0x6582725971c3bab8,N_A,N_A,1735,3.900000095367432,https://www.google.com/maps/place/?q=place_id:ChIJaeKL06EXrjsRuLrDcVlygmU,gmaps_v2,restaurant,food,N_A,1699615207,1782,1515169993.0,https://www.google.com/maps/preview/review/listentitiesreviews?authuser=0&hl=en&gl=in&pb=!1m2!1y4300400677991735913!2y7314534473289415352!2m2!2i10!3sCAESB0VnTUk5QTA=!3e2!4m5!3b1!4b1!6b1!7b1!20b1!5m2!1sPsrQZPb9H5adseMPzOi5IA!7e81,0.8127291391795073
55342,Dreamland Food Corner,13.0571037247,77.6443062723,55342,zomato_dreamland_food_corner,Dreamland Food Corner,5659,3.7,,zomato,restaurant,food,N_A,1688639100,393,1387391400.0,,0.811520884640779
ChIJOXVzjlwYrjsRJ6rSW3sjZxE,Itsy Bitsy,13.093545913696287,77.58955383300781,0x3bae185c8e737539:0x1167237b5bd2aa27,N_A,N_A,1914,4.199999809265137,https://www.google.com/maps/place/?q=place_id:ChIJOXVzjlwYrjsRJ6rSW3sjZxE,gmaps_v2,jewelry_store,retail,N_A,1687847039,1993,1483849832.0,https://www.google.com/maps/preview/review/listentitiesreviews?authuser=0&hl=en&gl=in&pb=!1m2!1y4300401479991391545!2y1254010033974454823!2m2!2i10!3sCAESB0VnTUl4Zzg=!3e2!4m5!3b1!4b1!6b1!7b1!20b1!5m2!1sPsrQZPb9H5adseMPzOi5IA!7e81,0.8106463928204664
19177834,Tarbouche,13.043441674,77.6249152422,19177834,zomato_tarbouche,Tarbouche,2256,4.1,,zomato,restaurant,food,N_A,1688639100,649,1568226600.0,,0.8093777639364684
ChIJJ0rrBHkXrjsRgTVx7ArI8p8,Happiness Dhaba,13.054476737976074,77.60192108154297,0x3bae177904eb4a27:0x9ff2c80aec713581,N_A,N_A,489,4.199999809265137,https://www.google.com/maps/place/?q=place_id:ChIJJ0rrBHkXrjsRgTVx7ArI8p8,gmaps_v2,restaurant,food,N_A,1699615207,554,1647403727.0,https://www.google.com/maps/preview/review/listentitiesreviews?authuser=0&hl=en&gl=in&pb=!1m2!1y4300400502726412839!2y11525494345636590977!2m2!2i10!3sCAESB0VnTUlwZ1E=!3e2!4m5!3b1!4b1!6b1!7b1!20b1!5m2!1sPsrQZPb9H5adseMPzOi5IA!7e81,0.8092013480560214
ChIJd3QaE8gXrjsR_7XFhcUn2bk,Gadget Fixer,13.042777061462402,77.62518310546875,0x3bae17c8131a7477:0xb9d927c585c5b5ff,N_A,N_A,263,5.0,https://www.google.com/maps/place/?q=place_id:ChIJd3QaE8gXrjsR_7XFhcUn2bk,gmaps_v2,electronic_store,retail,N_A,1695212099,265,1666349560.0,https://www.google.com/maps/preview/review/listentitiesreviews?authuser=0&hl=en&gl=in&pb=!1m2!1y4300400842266801271!2y13391778696269247999!2m2!2i10!3sCAESB0VnTUloQUk=!3e2!4m5!3b1!4b1!6b1!7b1!20b1!5m2!1sPsrQZPb9H5adseMPzOi5IA!7e81,0.7872904043542392
ChIJy5U3c4MXrjsRLCh_zCB5PfI,Families Supermarket,13.04925537109375,77.60389709472656,0x3bae1783733795cb:0xf23d7920cc7f282c,N_A,N_A,2585,4.0,https://www.google.com/maps/place/?q=place_id:ChIJy5U3c4MXrjsRLCh_zCB5PfI,gmaps_v2,supermarket,retail,N_A,1699615207,2624,1415432389.0,https://www.google.com/maps/preview/review/listentitiesreviews?authuser=0&hl=en&gl=in&pb=!1m2!1y4300400547526579659!2y17455240912534710316!2m2!2i10!3sCAESB0VnTUl2QlE=!3e2!4m5!3b1!4b1!6b1!7b1!20b1!5m2!1sPsrQZPb9H5adseMPzOi5IA!7e81,0.7859166207578391
18947303,AB's - Absolute Barbecues,13.0920505598,77.5938706845,18947303,zomato_ab's_-_absolute_barbecues,AB's - Absolute Barbecues,2486,4.0,,zomato,restaurant,food,N_A,1688639100,2921,1551983400.0,,0.7858815987917079
ChIJle3Q9D0XrjsR4QUoJv_Ijc8,Malabar Food Court,13.029742240905762,77.63091278076172,0x3bae173df4d0ed95:0xcf8dc8ff262805e1,N_A,N_A,1930,4.199999809265137,https://www.google.com/maps/place/?q=place_id:ChIJle3Q9D0XrjsR4QUoJv_Ijc8,gmaps_v2,restaurant,food,N_A,1699615207,1946,1486480781.0,https://www.google.com/maps/preview/review/listentitiesreviews?authuser=0&hl=en&gl=in&pb=!1m2!1y4300400249053179285!2y14955830935749658081!2m2!2i10!3sCAESB0VnTUlsQTg=!3e2!4m5!3b1!4b1!6b1!7b1!20b1!5m2!1sPsrQZPb9H5adseMPzOi5IA!7e81,0.7823794735065466
ChIJz_jZSSoZrjsRWmGO8lrNNRA,Udupi Aatithya,13.060221672058104,77.5873794555664,0x3bae192a49d9f8cf:0x1035cd5af28e615a,N_A,N_A,266,4.099999904632568,https://www.google.com/maps/place/?q=place_id:ChIJz_jZSSoZrjsRWmGO8lrNNRA,gmaps_v2,restaurant,food,N_A,1699615207,319,1669990050.0,https://www.google.com/maps/preview/review/listentitiesreviews?authuser=0&hl=en&gl=in&pb=!1m2!1y4300402363603744975!2y1168065468872679770!2m2!2i10!3sCAESB0VnTUl0Z0k=!3e2!4m5!3b1!4b1!6b1!7b1!20b1!5m2!1sPsrQZPb9H5adseMPzOi5IA!7e81,0.7757731039197531
ChIJo_1THEUYrjsRAMuooQZzrb8,"NEXA (Mandovi Motors, Bengaluru,Yelahanka)",13.091267585754396,77.59368896484375,0x3bae18451c53fda3:0xbfad7306a1a8cb00,N_A,N_A,1742,4.599999904632568,https://www.google.com/maps/place/?q=place_id:ChIJo_1THEUYrjsRAMuooQZzrb8,gmaps_v2,electronic_store,retail,N_A,1695212099,1811,1499931168.0,https://www.google.com/maps/preview/review/listentitiesreviews?authuser=0&hl=en&gl=in&pb=!1m2!1y4300401379292478883!2y13811822104534371072!2m2!2i10!3sCAESB0VnTUlrZzQ=!3e2!4m5!3b1!4b1!6b1!7b1!20b1!5m2!1sPsrQZPb9H5adseMPzOi5IA!7e81,0.770729631558342
ChIJy152Qc8XrjsRFfWgwRnSlkM,Venkatam Cafe,13.044020652770996,77.60106658935547,0x3bae17cf41765ecb:0x4396d219c1a0f515,N_A,N_A,41,4.099999904632568,https://www.google.com/maps/place/?q=place_id:ChIJy152Qc8XrjsRFfWgwRnSlkM,gmaps_v2,restaurant,food,N_A,1687847039,541,1683221401.0,https://www.google.com/maps/preview/review/listentitiesreviews?authuser=0&hl=en&gl=in&pb=!1m2!1y4300400873109348043!2y4870311055112336661!2m2!2i10!3sCAESB0VnTUluQVE=!3e2!4m5!3b1!4b1!6b1!7b1!20b1!5m2!1sPsrQZPb9H5adseMPzOi5IA!7e81,0.7658186827417104
ChIJF_roao4XrjsRxPEbpBhgrCs,Jus’Trufs - Chocolate Shop & Cafe,13.072477340698242,77.60382080078125,0x3bae178e6ae8fa17:0x2bac6018a41bf1c4,N_A,N_A,3128,4.099999904632568,https://www.google.com/maps/place/?q=place_id:ChIJF_roao4XrjsRxPEbpBhgrCs,gmaps_v2,restaurant,food,N_A,1699615207,3174,1346572644.0,https://www.google.com/maps/preview/review/listentitiesreviews?authuser=0&hl=en&gl=in&pb=!1m2!1y4300400594631850519!2y3146995898573910468!2m2!2i10!3sCAESB0VnTUk0aGc=!3e2!4m5!3b1!4b1!6b1!7b1!20b1!5m2!1sPsrQZPb9H5adseMPzOi5IA!7e81,0.7655144969021767
ChIJ0xbOqCcYrjsRp6LXZ8n4LFw,DJ Bar And Family Restaurant,13.059861183166504,77.59387969970703,0x3bae1827a8ce16d3:0x5c2cf8c967d7a2a7,N_A,N_A,2441,3.900000095367432,https://www.google.com/maps/place/?q=place_id:ChIJ0xbOqCcYrjsRp6LXZ8n4LFw,gmaps_v2,restaurant,food,N_A,1699615207,2455,1423829473.0,https://www.google.com/maps/preview/review/listentitiesreviews?authuser=0&hl=en&gl=in&pb=!1m2!1y4300401252800272083!2y6641957094378939047!2m2!2i10!3sCAESB0VnTUlraE0=!3e2!4m5!3b1!4b1!6b1!7b1!20b1!5m2!1sPsrQZPb9H5adseMPzOi5IA!7e81,0.7647328124666521
ChIJX77PjQoZrjsRSGC7iV1i95E,Leon's Burgers & Wings - Sahakara Nagar,13.063677787780762,77.59062194824219,0x3bae190a8dcfbe5f:0x91f7625d89bb6048,N_A,N_A,1314,4.300000190734863,https://www.google.com/maps/place/?q=place_id:ChIJX77PjQoZrjsRSGC7iV1i95E,gmaps_v2,restaurant,food,N_A,1699615207,1319,1550778257.0,https://www.google.com/maps/preview/review/listentitiesreviews?authuser=0&hl=en&gl=in&pb=!1m2!1y4300402227304971871!2y10517983608629321800!2m2!2i10!3sCAESB0VnTUluZ28=!3e2!4m5!3b1!4b1!6b1!7b1!20b1!5m2!1sPsrQZPb9H5adseMPzOi5IA!7e81,0.7627783289028699
ChIJtXrucwUXrjsR3OPIUZcmBSA,TechGeek Laptop Solutions,13.048943519592283,77.61185455322266,0x3bae170573ee7ab5:0x2005269751c8e3dc,N_A,N_A,174,5.0,https://www.google.com/maps/place/?q=place_id:ChIJtXrucwUXrjsR3OPIUZcmBSA,gmaps_v2,electronic_store,retail,N_A,1695212099,221,1675408818.0,https://www.google.com/maps/preview/review/listentitiesreviews?authuser=0&hl=en&gl=in&pb=!1m2!1y4300400006372686517!2y2307292815451284444!2m2!2i10!3sCAESB0VnTUkzQUU=!3e2!4m5!3b1!4b1!6b1!7b1!20b1!5m2!1sPsrQZPb9H5adseMPzOi5IA!7e81,0.7591469312585122
ChIJoVj_vpYZrjsRIfBzur1VMzI,LuLu Shopping Mart,13.089105606079102,77.63533020019531,0x3bae1996beff58a1:0x323355bdba73f021,N_A,N_A,2066,4.099999904632568,https://www.google.com/maps/place/?q=place_id:ChIJoVj_vpYZrjsRIfBzur1VMzI,gmaps_v2,jewelry_store,retail,N_A,1687847039,2174,1451439979.0,https://www.google.com/maps/preview/review/listentitiesreviews?authuser=0&hl=en&gl=in&pb=!1m2!1y4300402829425596577!2y3617329199073980449!2m2!2i10!3sCAESB0VnTUktaEE=!3e2!4m5!3b1!4b1!6b1!7b1!20b1!5m2!1sPsrQZPb9H5adseMPzOi5IA!7e81,0.7550637447121926
ChIJU-qJy20XrjsR8YMAeWJWA1M,Andhra Biryanis,13.041443824768066,77.6224365234375,0x3bae176dcb89ea53:0x53035662790083f1,N_A,N_A,2169,4.0,https://www.google.com/maps/place/?q=place_id:ChIJU-qJy20XrjsR8YMAeWJWA1M,gmaps_v2,restaurant,food,N_A,1699615207,2185,1450679419.0,https://www.google.com/maps/preview/review/listentitiesreviews?authuser=0&hl=en&gl=in&pb=!1m2!1y4300400454519089747!2y5981719711015011313!2m2!2i10!3sCAESB0VnTUloQkU=!3e2!4m5!3b1!4b1!6b1!7b1!20b1!5m2!1sPsrQZPb9H5adseMPzOi5IA!7e81,0.7528110020082769
