trans_type,top_pois
buy,"[{'id': 'F65GoVZMNHdzpSvf+uAgZw==', 'bathrooms': 4.0, 'bedrooms': 4.0, 'price': 425000000.0, 'name': '4BHK Multistorey Apartment for New Property in Dr Rajkumar Road Lakshminarayanapuram', 'lat': 12.993668, 'lng': 77.556013, 'type': 'AP', 'desc': '', 'covered_area': 3400.0, 'carpet_area': 0.0, 'trans_type': 'buy', 'source': 'MagicBricks', 'distance': 1.93}, {'id': '13850882', 'bathrooms': 6.0, 'bedrooms': 8.0, 'price': 216800000.0, 'name': '8 BHK Property for Sale in Rajajinagar Bangalore', 'lat': 13.00999928, 'lng': 77.5535965, 'type': 'AP', 'desc': 'This spacious 8 bhk multistorey apartment is available for sale and is located in The Phoenix Mills Ltd Kessaku, one of the most prestigious projects of Rajajinagar. It has a built-up area of 12833 sq...', 'covered_area': 12833.0, 'carpet_area': 0.0, 'trans_type': 'buy', 'source': 'Makaan', 'distance': 0.17}, {'id': '15989846', 'bathrooms': 4.0, 'bedrooms': 5.0, 'price': 160000000.0, 'name': '5 BHK Property for Sale in Sadashiva Nagar Bangalore', 'lat': 13.0100174, 'lng': 77.57562256, 'type': 'AP', 'desc': 'The house is unfurnished. It’s on 8th floor out of 9 floors building. It has club house. Other amenities include swimming pool, intercom, power backup, 24 x 7 security and gymnasium. It is north facin...', 'covered_area': 6870.0, 'carpet_area': 0.0, 'trans_type': 'buy', 'source': 'Makaan', 'distance': 2.27}, {'id': 'ff8081815e5b632a015e5c0335260304', 'bathrooms': 5.0, 'bedrooms': 4.0, 'price': 150000000.0, 'name': '4+ BHK Flat  In Silver Sky For Sale  In Sadashiva Nagar', 'lat': 13.004262, 'lng': 77.583402, 'type': 'AP', 'desc': '', 'covered_area': 5500.0, 'carpet_area': 0.0, 'trans_type': 'buy', 'source': 'NoBroker', 'distance': 3.2}, {'id': '15049519', 'bathrooms': 5.0, 'bedrooms': 5.0, 'price': 148674599.0, 'name': '5 BHK Property for Sale in Rajajinagar Bangalore', 'lat': 13.00999928, 'lng': 77.5535965, 'type': 'AP', 'desc': 'The house is unfurnished. It is on 15th floor. The building has a total of 30 floor(s). It is a ready-to-move-in property. It is situated in the proximity of all the important facilities. Please conta...', 'covered_area': 8049.0, 'carpet_area': 0.0, 'trans_type': 'buy', 'source': 'Makaan', 'distance': 0.17}, {'id': '14659905', 'bathrooms': 6.0, 'bedrooms': 6.0, 'price': 132318482.0, 'name': '6 BHK Property for Sale in Rajajinagar Bangalore', 'lat': 13.00999928, 'lng': 77.5535965, 'type': 'AP', 'desc': 'It is an unfurnished property. It has cctv as well as internet/wi-fi. The project also has lift_available, rain water harvesting, power backup, indoor games, gymnasium, full power backup, car_parking ...', 'covered_area': 7013.0, 'carpet_area': 0.0, 'trans_type': 'buy', 'source': 'Makaan', 'distance': 0.17}, {'id': '14652309', 'bathrooms': 4.0, 'bedrooms': 6.0, 'price': 127900000.0, 'name': '6 BHK Property for Sale in Rajajinagar Bangalore', 'lat': 12.992033, 'lng': 77.5538559, 'type': 'AP', 'desc': 'It’s a 6 bhk multistorey apartment situated in Rajajinagar, Bangalore. It has a salable area of 8049 sqft and is available at a price of Rs. 15,890 per sqft. It is an unfurnished property. It is a rea...', 'covered_area': 8049.0, 'carpet_area': 0.0, 'trans_type': 'buy', 'source': 'Makaan', 'distance': 2.1}, {'id': '8805164', 'bathrooms': 5.0, 'bedrooms': 4.0, 'price': 123000000.0, 'name': '4 BHK Property for Sale in Sadashiva Nagar Bangalore', 'lat': 13.00947571, 'lng': 77.57874298, 'type': 'AP', 'desc': '', 'covered_area': 6200.0, 'carpet_area': 0.0, 'trans_type': 'buy', 'source': 'Makaan', 'distance': 2.61}, {'id': '15049539', 'bathrooms': 4.0, 'bedrooms': 4.0, 'price': 122224810.0, 'name': '4 BHK Property for Sale in Rajajinagar Bangalore', 'lat': 13.00999928, 'lng': 77.5535965, 'type': 'AP', 'desc': 'A 4 bhk property is available for sale in The Phoenix Mills Ltd Kessaku, Rajajinagar, Bangalore. It is an unfurnished property. It’s on 14th floor out of 30 floors building. It has cctv as well as int...', 'covered_area': 6610.0, 'carpet_area': 0.0, 'trans_type': 'buy', 'source': 'Makaan', 'distance': 0.17}, {'id': '14506866', 'bathrooms': 5.0, 'bedrooms': 4.0, 'price': 120000000.0, 'name': '4 BHK Property for Sale in Rajajinagar Bangalore', 'lat': 13.00999928, 'lng': 77.5535965, 'type': 'AP', 'desc': 'It’s a 4 bhk multistorey apartment situated in The Phoenix Mills Ltd Kessaku, Rajajinagar. It has a built-up area of 6610 sqft and is priced at Rs. 12.00 cr (negotiable). The house is unfurnished. It ...', 'covered_area': 6610.0, 'carpet_area': 0.0, 'trans_type': 'buy', 'source': 'Makaan', 'distance': 0.17}, {'id': '5303683', 'bathrooms': 6.0, 'bedrooms': 5.0, 'price': 118000000.0, 'name': '5 BHK Property for Sale in Rajajinagar Bangalore', 'lat': 13.00999928, 'lng': 77.5535965, 'type': 'AP', 'desc': 'This spacious 5 bhk multistorey apartment is available for sale and is located in The Phoenix Mills Ltd Kessaku, one of the most prestigious projects of Rajajinagar. It has a built-up area of 7818 sqf...', 'covered_area': 7818.0, 'carpet_area': 0.0, 'trans_type': 'buy', 'source': 'Makaan', 'distance': 0.17}, {'id': '9334761', 'bathrooms': 5.0, 'bedrooms': 4.0, 'price': 110000000.0, 'name': '4 BHK Property for Sale in Sadashiva Nagar Bangalore', 'lat': 13.01061344, 'lng': 77.57563782, 'type': 'AP', 'desc': '', 'covered_area': 5890.0, 'carpet_area': 0.0, 'trans_type': 'buy', 'source': 'Makaan', 'distance': 2.27}, {'id': '16129621', 'bathrooms': 6.0, 'bedrooms': 6.0, 'price': 110000000.0, 'name': '6 BHK Property for Sale in Rajajinagar Bangalore', 'lat': 13.00999928, 'lng': 77.5535965, 'type': 'AP', 'desc': 'It has a salable area of 6200 sqft and is available at a price of Rs. 17,741 per sqft. It is a semi-furnished property. It is made in way to provide a comfortable living for the residents. It is situa...', 'covered_area': 6200.0, 'carpet_area': 0.0, 'trans_type': 'buy', 'source': 'Makaan', 'distance': 0.17}, {'id': '14652281', 'bathrooms': 6.0, 'bedrooms': 5.0, 'price': 108900000.0, 'name': '5 BHK Property for Sale in Rajajinagar Bangalore', 'lat': 13.00999928, 'lng': 77.5535965, 'type': 'AP', 'desc': 'It’s a 5 bhk multistorey apartment situated in The Phoenix Mills Ltd Kessaku, Rajajinagar. The house is unfurnished. It has community_hall. Other amenities include sports_facility, club_house, lift_av...', 'covered_area': 6559.0, 'carpet_area': 0.0, 'trans_type': 'buy', 'source': 'Makaan', 'distance': 0.17}, {'id': '15831328', 'bathrooms': 3.0, 'bedrooms': 3.0, 'price': 100000000.0, 'name': '3 BHK Property for Sale in Sampangiram Nagar Bangalore', 'lat': 12.99353313, 'lng': 77.57874298, 'type': 'AP', 'desc': 'It’s a 3 bhk multistorey apartment situated in Sampangiram Nagar. It has a built-up area of 3800 sqft and is priced at Rs. 10.00 cr . This residential property is ready-to-move-in. It is made in way t...', 'covered_area': 3800.0, 'carpet_area': 0.0, 'trans_type': 'buy', 'source': 'Makaan', 'distance': 3.24}, {'id': '8a9fc3827eb93f69017eb97740931d4b', 'bathrooms': 4.0, 'bedrooms': 4.0, 'price': 97200000.0, 'name': '4+ BHK Flat  In Phoenix Kessaku For Sale  In Rajajinagar', 'lat': 13.009855119767836, 'lng': 77.55330016558933, 'type': 'AP', 'desc': '', 'covered_area': 3647.0, 'carpet_area': 2324.0, 'trans_type': 'buy', 'source': 'NoBroker', 'distance': 0.2}, {'id': 'Q7UIzle715pzpSvf+uAgZw==', 'bathrooms': 3.0, 'bedrooms': 3.0, 'price': 95000000.0, 'name': '3BHK Multistorey Apartment for Resale in Sadashiva Nagar', 'lat': 13.0061521, 'lng': 77.579929, 'type': 'AP', 'desc': '', 'covered_area': 4100.0, 'carpet_area': 0.0, 'trans_type': 'buy', 'source': 'MagicBricks', 'distance': 2.79}, {'id': 'H5pMX5JhdT5zpSvf+uAgZw==', 'bathrooms': 4.0, 'bedrooms': 4.0, 'price': 95000000.0, 'name': '4BHK Multistorey Apartment for Resale in Regal Solitaire at Sadashiva Nagar', 'lat': 13.0061521, 'lng': 77.579929, 'type': 'AP', 'desc': '', 'covered_area': 4100.0, 'carpet_area': 0.0, 'trans_type': 'buy', 'source': 'MagicBricks', 'distance': 2.79}, {'id': '15671572', 'bathrooms': 5.0, 'bedrooms': 4.0, 'price': 92500000.0, 'name': '4 BHK Property for Sale in Sadashiva Nagar Bangalore', 'lat': 13.00693893, 'lng': 77.58128357, 'type': 'AP', 'desc': 'This spacious 4 bhk multistorey apartment is available for sale and is located in Vista Spaces The 450 RMV, one of the most prestigious projects of Sadashiva Nagar. It has a built-up area of 4250 sqft...', 'covered_area': 4250.0, 'carpet_area': 0.0, 'trans_type': 'buy', 'source': 'Makaan', 'distance': 2.92}, {'id': '14599134', 'bathrooms': 4.0, 'bedrooms': 4.0, 'price': 81800000.0, 'name': '4 BHK Property for Sale in Rajajinagar Bangalore', 'lat': 13.00999928, 'lng': 77.5535965, 'type': 'AP', 'desc': 'It has a salable area of 4632 sqft and is available at a price of Rs. 17,659 per sqft. It is an unfurnished property. It is on the 30th floor of the building (total number of floors are 30). It has cl...', 'covered_area': 4632.0, 'carpet_area': 0.0, 'trans_type': 'buy', 'source': 'Makaan', 'distance': 0.17}, {'id': '8a9fbb827eb93f70017eb9755a481ba4', 'bathrooms': 4.0, 'bedrooms': 4.0, 'price': 81400000.0, 'name': '4 BHK Flat  In Phoenix Kessaku For Sale  In Rajajinagar', 'lat': 13.0098551197679, 'lng': 77.55330117141771, 'type': 'AP', 'desc': '', 'covered_area': 3147.0, 'carpet_area': 2178.0, 'trans_type': 'buy', 'source': 'NoBroker', 'distance': 0.2}, {'id': '14172345', 'bathrooms': 4.0, 'bedrooms': 4.0, 'price': 79811642.0, 'name': '4 BHK Property for Sale in Rajajinagar Bangalore', 'lat': 13.00999928, 'lng': 77.5535965, 'type': 'AP', 'desc': 'A spacious 4 bhk multistorey apartment is available for sale in The Phoenix Mills Ltd Kessaku, Rajajinagar, Bangalore. It is an unfurnished property. It is on 10th floor. The building has a total of 1...', 'covered_area': 4269.0, 'carpet_area': 0.0, 'trans_type': 'buy', 'source': 'Makaan', 'distance': 0.17}, {'id': '8a9fe5828445f5c10184463ecc273220', 'bathrooms': 4.0, 'bedrooms': 3.0, 'price': 76000000.0, 'name': '3 BHK Flat  In Brigade Gateway For Sale  In Rajaji Nagar', 'lat': 13.0115417, 'lng': 77.5576069, 'type': 'AP', 'desc': '', 'covered_area': 4000.0, 'carpet_area': 0.0, 'trans_type': 'buy', 'source': 'NoBroker', 'distance': 0.32}, {'id': '8a9f9d837af87249017af8754db70035', 'bathrooms': 4.0, 'bedrooms': 4.0, 'price': 75000000.0, 'name': '4 BHK Flat  In Phoenix  One Bangalore West For Sale  In Rajajinagar', 'lat': 13.009447773242862, 'lng': 77.55313309960137, 'type': 'AP', 'desc': '', 'covered_area': 3643.0, 'carpet_area': 3517.0, 'trans_type': 'buy', 'source': 'NoBroker', 'distance': 0.25}, {'id': '8a9f97898c71b1a1018c724431da7a53', 'bathrooms': 4.0, 'bedrooms': 4.0, 'price': 75000000.0, 'name': '4 BHK Flat  In Shanti Nilaya, Malleswaram For Sale  In Malleswaram', 'lat': 13.005679, 'lng': 77.562417, 'type': 'AP', 'desc': 'Full marble flooring, 3 BHK + 3 bathrooms as one unit and one BHk+ 1 bathroom for servant quarters', 'covered_area': 3440.0, 'carpet_area': 0.0, 'trans_type': 'buy', 'source': 'NoBroker', 'distance': 1.02}, {'id': '8a9f9a838bf9f4e1018bfb1a86c60a33', 'bathrooms': 3.0, 'bedrooms': 3.0, 'price': 75000000.0, 'name': '3 BHK Flat  In Brigade Gateway For Sale  In Rajaji Nagar', 'lat': 13.0115417, 'lng': 77.5576069, 'type': 'AP', 'desc': '', 'covered_area': 3150.0, 'carpet_area': 0.0, 'trans_type': 'buy', 'source': 'NoBroker', 'distance': 0.32}, {'id': '13450187', 'bathrooms': 0.0, 'bedrooms': 4.0, 'price': 72340892.0, 'name': '4 BHK Property for Sale in Rajajinagar Bangalore', 'lat': 13.00999928, 'lng': 77.5535965, 'type': 'AP', 'desc': 'Well designed 4 bhk multistorey apartment is available at a prime location in The Phoenix Mills Ltd Kessaku. It has a built-up area of 4269 sqft and is priced at Rs. 7.23 cr . It is an unfurnished pro...', 'covered_area': 4269.0, 'carpet_area': 0.0, 'trans_type': 'buy', 'source': 'Makaan', 'distance': 0.17}, {'id': '14543548', 'bathrooms': 4.0, 'bedrooms': 4.0, 'price': 72340892.0, 'name': '4 BHK Property for Sale in Rajajinagar Bangalore', 'lat': 13.00999928, 'lng': 77.5535965, 'type': 'AP', 'desc': 'It’s a 4 bhk multistorey apartment situated in The Phoenix Mills Ltd Kessaku, Rajajinagar. It has an area of 4269 sqft . The property is available at a price of Rs. 7.23 cr (negotiable ). It’s on 8th ...', 'covered_area': 4269.0, 'carpet_area': 0.0, 'trans_type': 'buy', 'source': 'Makaan', 'distance': 0.17}, {'id': 'ff808181600b3fcf01600c93290129fe', 'bathrooms': 3.0, 'bedrooms': 3.0, 'price': 70000000.0, 'name': '3 BHK Flat  In Parandhama Apartments For Sale  In Sadashiva Nagar', 'lat': 13.011131355557374, 'lng': 77.5786247544708, 'type': 'AP', 'desc': '', 'covered_area': 2600.0, 'carpet_area': 0.0, 'trans_type': 'buy', 'source': 'NoBroker', 'distance': 2.59}, {'id': '8a9f8009729dca680172a0f738ab2b32', 'bathrooms': 6.0, 'bedrooms': 4.0, 'price': 70000000.0, 'name': '4+ BHK Flat  In Phoenix One Bangalore West For Sale  In Rajaji Nagar', 'lat': 13.009493777713825, 'lng': 77.55308628015683, 'type': 'AP', 'desc': '', 'covered_area': 3516.0, 'carpet_area': 0.0, 'trans_type': 'buy', 'source': 'NoBroker', 'distance': 0.25}, {'id': '14715491', 'bathrooms': 4.0, 'bedrooms': 4.0, 'price': 68783804.0, 'name': '4 BHK Property for Sale in Rajajinagar Bangalore', 'lat': 13.00999928, 'lng': 77.5535965, 'type': 'AP', 'desc': 'Well designed 4 bhk multistorey apartment is available at a prime location in The Phoenix Mills Ltd Kessaku. It has a salable area of 3766 sqft and is available at a price of Rs. 18,264 per sqft. The ...', 'covered_area': 3766.0, 'carpet_area': 0.0, 'trans_type': 'buy', 'source': 'Makaan', 'distance': 0.17}, {'id': '14711398', 'bathrooms': 4.0, 'bedrooms': 4.0, 'price': 68783804.0, 'name': '4 BHK Property for Sale in Rajajinagar Bangalore', 'lat': 13.00999928, 'lng': 77.5535965, 'type': 'AP', 'desc': 'It has a built-up area of 4053 sqft and is priced at Rs. 6.88 cr . The house is unfurnished. It has 24 x 7 security as well as cafeteria. The project also has internet/wi-fi, power backup, gymnasium, ...', 'covered_area': 4053.0, 'carpet_area': 0.0, 'trans_type': 'buy', 'source': 'Makaan', 'distance': 0.17}, {'id': '16195350', 'bathrooms': 4.0, 'bedrooms': 4.0, 'price': 68300000.0, 'name': '4 BHK Property for Sale in Malleswaram Bangalore', 'lat': 13.01761913, 'lng': 77.55807495, 'type': 'AP', 'desc': 'It’s a 4 bhk multistorey apartment situated in Sattva Group Bangalore Luxuria, Malleswaram, Bangalore. It has an area of 3728 sqft . The property is available at a price of Rs. 6.83 cr . It is an unfu...', 'covered_area': 3728.0, 'carpet_area': 0.0, 'trans_type': 'buy', 'source': 'Makaan', 'distance': 0.81}, {'id': '13421238', 'bathrooms': 4.0, 'bedrooms': 4.0, 'price': 66800000.0, 'name': '4 BHK Property for Sale in Rajajinagar Bangalore', 'lat': 13.00999928, 'lng': 77.5535965, 'type': 'AP', 'desc': ""PHOENIX KESSAKU SUPER LUXURY APARTMENTS IN BANGALORE Kessaku, 'A Masterpiece' In Japanese, Offers Home-Owners A Living Experience Like No Other. We Invite You To Come & Discover Bangalore’s Most-Exclu..."", 'covered_area': 4053.0, 'carpet_area': 0.0, 'trans_type': 'buy', 'source': 'Makaan', 'distance': 0.17}, {'id': '14652269', 'bathrooms': 5.0, 'bedrooms': 4.0, 'price': 65400000.0, 'name': '4 BHK Property for Sale in Rajajinagar Bangalore', 'lat': 13.00999928, 'lng': 77.5535965, 'type': 'AP', 'desc': 'It’s a 4 bhk multistorey apartment situated in The Phoenix Mills Ltd Kessaku, Rajajinagar. It has a salable area of 4053 sqft and is available at a price of Rs. 16,136 per sqft. It is an unfurnished p...', 'covered_area': 4053.0, 'carpet_area': 0.0, 'trans_type': 'buy', 'source': 'Makaan', 'distance': 0.17}, {'id': '13968383', 'bathrooms': 4.0, 'bedrooms': 4.0, 'price': 65000000.0, 'name': '4 BHK Property for Sale in Rajajinagar Bangalore', 'lat': 12.9814024, 'lng': 77.56319427, 'type': 'AP', 'desc': ""The house is semi-furnished. It has club house as well as children's play area. The project also has gated_community, gymnasium, swimming pool, power backup, community_hall, sports facility, cctv and ..."", 'covered_area': 3500.0, 'carpet_area': 0.0, 'trans_type': 'buy', 'source': 'Makaan', 'distance': 3.4}, {'id': 'dBu9rj89pk1zpSvf+uAgZw==', 'bathrooms': 6.0, 'bedrooms': 4.0, 'price': 64500000.0, 'name': '4BHK Multistorey Apartment for Resale in Phoenix One Bangalore West at Rajajinagar', 'lat': 12.994704, 'lng': 77.5514405, 'type': 'AP', 'desc': '', 'covered_area': 3516.0, 'carpet_area': 0.0, 'trans_type': 'buy', 'source': 'MagicBricks', 'distance': 1.84}, {'id': '13930150', 'bathrooms': 4.0, 'bedrooms': 4.0, 'price': 63937590.0, 'name': '4 BHK Property for Sale in Malleswaram Bangalore', 'lat': 13.01754856, 'lng': 77.55769348, 'type': 'AP', 'desc': 'This spacious 4 bhk multistorey apartment is available for sale and is located in Salarpuria Sattva Group Salarpuria Sattva Luxuria, one of the most prestigious projects of Malleswaram. It has an area...', 'covered_area': 4214.0, 'carpet_area': 0.0, 'trans_type': 'buy', 'source': 'Makaan', 'distance': 0.79}, {'id': '8a9fb8827eb93f53017eb973e7a51bb4', 'bathrooms': 3.0, 'bedrooms': 3.0, 'price': 63900000.0, 'name': '3 BHK Flat  In Phoenix Kessaku For Sale  In Rajajinagar', 'lat': 13.009854466427734, 'lng': 77.55330016558933, 'type': 'AP', 'desc': '', 'covered_area': 2410.0, 'carpet_area': 1582.0, 'trans_type': 'buy', 'source': 'NoBroker', 'distance': 0.2}, {'id': '12313240', 'bathrooms': 4.0, 'bedrooms': 4.0, 'price': 63737590.0, 'name': '4 BHK Property for Sale in Malleswaram Bangalore', 'lat': 13.01754856, 'lng': 77.55769348, 'type': 'AP', 'desc': 'This spacious 4 bhk multistorey apartment is available for sale and is located in Salarpuria Sattva Group Salarpuria Sattva Luxuria, one of the most prestigious projects of Malleswaram. It has an area...', 'covered_area': 4214.0, 'carpet_area': 0.0, 'trans_type': 'buy', 'source': 'Makaan', 'distance': 0.79}, {'id': '5409158', 'bathrooms': 0.0, 'bedrooms': 5.0, 'price': 63720000.0, 'name': '5 BHK Property for Sale in Yeshwantpur Bangalore', 'lat': 13.02094936, 'lng': 77.55200958, 'type': 'AP', 'desc': 'It’s a 5 bhk multistorey apartment situated in Aparna Constructions Elina, Yeshwantpur. It has a salable area of 5310 sqft and is available at a price of Rs. 12,000 per sqft. It is an unfurnished prop...', 'covered_area': 5310.0, 'carpet_area': 0.0, 'trans_type': 'buy', 'source': 'Makaan', 'distance': 1.14}, {'id': '15124453', 'bathrooms': 5.0, 'bedrooms': 5.0, 'price': 63100000.0, 'name': '5 BHK Property for Sale in Rajajinagar Bangalore', 'lat': 12.98643875, 'lng': 77.56486511, 'type': 'AP', 'desc': 'A 5 bhk property is available for sale in DNR Group Highline, Rajajinagar, Bangalore. It has a built-up area of 5588 sqft and is priced at Rs. 6.31 cr . The house is semi-furnished. This residential c...', 'covered_area': 5588.0, 'carpet_area': 0.0, 'trans_type': 'buy', 'source': 'Makaan', 'distance': 2.93}, {'id': '15076523', 'bathrooms': 4.0, 'bedrooms': 4.0, 'price': 62710625.0, 'name': '4 BHK Property for Sale in Rajajinagar Bangalore', 'lat': 13.00999928, 'lng': 77.5535965, 'type': 'AP', 'desc': 'A spacious 4 bhk multistorey apartment is available for sale in The Phoenix Mills Ltd One Bangalore West, Rajajinagar, Bangalore. It has an area of 3765 sqft . The property is available at a price of ...', 'covered_area': 3765.0, 'carpet_area': 0.0, 'trans_type': 'buy', 'source': 'Makaan', 'distance': 0.17}, {'id': '5062234', 'bathrooms': 4.0, 'bedrooms': 4.0, 'price': 62510000.0, 'name': '4 BHK Property for Sale in Malleswaram Bangalore', 'lat': 13.01761913, 'lng': 77.55807495, 'type': 'AP', 'desc': 'This 4bhk apartment in Salarpuria Sattva Group Luxuria is Completed. It has 4 bathrooms and 5 balconies. It is 4465 sqft. in area. Toilets have Anti Skid Ceramic Tiles, Ceramic Tiles up to Ceiling Lev...', 'covered_area': 4465.0, 'carpet_area': 0.0, 'trans_type': 'buy', 'source': 'Makaan', 'distance': 0.81}, {'id': '5212584', 'bathrooms': 4.0, 'bedrooms': 4.0, 'price': 62325000.0, 'name': '4 BHK Property for Sale in Malleswaram Bangalore', 'lat': 13.01761913, 'lng': 77.55807495, 'type': 'AP', 'desc': 'This 4bhk apartment in Malleswaram, Bangalore is with 4 bathrooms and 5 balconies. It is present in the project Luxuria Sattva Group Bangalore which is Completed. The price of the property is INR 6.23...', 'covered_area': 4155.0, 'carpet_area': 0.0, 'trans_type': 'buy', 'source': 'Makaan', 'distance': 0.81}, {'id': '14714759', 'bathrooms': 4.0, 'bedrooms': 4.0, 'price': 62103120.0, 'name': '4 BHK Property for Sale in Rajajinagar Bangalore', 'lat': 13.00999928, 'lng': 77.5535965, 'type': 'AP', 'desc': 'It’s a 4 bhk multistorey apartment situated in The Phoenix Mills Ltd Kessaku, Rajajinagar, Bangalore. It has an area of 3715 sqft . The property is available at a price of Rs. 6.21 cr (negotiable ). I...', 'covered_area': 3715.0, 'carpet_area': 0.0, 'trans_type': 'buy', 'source': 'Makaan', 'distance': 0.17}, {'id': '14652226', 'bathrooms': 5.0, 'bedrooms': 4.0, 'price': 60900000.0, 'name': '4 BHK Property for Sale in Rajajinagar Bangalore', 'lat': 13.00999928, 'lng': 77.5535965, 'type': 'AP', 'desc': 'A 4 bhk property is available for sale in The Phoenix Mills Ltd Kessaku, Rajajinagar, Bangalore. It has an area of 3715 sqft with a carpet area of 2700 sqft . The property is available at a price of R...', 'covered_area': 3715.0, 'carpet_area': 0.0, 'trans_type': 'buy', 'source': 'Makaan', 'distance': 0.17}, {'id': '8a9fbc827cc7a4ac017cca9927fe16aa', 'bathrooms': 3.0, 'bedrooms': 4.0, 'price': 60100000.0, 'name': '4 BHK Flat  In Phoenix  One Bangalore West Tower 7 For Sale  In Rajajinagar', 'lat': 13.0094981, 'lng': 77.55309179999999, 'type': 'AP', 'desc': '', 'covered_area': 2611.0, 'carpet_area': 1853.0, 'trans_type': 'buy', 'source': 'NoBroker', 'distance': 0.25}, {'id': '5tnWjoS1P/RzpSvf+uAgZw==', 'bathrooms': 10.0, 'bedrooms': 10.0, 'price': 60000000.0, 'name': '> 10BHK Multistorey Apartment for Resale in Raghavendra Nagar at Magadi Main Road', 'lat': 12.9816938827323, 'lng': 77.5341650017169, 'type': 'AP', 'desc': '', 'covered_area': 3850.0, 'carpet_area': 0.0, 'trans_type': 'buy', 'source': 'MagicBricks', 'distance': 3.94}, {'id': '8972720', 'bathrooms': 4.0, 'bedrooms': 4.0, 'price': 60000000.0, 'name': '4 BHK Property for Sale in Rajajinagar Bangalore', 'lat': 13.00999928, 'lng': 77.5535965, 'type': 'AP', 'desc': 'It’s a 4 bhk multistorey apartment situated in The Phoenix Mills Ltd One Bangalore West, Rajajinagar. It has a salable area of 3600 sqft and is available at a price of Rs. 16,666 per sqft. It is a rea...', 'covered_area': 3600.0, 'carpet_area': 0.0, 'trans_type': 'buy', 'source': 'Makaan', 'distance': 0.17}, {'id': '+XbyUTcmattzpSvf+uAgZw==', 'bathrooms': 5.0, 'bedrooms': 4.0, 'price': 60000000.0, 'name': '4BHK Multistorey Apartment for Resale in Sadashiva Nagar', 'lat': 13.0061521, 'lng': 77.579929, 'type': 'AP', 'desc': '', 'covered_area': 5090.0, 'carpet_area': 0.0, 'trans_type': 'buy', 'source': 'MagicBricks', 'distance': 2.79}, {'id': 'plJ1snmQDBRzpSvf+uAgZw==', 'bathrooms': 5.0, 'bedrooms': 4.0, 'price': 60000000.0, 'name': '4BHK Multistorey Apartment for Resale in Sattva Luxuria at Malleshwaram', 'lat': 13.0076516, 'lng': 77.5621668, 'type': 'AP', 'desc': '', 'covered_area': 4600.0, 'carpet_area': 0.0, 'trans_type': 'buy', 'source': 'MagicBricks', 'distance': 0.89}, {'id': '15536049', 'bathrooms': 4.0, 'bedrooms': 4.0, 'price': 60000000.0, 'name': '4 BHK Property for Sale in Sadashiva Nagar Bangalore', 'lat': 13.00947571, 'lng': 77.57874298, 'type': 'AP', 'desc': 'A spacious 4 bhk penthouse is available for sale in Sadashiva Nagar, Bangalore. It has an area of 5090 sqft . The property is available at a price of Rs. 6.00 cr (negotiable ). The house is semi-furni...', 'covered_area': 5090.0, 'carpet_area': 0.0, 'trans_type': 'buy', 'source': 'Makaan', 'distance': 2.61}, {'id': '13750807', 'bathrooms': 4.0, 'bedrooms': 4.0, 'price': 60000000.0, 'name': '4 BHK Property for Sale in Rajajinagar Bangalore', 'lat': 13.00999928, 'lng': 77.5535965, 'type': 'AP', 'desc': 'It’s a 4 bhk multistorey apartment situated in The Phoenix Mills Ltd Kessaku, Rajajinagar. It has a built-up area of 3715 sqft and is priced at Rs. 6.00 cr . The house is semi-furnished. It has childr...', 'covered_area': 3715.0, 'carpet_area': 0.0, 'trans_type': 'buy', 'source': 'Makaan', 'distance': 0.17}, {'id': '15145217', 'bathrooms': 4.0, 'bedrooms': 4.0, 'price': 60000000.0, 'name': '4 BHK Property for Sale in Rajajinagar Bangalore', 'lat': 13.00999928, 'lng': 77.5535965, 'type': 'AP', 'desc': 'Well designed 4 bhk multistorey apartment is available at a prime location in The Phoenix Mills Ltd One Bangalore West. The house is unfurnished. Its main door is facing west direction. It has 4 bathr...', 'covered_area': 3516.0, 'carpet_area': 0.0, 'trans_type': 'buy', 'source': 'Makaan', 'distance': 0.17}, {'id': 'upho035qcPVzpSvf+uAgZw==', 'bathrooms': 6.0, 'bedrooms': 10.0, 'price': 60000000.0, 'name': '> 10BHK Multistorey Apartment for Resale in Majestic', 'lat': 12.9802517, 'lng': 77.573229, 'type': 'AP', 'desc': '', 'covered_area': 530.0, 'carpet_area': 0.0, 'trans_type': 'buy', 'source': 'MagicBricks', 'distance': 3.95}, {'id': '4tDtdw/OcyNzpSvf+uAgZw==', 'bathrooms': 6.0, 'bedrooms': 4.0, 'price': 59900000.0, 'name': '4BHK Multistorey Apartment for Resale in Phoenix One Bangalore West at Rajaji Nagar Block 1', 'lat': 13.001173, 'lng': 77.551158, 'type': 'AP', 'desc': '', 'covered_area': 3516.0, 'carpet_area': 0.0, 'trans_type': 'buy', 'source': 'MagicBricks', 'distance': 1.16}, {'id': '5303679', 'bathrooms': 6.0, 'bedrooms': 4.0, 'price': 59800000.0, 'name': '4 BHK Property for Sale in Rajajinagar Bangalore', 'lat': 13.00999928, 'lng': 77.5535965, 'type': 'AP', 'desc': ""PHOENIX KESSAKU SUPER LUXURY APARTMENTS IN BANGALORE Kessaku, 'A Masterpiece' In Japanese, Offers Home-Owners A Living Experience Like No Other. We Invite You To Come & Discover Bangalore’s Most-Exclu..."", 'covered_area': 6179.0, 'carpet_area': 0.0, 'trans_type': 'buy', 'source': 'Makaan', 'distance': 0.17}, {'id': '12455591', 'bathrooms': 4.0, 'bedrooms': 4.0, 'price': 59419232.0, 'name': '4 BHK Property for Sale in Rajajinagar Bangalore', 'lat': 13.00999928, 'lng': 77.5535965, 'type': 'AP', 'desc': 'It’s a 4 bhk multistorey apartment situated in The Phoenix Mills Ltd Kessaku, Rajajinagar. It is on the 22nd floor of the building (total number of floors are 30). It has power backup as well as visit...', 'covered_area': 3549.0, 'carpet_area': 0.0, 'trans_type': 'buy', 'source': 'Makaan', 'distance': 0.17}, {'id': '9204754', 'bathrooms': 3.0, 'bedrooms': 3.0, 'price': 59000000.0, 'name': '3 BHK Property for Sale in Sadashiva Nagar Bangalore', 'lat': 13.00947571, 'lng': 77.57874298, 'type': 'AP', 'desc': '', 'covered_area': 3900.0, 'carpet_area': 0.0, 'trans_type': 'buy', 'source': 'Makaan', 'distance': 2.61}, {'id': '5062233', 'bathrooms': 4.0, 'bedrooms': 4.0, 'price': 58996000.0, 'name': '4 BHK Property for Sale in Malleswaram Bangalore', 'lat': 13.01761913, 'lng': 77.55807495, 'type': 'AP', 'desc': 'Luxuria by Salarpuria Sattva Group, located in Malleswaram, Bangalore brings you a spacious 4 bedrooms apartment with 4 bathrooms and 4 balconies. Currently in Completed status, this apartment is of 4...', 'covered_area': 4214.0, 'carpet_area': 0.0, 'trans_type': 'buy', 'source': 'Makaan', 'distance': 0.81}, {'id': '12475713', 'bathrooms': 0.0, 'bedrooms': 5.0, 'price': 58800000.0, 'name': '5 BHK Property for Sale in Yeshwantpur Bangalore', 'lat': 13.02094936, 'lng': 77.55200958, 'type': 'AP', 'desc': 'It’s a 5 bhk multistorey apartment situated in Aparna Constructions Elina, Yeshwantpur. It has a built-up area of 4900 sqft and is priced at Rs. 5.88 cr . It is an unfurnished property. It has interne...', 'covered_area': 4900.0, 'carpet_area': 0.0, 'trans_type': 'buy', 'source': 'Makaan', 'distance': 1.14}, {'id': '14339160', 'bathrooms': 3.0, 'bedrooms': 4.0, 'price': 58578496.0, 'name': '4 BHK Property for Sale in Rajajinagar Bangalore', 'lat': 13.00999928, 'lng': 77.5535965, 'type': 'AP', 'desc': 'Well designed 4 bhk multistorey apartment is available at a prime location in The Phoenix Mills Ltd Kessaku. It has a built-up area of 3497 sqft and is priced at Rs. 5.86 cr . This residential propert...', 'covered_area': 3497.0, 'carpet_area': 0.0, 'trans_type': 'buy', 'source': 'Makaan', 'distance': 0.17}, {'id': '12286730', 'bathrooms': 4.0, 'bedrooms': 4.0, 'price': 58578496.0, 'name': '4 BHK Property for Sale in Rajajinagar Bangalore', 'lat': 13.00999928, 'lng': 77.5535965, 'type': 'AP', 'desc': 'It’s a 4 bhk multistorey apartment situated in The Phoenix Mills Ltd Kessaku, Rajajinagar. It has a salable area of 3497 sqft and is available at a price of Rs. 16,751 per sqft. It is an unfurnished p...', 'covered_area': 3497.0, 'carpet_area': 0.0, 'trans_type': 'buy', 'source': 'Makaan', 'distance': 0.17}, {'id': '8a9fb89d8977d703018978303c4d3e37', 'bathrooms': 13.0, 'bedrooms': 4.0, 'price': 58500000.0, 'name': '4+ BHK Flat  For Sale  In Okalipuram', 'lat': 12.982371, 'lng': 77.564913, 'type': 'AP', 'desc': '', 'covered_area': 12000.0, 'carpet_area': 0.0, 'trans_type': 'buy', 'source': 'NoBroker', 'distance': 3.36}, {'id': '0JO4jevR4zZzpSvf+uAgZw==', 'bathrooms': 4.0, 'bedrooms': 4.0, 'price': 58500000.0, 'name': '4BHK Multistorey Apartment for New Property in Malleshwaram', 'lat': 13.0076516, 'lng': 77.5621668, 'type': 'AP', 'desc': '', 'covered_area': 3700.0, 'carpet_area': 0.0, 'trans_type': 'buy', 'source': 'MagicBricks', 'distance': 0.89}, {'id': '9198610', 'bathrooms': 3.0, 'bedrooms': 3.0, 'price': 58000000.0, 'name': '3 BHK Property for Sale in Sadashiva Nagar Bangalore', 'lat': 13.00436974, 'lng': 77.57987213, 'type': 'AP', 'desc': '', 'covered_area': 3350.0, 'carpet_area': 0.0, 'trans_type': 'buy', 'source': 'Makaan', 'distance': 2.82}, {'id': '14865939', 'bathrooms': 4.0, 'bedrooms': 4.0, 'price': 57800000.0, 'name': '4 BHK Property for Sale in Rajajinagar Bangalore', 'lat': 13.00999928, 'lng': 77.5535965, 'type': 'AP', 'desc': 'It’s a 4 bhk multistorey apartment situated in The Phoenix Mills Ltd One Bangalore West, Rajajinagar. It has an area of 3608 sqft with a carpet area of 3302 sqft . The property is available at a price...', 'covered_area': 3608.0, 'carpet_area': 0.0, 'trans_type': 'buy', 'source': 'Makaan', 'distance': 0.17}, {'id': '16246959', 'bathrooms': 3.0, 'bedrooms': 4.0, 'price': 57500000.0, 'name': '4 BHK Property for Sale in Sadashiva Nagar Bangalore', 'lat': 13.00947571, 'lng': 77.57874298, 'type': 'AP', 'desc': 'A spacious 4 bhk penthouse is available for sale in Sadashiva Nagar, Bangalore. It has an area of 3500 sqft . The property is available at a price of Rs. 5.75 cr (negotiable ). It is an unfurnished pr...', 'covered_area': 3500.0, 'carpet_area': 0.0, 'trans_type': 'buy', 'source': 'Makaan', 'distance': 2.61}, {'id': '9KffF/3SKFlzpSvf+uAgZw==', 'bathrooms': 4.0, 'bedrooms': 4.0, 'price': 57500000.0, 'name': '4BHK Multistorey Apartment for New Property in Phoenix Kessaku at Rajajinagar', 'lat': 12.994704, 'lng': 77.5514405, 'type': 'AP', 'desc': '', 'covered_area': 3420.0, 'carpet_area': 0.0, 'trans_type': 'buy', 'source': 'MagicBricks', 'distance': 1.84}, {'id': '13421207', 'bathrooms': 4.0, 'bedrooms': 4.0, 'price': 57100000.0, 'name': '4 BHK Property for Sale in Rajajinagar Bangalore', 'lat': 13.00999928, 'lng': 77.5535965, 'type': 'AP', 'desc': ""PHOENIX KESSAKU SUPER LUXURY APARTMENTS IN BANGALORE Kessaku, 'A Masterpiece' In Japanese, Offers Home-Owners A Living Experience Like No Other. We Invite You To Come & Discover Bangalore’s Most-Exclu..."", 'covered_area': 3497.0, 'carpet_area': 0.0, 'trans_type': 'buy', 'source': 'Makaan', 'distance': 0.17}, {'id': '14172340', 'bathrooms': 4.0, 'bedrooms': 4.0, 'price': 56752000.0, 'name': '4 BHK Property for Sale in Rajajinagar Bangalore', 'lat': 13.00999928, 'lng': 77.5535965, 'type': 'AP', 'desc': 'It has a built-up area of 3497 sqft and is priced at Rs. 5.68 cr (negotiable). It is an unfurnished property. It’s on 11th floor out of 13 floors building. Its main door is facing north direction. Thi...', 'covered_area': 3497.0, 'carpet_area': 0.0, 'trans_type': 'buy', 'source': 'Makaan', 'distance': 0.17}, {'id': '5212583', 'bathrooms': 4.0, 'bedrooms': 4.0, 'price': 56100000.0, 'name': '4 BHK Property for Sale in Malleswaram Bangalore', 'lat': 13.01761913, 'lng': 77.55807495, 'type': 'AP', 'desc': 'This 4bhk apartment in Sattva Group Bangalore Luxuria is Completed. It has 4 bathrooms and 3 balconies. It is 3740 sqft. in area. Points have Master Bedroom, Other Bedroom, Living, Dining, Kitchen and...', 'covered_area': 3740.0, 'carpet_area': 0.0, 'trans_type': 'buy', 'source': 'Makaan', 'distance': 0.81}, {'id': 'IOZersicZCVzpSvf+uAgZw==', 'bathrooms': 3.0, 'bedrooms': 3.0, 'price': 56000000.0, 'name': '3BHK Multistorey Apartment for Resale in Bangalore Apartment Federation at Malleshwaram', 'lat': 13.0076516, 'lng': 77.5621668, 'type': 'AP', 'desc': '', 'covered_area': 2345.0, 'carpet_area': 0.0, 'trans_type': 'buy', 'source': 'MagicBricks', 'distance': 0.89}, {'id': '15216096', 'bathrooms': 4.0, 'bedrooms': 4.0, 'price': 56000000.0, 'name': '4 BHK Property for Sale in Yeshwantpur Bangalore', 'lat': 13.01350594, 'lng': 77.54923248, 'type': 'AP', 'desc': 'Beautiful 4bhk flats available in Mahalakhhhshmi Layout. In a smaller gated community, as per vaastu, well maintained apartment, ready to move in in in in project. Very close to main road and metro st...', 'covered_area': 4000.0, 'carpet_area': 0.0, 'trans_type': 'buy', 'source': 'Makaan', 'distance': 0.66}, {'id': '13743839', 'bathrooms': 4.0, 'bedrooms': 4.0, 'price': 55000000.0, 'name': '4 BHK Property for Sale in Rajajinagar Bangalore', 'lat': 12.9814024, 'lng': 77.56319427, 'type': 'AP', 'desc': 'Sobha Indraprastha is the new residential Apartment project launched in Old Mysore Road, Rajajinagar, Bangalore. The residential enclave Sobha Indraprastha features the very best in SOBHA Limited’s lu...', 'covered_area': 3301.0, 'carpet_area': 0.0, 'trans_type': 'buy', 'source': 'Makaan', 'distance': 3.4}, {'id': '16133373', 'bathrooms': 4.0, 'bedrooms': 4.0, 'price': 55000000.0, 'name': '4 BHK Property for Sale in Malleswaram Bangalore', 'lat': 13.01761913, 'lng': 77.55807495, 'type': 'AP', 'desc': ""It has a built-up area of 4155 sqft and is priced at Rs. 5.50 cr . It is a semi-furnished property. Its main door is facing east direction. It is a 8 year old ready-to-move-in property. The time you'l..."", 'covered_area': 4155.0, 'carpet_area': 0.0, 'trans_type': 'buy', 'source': 'Makaan', 'distance': 0.81}, {'id': '6423115', 'bathrooms': 4.0, 'bedrooms': 4.0, 'price': 55000000.0, 'name': '4 BHK Property for Sale in Rajajinagar Bangalore', 'lat': 12.9814024, 'lng': 77.56319427, 'type': 'AP', 'desc': 'It’s a 4 bhk multistorey apartment situated in Sobha Limited Indraprastha, Rajajinagar, Bangalore. It has an area of 3179 sqft . The property is available at a price of Rs. 5.50 cr (negotiable ). The ...', 'covered_area': 3179.0, 'carpet_area': 0.0, 'trans_type': 'buy', 'source': 'Makaan', 'distance': 3.4}, {'id': '13467371', 'bathrooms': 5.0, 'bedrooms': 4.0, 'price': 55000000.0, 'name': '4 BHK Property for Sale in Rajajinagar Bangalore', 'lat': 12.9814024, 'lng': 77.56319427, 'type': 'AP', 'desc': 'The residential enclave Sobha Indraprastha features the very best in SOBHA Limited’s luxury living segment. The project offers spacious Apartments with luxurious features. Beautiful landscapes all aro...', 'covered_area': 3381.0, 'carpet_area': 0.0, 'trans_type': 'buy', 'source': 'Makaan', 'distance': 3.4}, {'id': '8a9ffd8288149184018814a726ad0c76', 'bathrooms': 4.0, 'bedrooms': 3.0, 'price': 55000000.0, 'name': '3 BHK Flat  In One Bangalore West For Sale  In Rajaji Nagar', 'lat': 13.009463, 'lng': 77.552687, 'type': 'AP', 'desc': '', 'covered_area': 2450.0, 'carpet_area': 0.0, 'trans_type': 'buy', 'source': 'NoBroker', 'distance': 0.28}, {'id': '8a9fb1838c0e9522018c0fb50e12130d', 'bathrooms': 3.0, 'bedrooms': 3.0, 'price': 55000000.0, 'name': '3 BHK Flat  In Deshpande Apartments For Sale  In Margosa Road', 'lat': 13.00567788712896, 'lng': 77.56932262361936, 'type': 'AP', 'desc': '', 'covered_area': 2100.0, 'carpet_area': 0.0, 'trans_type': 'buy', 'source': 'NoBroker', 'distance': 1.69}, {'id': '14313323', 'bathrooms': 4.0, 'bedrooms': 4.0, 'price': 54906900.0, 'name': '4 BHK Property for Sale in Malleswaram Bangalore', 'lat': 13.01754856, 'lng': 77.55769348, 'type': 'AP', 'desc': 'It has a salable area of 3740 sqft and is available at a price of Rs. 14,680 per sqft. It is an unfurnished property. It is on the 22nd floor of the building (total number of floors are 23). It is fac...', 'covered_area': 3740.0, 'carpet_area': 0.0, 'trans_type': 'buy', 'source': 'Makaan', 'distance': 0.79}, {'id': '13930086', 'bathrooms': 3.0, 'bedrooms': 3.0, 'price': 54506900.0, 'name': '3 BHK Property for Sale in Malleswaram Bangalore', 'lat': 13.01754856, 'lng': 77.55769348, 'type': 'AP', 'desc': 'This spacious 3 bhk multistorey apartment is available for sale and is located in Salarpuria Sattva Group Salarpuria Sattva Luxuria, one of the most prestigious projects of Malleswaram. It has a salab...', 'covered_area': 3740.0, 'carpet_area': 0.0, 'trans_type': 'buy', 'source': 'Makaan', 'distance': 0.79}, {'id': 'mkpA9kCmybFzpSvf+uAgZw==', 'bathrooms': 4.0, 'bedrooms': 4.0, 'price': 54000000.0, 'name': '4BHK Multistorey Apartment for Resale in Rajajinagar', 'lat': 12.994704, 'lng': 77.5514405, 'type': 'AP', 'desc': '', 'covered_area': 3516.0, 'carpet_area': 0.0, 'trans_type': 'buy', 'source': 'MagicBricks', 'distance': 1.84}, {'id': '14599128', 'bathrooms': 3.0, 'bedrooms': 3.0, 'price': 53600000.0, 'name': '3 BHK Property for Sale in Rajajinagar Bangalore', 'lat': 13.00999928, 'lng': 77.5535965, 'type': 'AP', 'desc': 'A spacious 3 bhk multistorey apartment is available for sale in The Phoenix Mills Ltd One Bangalore West, Rajajinagar, Bangalore. It has an area of 2901 sqft . The property is available at a price of ...', 'covered_area': 2901.0, 'carpet_area': 0.0, 'trans_type': 'buy', 'source': 'Makaan', 'distance': 0.17}, {'id': '5238841', 'bathrooms': 4.0, 'bedrooms': 4.0, 'price': 52494750.0, 'name': '4 BHK Property for Sale in Yeshwantpur Bangalore', 'lat': 13.02797318, 'lng': 77.54645538, 'type': 'AP', 'desc': 'This 4bhk apartment in CNTC India The Presidential Tower is Under Construction. It has 4 bathrooms. It is 5250 sqft. in area. Toilets have Anti Skid Tiles, Glazed Tiles Dado, Concealed Plumbing and CP...', 'covered_area': 5250.0, 'carpet_area': 0.0, 'trans_type': 'buy', 'source': 'Makaan', 'distance': 2.08}, {'id': '7579505', 'bathrooms': 4.0, 'bedrooms': 4.0, 'price': 52000000.0, 'name': '4 BHK Property for Sale in Malleswaram Bangalore', 'lat': 13.01761913, 'lng': 77.55807495, 'type': 'AP', 'desc': 'Well designed 4 bhk multistorey apartment is available at a prime location in Salarpuria Sattva Group Luxuria. It has an area of 4214 sqft . The property is available at a price of Rs. 5.20 cr . It is...', 'covered_area': 4214.0, 'carpet_area': 0.0, 'trans_type': 'buy', 'source': 'Makaan', 'distance': 0.81}, {'id': '14313386', 'bathrooms': 5.0, 'bedrooms': 5.0, 'price': 52000000.0, 'name': '5 BHK Property for Sale in Yeshwantpur Bangalore', 'lat': 13.02094936, 'lng': 77.55200958, 'type': 'AP', 'desc': 'A spacious 5 bhk multistorey apartment is available for sale in Aparna Constructions Elina, Yeshwantpur, Bangalore. It has a salable area of 4900 sqft and is available at a price of Rs. 10,612 per sqf...', 'covered_area': 4900.0, 'carpet_area': 0.0, 'trans_type': 'buy', 'source': 'Makaan', 'distance': 1.14}, {'id': '6027325', 'bathrooms': 4.0, 'bedrooms': 4.0, 'price': 50000000.0, 'name': '4 BHK Property for Sale in Rajajinagar Bangalore', 'lat': 13.00999928, 'lng': 77.5535965, 'type': 'AP', 'desc': 'A 4 bhk property is available for sale in The Phoenix Mills Ltd One Bangalore West, Rajajinagar, Bangalore. It has a built-up area of 3643 sqft and is priced at Rs. 5.00 cr . It is an unfurnished prop...', 'covered_area': 3643.0, 'carpet_area': 0.0, 'trans_type': 'buy', 'source': 'Makaan', 'distance': 0.17}, {'id': '8a9f068288fa97ff0188fba94d3b11e1', 'bathrooms': 3.0, 'bedrooms': 4.0, 'price': 50000000.0, 'name': '4 BHK Flat  In Standalone Buildind For Sale  In Rajajinagar', 'lat': 13.004814766766858, 'lng': 77.55336287668649, 'type': 'AP', 'desc': '', 'covered_area': 2750.0, 'carpet_area': 0.0, 'trans_type': 'buy', 'source': 'NoBroker', 'distance': 0.7}, {'id': '8a9fa383778077f40177810b7f565ac8', 'bathrooms': 5.0, 'bedrooms': 4.0, 'price': 50000000.0, 'name': '4+ BHK Flat  In Standalone Building  For Sale  In Rajaji Nagar', 'lat': 12.993230091186597, 'lng': 77.54930025180595, 'type': 'AP', 'desc': '', 'covered_area': 3677.0, 'carpet_area': 0.0, 'trans_type': 'buy', 'source': 'NoBroker', 'distance': 2.06}, {'id': 'a/ov6QOLOAdzpSvf+uAgZw==', 'bathrooms': 4.0, 'bedrooms': 3.0, 'price': 49500000.0, 'name': '3BHK Multistorey Apartment for New Property in One Bangalore West Tower 7 at Rajajinagar', 'lat': 12.994704, 'lng': 77.5514405, 'type': 'AP', 'desc': '', 'covered_area': 2584.0, 'carpet_area': 0.0, 'trans_type': 'buy', 'source': 'MagicBricks', 'distance': 1.84}, {'id': '12475705', 'bathrooms': 0.0, 'bedrooms': 4.0, 'price': 49260000.0, 'name': '4 BHK Property for Sale in Yeshwantpur Bangalore', 'lat': 13.02094936, 'lng': 77.55200958, 'type': 'AP', 'desc': 'A spacious 4 bhk multistorey apartment is available for sale in Aparna Constructions Elina, Yeshwantpur, Bangalore. It has an area of 4105 sqft . The property is available at a price of Rs. 4.93 cr . ...', 'covered_area': 4105.0, 'carpet_area': 0.0, 'trans_type': 'buy', 'source': 'Makaan', 'distance': 1.14}, {'id': '9109163', 'bathrooms': 4.0, 'bedrooms': 4.0, 'price': 49180500.0, 'name': '4 BHK Property for Sale in Rajajinagar Bangalore', 'lat': 13.00999928, 'lng': 77.5535965, 'type': 'AP', 'desc': '', 'covered_area': 3643.0, 'carpet_area': 0.0, 'trans_type': 'buy', 'source': 'Makaan', 'distance': 0.17}, {'id': '6401223', 'bathrooms': 0.0, 'bedrooms': 4.0, 'price': 48960000.0, 'name': '4 BHK Property for Sale in Yeshwantpur Bangalore', 'lat': 13.02094936, 'lng': 77.55200958, 'type': 'AP', 'desc': 'It has car wash facility as well as billiards rooms. The project also has sewage treatment plant, internet provision, 24 x 7 security, spa, centralised gas, utility store, indoor games and multipurpos...', 'covered_area': 4080.0, 'carpet_area': 0.0, 'trans_type': 'buy', 'source': 'Makaan', 'distance': 1.14}, {'id': '12475708', 'bathrooms': 0.0, 'bedrooms': 4.0, 'price': 48120000.0, 'name': '4 BHK Property for Sale in Yeshwantpur Bangalore', 'lat': 13.02094936, 'lng': 77.55200958, 'type': 'AP', 'desc': 'This spacious 4 bhk multistorey apartment is available for sale and is located in Aparna Constructions Elina, one of the most prestigious projects of Yeshwantpur. It has a salable area of 4010 sqft an...', 'covered_area': 4010.0, 'carpet_area': 0.0, 'trans_type': 'buy', 'source': 'Makaan', 'distance': 1.14}, {'id': '8a9fac838b364377018b36d18ccb2b6c', 'bathrooms': 16.0, 'bedrooms': 4.0, 'price': 48000000.0, 'name': '4+ BHK Flat  In Sai Square For Sale  In Yeshwantpur', 'lat': 13.03263605467266, 'lng': 77.55506653677061, 'type': 'AP', 'desc': '', 'covered_area': 4800.0, 'carpet_area': 4000.0, 'trans_type': 'buy', 'source': 'NoBroker', 'distance': 2.39}, {'id': '8a9f02838ad46a48018ad542f81d6afa', 'bathrooms': 8.0, 'bedrooms': 4.0, 'price': 48000000.0, 'name': '4+ BHK Flat  For Sale  In Rajajinagar', 'lat': 12.98083747058642, 'lng': 77.56066705618339, 'type': 'AP', 'desc': '', 'covered_area': 5920.0, 'carpet_area': 0.0, 'trans_type': 'buy', 'source': 'NoBroker', 'distance': 3.4}, {'id': '10655370', 'bathrooms': 4.0, 'bedrooms': 4.0, 'price': 48000000.0, 'name': '4 BHK Property for Sale in Rajajinagar Bangalore', 'lat': 12.9814024, 'lng': 77.56319427, 'type': 'AP', 'desc': '', 'covered_area': 3300.0, 'carpet_area': 0.0, 'trans_type': 'buy', 'source': 'Makaan', 'distance': 3.4}, {'id': '10275403', 'bathrooms': 0.0, 'bedrooms': 4.0, 'price': 47695500.0, 'name': '4 BHK Property for Sale in Rajajinagar Bangalore', 'lat': 13.00999928, 'lng': 77.5535965, 'type': 'AP', 'desc': '', 'covered_area': 3533.0, 'carpet_area': 0.0, 'trans_type': 'buy', 'source': 'Makaan', 'distance': 0.17}, {'id': '5473805', 'bathrooms': 0.0, 'bedrooms': 4.0, 'price': 47601000.0, 'name': '4 BHK Property for Sale in Rajajinagar Bangalore', 'lat': 13.00999928, 'lng': 77.5535965, 'type': 'AP', 'desc': '', 'covered_area': 3526.0, 'carpet_area': 0.0, 'trans_type': 'buy', 'source': 'Makaan', 'distance': 0.17}, {'id': '15512907', 'bathrooms': 4.0, 'bedrooms': 4.0, 'price': 47000000.0, 'name': '4 BHK Property for Sale in Rajajinagar Bangalore', 'lat': 13.00999928, 'lng': 77.5535965, 'type': 'AP', 'desc': ""It has a salable area of 3765 sqft and is available at a price of Rs. 12,483 per sqft. It has cctv as well as intercom. The project also has swimming pool, power backup, club house, children's play ar..."", 'covered_area': 3765.0, 'carpet_area': 0.0, 'trans_type': 'buy', 'source': 'Makaan', 'distance': 0.17}, {'id': '15127843', 'bathrooms': 3.0, 'bedrooms': 3.0, 'price': 47000000.0, 'name': '3 BHK Property for Sale in Rajajinagar Bangalore', 'lat': 13.00999928, 'lng': 77.5535965, 'type': 'AP', 'desc': 'PHOENIX ONE BANGALORE WEST – ONE HOME, UNLIMITED ADVANTAGES Phoenix One Bangalore West is an address designed to raise the bar in premium living. Backed by the extensive real estate expertise of Phoen...', 'covered_area': 2901.0, 'carpet_area': 0.0, 'trans_type': 'buy', 'source': 'Makaan', 'distance': 0.17}, {'id': '12475706', 'bathrooms': 0.0, 'bedrooms': 4.0, 'price': 46800000.0, 'name': '4 BHK Property for Sale in Yeshwantpur Bangalore', 'lat': 13.02094936, 'lng': 77.55200958, 'type': 'AP', 'desc': 'This spacious 4 bhk multistorey apartment is available for sale and is located in Aparna Constructions Elina, one of the most prestigious projects of Yeshwantpur. It has a built-up area of 3900 sqft a...', 'covered_area': 3900.0, 'carpet_area': 0.0, 'trans_type': 'buy', 'source': 'Makaan', 'distance': 1.14}, {'id': '13469260', 'bathrooms': 4.0, 'bedrooms': 3.0, 'price': 46500000.0, 'name': '3 BHK Property for Sale in Sadashiva Nagar Bangalore', 'lat': 13.00690842, 'lng': 77.58033752, 'type': 'AP', 'desc': 'This spacious 3 bhk multistorey apartment is available for sale and is located in Hiro Tower, one of the most prestigious projects of Sadashiva Nagar. The house is unfurnished. It has 4 bathrooms and ...', 'covered_area': 3761.0, 'carpet_area': 0.0, 'trans_type': 'buy', 'source': 'Makaan', 'distance': 2.81}, {'id': '5473806', 'bathrooms': 0.0, 'bedrooms': 4.0, 'price': 46386000.0, 'name': '4 BHK Property for Sale in Rajajinagar Bangalore', 'lat': 13.00999928, 'lng': 77.5535965, 'type': 'AP', 'desc': '', 'covered_area': 3436.0, 'carpet_area': 0.0, 'trans_type': 'buy', 'source': 'Makaan', 'distance': 0.17}, {'id': '12286547', 'bathrooms': 3.0, 'bedrooms': 3.0, 'price': 46140304.0, 'name': '3 BHK Property for Sale in Rajajinagar Bangalore', 'lat': 13.00999928, 'lng': 77.5535965, 'type': 'AP', 'desc': 'It has a salable area of 2678 sqft and is available at a price of Rs. 17,229 per sqft. It is an unfurnished property. It is on the 18th floor of the building (total number of floors are 30). It has ro...', 'covered_area': 2678.0, 'carpet_area': 0.0, 'trans_type': 'buy', 'source': 'Makaan', 'distance': 0.17}, {'id': '12475711', 'bathrooms': 0.0, 'bedrooms': 4.0, 'price': 46020000.0, 'name': '4 BHK Property for Sale in Yeshwantpur Bangalore', 'lat': 13.02094936, 'lng': 77.55200958, 'type': 'AP', 'desc': 'It’s a 4 bhk multistorey apartment situated in Aparna Constructions Elina, Yeshwantpur. It has a salable area of 3835 sqft and is available at a price of Rs. 12,000 per sqft. It has club house. Other ...', 'covered_area': 3835.0, 'carpet_area': 0.0, 'trans_type': 'buy', 'source': 'Makaan', 'distance': 1.14}, {'id': '8340508', 'bathrooms': 4.0, 'bedrooms': 4.0, 'price': 46000000.0, 'name': '4 BHK Property for Sale in Rajajinagar Bangalore', 'lat': 13.00999928, 'lng': 77.5535965, 'type': 'AP', 'desc': 'This spacious 4 bhk multistorey apartment is available for sale and is located in The Phoenix Mills Ltd One Bangalore West, one of the most prestigious projects of Rajajinagar. It has an area of 3436 ...', 'covered_area': 3436.0, 'carpet_area': 0.0, 'trans_type': 'buy', 'source': 'Makaan', 'distance': 0.17}, {'id': '12475709', 'bathrooms': 0.0, 'bedrooms': 4.0, 'price': 45060000.0, 'name': '4 BHK Property for Sale in Yeshwantpur Bangalore', 'lat': 13.02094936, 'lng': 77.55200958, 'type': 'AP', 'desc': 'A 4 bhk property is available for sale in Aparna Constructions Elina, Yeshwantpur, Bangalore. It has a built-up area of 3755 sqft and is priced at Rs. 4.51 cr . The house is unfurnished. It has car pa...', 'covered_area': 3755.0, 'carpet_area': 0.0, 'trans_type': 'buy', 'source': 'Makaan', 'distance': 1.14}, {'id': '14344286', 'bathrooms': 4.0, 'bedrooms': 4.0, 'price': 45000000.0, 'name': '4 BHK Property for Sale in Yeshwantpur Bangalore', 'lat': 13.02094936, 'lng': 77.55200958, 'type': 'AP', 'desc': 'Well designed 4 bhk multistorey apartment is available at a prime location in Aparna Constructions Elina. It has an area of 4105 sqft . The property is available at a price of Rs. 4.50 cr . The house ...', 'covered_area': 4105.0, 'carpet_area': 0.0, 'trans_type': 'buy', 'source': 'Makaan', 'distance': 1.14}, {'id': '7892016', 'bathrooms': 4.0, 'bedrooms': 4.0, 'price': 45000000.0, 'name': '4 BHK Property for Sale in Malleswaram Bangalore', 'lat': 13.01761913, 'lng': 77.55807495, 'type': 'AP', 'desc': 'This spacious 4 bhk multistorey apartment is available for sale and is located in Salarpuria Sattva Group Luxuria, one of the most prestigious projects of Malleswaram. It has a salable area of 3740 sq...', 'covered_area': 3740.0, 'carpet_area': 0.0, 'trans_type': 'buy', 'source': 'Makaan', 'distance': 0.81}, {'id': '8a9ffe83891317420189164feeb90e4e', 'bathrooms': 4.0, 'bedrooms': 4.0, 'price': 45000000.0, 'name': '4 BHK Flat  In Standalone Building  For Sale  In Mathikere', 'lat': 13.027508469234558, 'lng': 77.56961753555346, 'type': 'AP', 'desc': '', 'covered_area': 4000.0, 'carpet_area': 0.0, 'trans_type': 'buy', 'source': 'NoBroker', 'distance': 2.44}, {'id': 't49XTvN7WH9zpSvf+uAgZw==', 'bathrooms': 3.0, 'bedrooms': 3.0, 'price': 45000000.0, 'name': '3BHK Multistorey Apartment for Resale in Phoenix One Bangalore West at 4th M Block Rajajinagar', 'lat': 12.98313, 'lng': 77.55799, 'type': 'AP', 'desc': '', 'covered_area': 2700.0, 'carpet_area': 0.0, 'trans_type': 'buy', 'source': 'MagicBricks', 'distance': 3.11}, {'id': 'Bxdyeo593dVzpSvf+uAgZw==', 'bathrooms': 5.0, 'bedrooms': 4.0, 'price': 45000000.0, 'name': '4BHK Multistorey Apartment for Resale in Sobha Rajvilas at Rajajinagar', 'lat': 12.994704, 'lng': 77.5514405, 'type': 'AP', 'desc': '', 'covered_area': 2848.0, 'carpet_area': 0.0, 'trans_type': 'buy', 'source': 'MagicBricks', 'distance': 1.84}, {'id': '14811442', 'bathrooms': 3.0, 'bedrooms': 3.0, 'price': 45000000.0, 'name': '3 BHK Property for Sale in Rajajinagar Bangalore', 'lat': 12.9814024, 'lng': 77.56319427, 'type': 'AP', 'desc': 'It’s a 3 bhk multistorey apartment situated in Sobha Limited Indraprastha, Rajajinagar. It has a built-up area of 2970 sqft and is priced at Rs. 4.50 cr (negotiable). The house is unfurnished. It is o...', 'covered_area': 2970.0, 'carpet_area': 0.0, 'trans_type': 'buy', 'source': 'Makaan', 'distance': 3.4}, {'id': '16142427', 'bathrooms': 4.0, 'bedrooms': 4.0, 'price': 45000000.0, 'name': '4 BHK Property for Sale in Rajajinagar Bangalore', 'lat': 12.9814024, 'lng': 77.56319427, 'type': 'AP', 'desc': 'Well designed 4 bhk multistorey apartment is available at a prime location in Sobha Limited Indraprastha. It has an area of 3381 sqft . The property is available at a price of Rs. 4.50 cr . The house ...', 'covered_area': 3381.0, 'carpet_area': 0.0, 'trans_type': 'buy', 'source': 'Makaan', 'distance': 3.4}, {'id': '13533033', 'bathrooms': 5.0, 'bedrooms': 4.0, 'price': 45000000.0, 'name': '4 BHK Property for Sale in Rajajinagar Bangalore', 'lat': 12.9814024, 'lng': 77.56319427, 'type': 'AP', 'desc': 'It’s a 4 bhk multistorey apartment situated in Sobha Limited Indraprastha, Rajajinagar, Bangalore. It has a salable area of 3995 sqft and is available at a price of Rs. 11,264 per sqft. It has shoppin...', 'covered_area': 3995.0, 'carpet_area': 0.0, 'trans_type': 'buy', 'source': 'Makaan', 'distance': 3.4}, {'id': '5091378', 'bathrooms': 3.0, 'bedrooms': 3.0, 'price': 45000000.0, 'name': '3 BHK Property for Sale in Sadashiva Nagar Bangalore', 'lat': 13.01437187, 'lng': 77.57331085, 'type': 'AP', 'desc': 'This spacious 3 bhk multistorey apartment is available for sale and is located in Narayan Capricorn, one of the most prestigious projects of Sadashiva Nagar. It has a salable area of 2600 sqft and is ...', 'covered_area': 2600.0, 'carpet_area': 0.0, 'trans_type': 'buy', 'source': 'Makaan', 'distance': 2.05}, {'id': '8a9fb8837d47376c017d47544e1c10a5', 'bathrooms': 4.0, 'bedrooms': 4.0, 'price': 44900000.0, 'name': '4 BHK Flat  In Cntc The Presidential Tower For Sale  In Yeshwanthpur', 'lat': 13.026932863271847, 'lng': 77.54557043198126, 'type': 'AP', 'desc': '', 'covered_area': 2749.0, 'carpet_area': 2070.0, 'trans_type': 'buy', 'source': 'NoBroker', 'distance': 2.02}, {'id': '13784410', 'bathrooms': 3.0, 'bedrooms': 3.0, 'price': 43360625.0, 'name': '3 BHK Property for Sale in Rajajinagar Bangalore', 'lat': 13.00999928, 'lng': 77.5535965, 'type': 'AP', 'desc': 'It has a salable area of 2565 sqft and is available at a price of Rs. 16,904 per sqft. The house is unfurnished. It is an under-construction property and is expected to get completed by 01/03/2023. It...', 'covered_area': 2565.0, 'carpet_area': 0.0, 'trans_type': 'buy', 'source': 'Makaan', 'distance': 0.17}, {'id': '5465291', 'bathrooms': 4.0, 'bedrooms': 4.0, 'price': 42900000.0, 'name': '4 BHK Property for Sale in Yeshwantpur Bangalore', 'lat': 12.992033, 'lng': 77.5538559, 'type': 'AP', 'desc': 'It’s a 4 bhk multistorey apartment situated in CNTC India The Presidential Tower, Yeshwantpur. It has a salable area of 3055 sqft and is available at a price of Rs. 14,042 per sqft. The house is unfur...', 'covered_area': 3055.0, 'carpet_area': 0.0, 'trans_type': 'buy', 'source': 'Makaan', 'distance': 2.1}, {'id': '15521620', 'bathrooms': 4.0, 'bedrooms': 5.0, 'price': 42900000.0, 'name': '5 BHK Property for Sale in Yeshwantpur Bangalore', 'lat': 13.02797318, 'lng': 77.54645538, 'type': 'AP', 'desc': 'Well designed 5 bhk multistorey apartment is available at a prime location in CNTC India The Presidential Tower. It has a built-up area of 3190 sqft and is priced at Rs. 4.29 cr . It is an unfurnished...', 'covered_area': 3190.0, 'carpet_area': 0.0, 'trans_type': 'buy', 'source': 'Makaan', 'distance': 2.08}, {'id': '8675121', 'bathrooms': 5.0, 'bedrooms': 4.0, 'price': 42700000.0, 'name': '4 BHK Property for Sale in Yeshwantpur Bangalore', 'lat': 13.02797318, 'lng': 77.54645538, 'type': 'AP', 'desc': 'It’s a 4 bhk multistorey apartment situated in CNTC India The Presidential Tower, Yeshwantpur. It has an area of 3055 sqft . The property is available at a price of Rs. 4.27 cr (negotiable ). It is an...', 'covered_area': 3055.0, 'carpet_area': 0.0, 'trans_type': 'buy', 'source': 'Makaan', 'distance': 2.08}, {'id': 'Gn78d3/DNMdzpSvf+uAgZw==', 'bathrooms': 3.0, 'bedrooms': 3.0, 'price': 42500000.0, 'name': '3BHK Multistorey Apartment for New Property in Phoenix One Bangalore West at Rajajinagar', 'lat': 12.994704, 'lng': 77.5514405, 'type': 'AP', 'desc': '', 'covered_area': 2550.0, 'carpet_area': 0.0, 'trans_type': 'buy', 'source': 'MagicBricks', 'distance': 1.84}, {'id': '14128205', 'bathrooms': 3.0, 'bedrooms': 3.0, 'price': 42500000.0, 'name': '3 BHK Property for Sale in Rajajinagar Bangalore', 'lat': 13.00999928, 'lng': 77.5535965, 'type': 'AP', 'desc': 'It’s a 3 bhk multistorey apartment situated in The Phoenix Mills Ltd One Bangalore West, Rajajinagar, Bangalore. It has a built-up area of 2400 sqft and is priced at Rs. 4.25 cr . The house is semi-fu...', 'covered_area': 2400.0, 'carpet_area': 0.0, 'trans_type': 'buy', 'source': 'Makaan', 'distance': 0.17}, {'id': '14282781', 'bathrooms': 4.0, 'bedrooms': 4.0, 'price': 42000000.0, 'name': '4 BHK Property for Sale in Yeshwantpur Bangalore', 'lat': 13.02094936, 'lng': 77.55200958, 'type': 'AP', 'desc': 'It’s a 4 bhk multistorey apartment situated in Aparna Constructions Elina, Yeshwantpur, Bangalore. It has an area of 4010 sqft . The property is available at a price of Rs. 4.20 cr . It is an unfurnis...', 'covered_area': 4010.0, 'carpet_area': 0.0, 'trans_type': 'buy', 'source': 'Makaan', 'distance': 1.14}, {'id': '13353579', 'bathrooms': 3.0, 'bedrooms': 3.0, 'price': 41983500.0, 'name': '3 BHK Property for Sale in Rajajinagar Bangalore', 'lat': 13.00999928, 'lng': 77.5535965, 'type': 'AP', 'desc': 'Located in the heart of the city at No.1, Dr.Rajkumar Road, Phoenix One Bangalore West has excellent connectivity to all major hubs of the city. Ease of accessibility to the airportWalking distance fr...', 'covered_area': 2557.0, 'carpet_area': 0.0, 'trans_type': 'buy', 'source': 'Makaan', 'distance': 0.17}, {'id': '14649113', 'bathrooms': 4.0, 'bedrooms': 3.0, 'price': 41950000.0, 'name': '3 BHK Property for Sale in Rajajinagar Bangalore', 'lat': 13.00999928, 'lng': 77.5535965, 'type': 'AP', 'desc': 'Well designed 3 bhk multistorey apartment is available at a prime location in The Phoenix Mills Ltd Kessaku. It has a salable area of 2678 sqft and is available at a price of Rs. 15,664 per sqft. The ...', 'covered_area': 2678.0, 'carpet_area': 0.0, 'trans_type': 'buy', 'source': 'Makaan', 'distance': 0.17}, {'id': '14649071', 'bathrooms': 4.0, 'bedrooms': 3.0, 'price': 41900000.0, 'name': '3 BHK Property for Sale in Rajajinagar Bangalore', 'lat': 13.00999928, 'lng': 77.5535965, 'type': 'AP', 'desc': 'This spacious 3 bhk multistorey apartment is available for sale and is located in The Phoenix Mills Ltd Kessaku, one of the most prestigious projects of Rajajinagar. The house is unfurnished. It has s...', 'covered_area': 2678.0, 'carpet_area': 0.0, 'trans_type': 'buy', 'source': 'Makaan', 'distance': 0.17}, {'id': '15603413', 'bathrooms': 3.0, 'bedrooms': 4.0, 'price': 41400000.0, 'name': '4 BHK Property for Sale in Dasarahalli on Tumkur Road Bangalore', 'lat': 13.02738571, 'lng': 77.54189301, 'type': 'AP', 'desc': 'This spacious 4 bhk multistorey apartment is available for sale and is located in Cardinal Energy And Infrastructure Cardinal One, one of the most prestigious projects of Dasarahalli on Tumkur Road. I...', 'covered_area': 3300.0, 'carpet_area': 0.0, 'trans_type': 'buy', 'source': 'Makaan', 'distance': 2.28}, {'id': 'v8Wma99AIxJzpSvf+uAgZw==', 'bathrooms': 1.0, 'bedrooms': 2.0, 'price': 41000000.0, 'name': '2BHK Builder Floor Apartment for Resale in Mahalakshmipuram Layout, Mahalakshmipuram', 'lat': 13.0166717, 'lng': 77.5353876, 'type': 'AP', 'desc': '', 'covered_area': 2300.0, 'carpet_area': 0.0, 'trans_type': 'buy', 'source': 'MagicBricks', 'distance': 2.19}, {'id': '14820734', 'bathrooms': 3.0, 'bedrooms': 3.0, 'price': 41000000.0, 'name': '3 BHK Property for Sale in Rajajinagar Bangalore', 'lat': 12.9814024, 'lng': 77.56319427, 'type': 'AP', 'desc': 'It has an area of 2875 sqft . The property is available at a price of Rs. 4.10 cr (negotiable ). It is an unfurnished property. It is on 24th floor. The building has a total of 25 floor(s). It has atm...', 'covered_area': 2875.0, 'carpet_area': 0.0, 'trans_type': 'buy', 'source': 'Makaan', 'distance': 3.4}, {'id': '8a9f02838a25520a018a2570fe2705d6', 'bathrooms': 4.0, 'bedrooms': 4.0, 'price': 41000000.0, 'name': '4 BHK Flat  In Brigade Gateway For Sale  In Rajaji Nagar', 'lat': 13.0115417, 'lng': 77.5576069, 'type': 'AP', 'desc': '', 'covered_area': 2360.0, 'carpet_area': 0.0, 'trans_type': 'buy', 'source': 'NoBroker', 'distance': 0.32}, {'id': '14345807', 'bathrooms': 4.0, 'bedrooms': 4.0, 'price': 41000000.0, 'name': '4 BHK Property for Sale in Yeshwantpur Bangalore', 'lat': 13.02094936, 'lng': 77.55200958, 'type': 'AP', 'desc': 'A spacious 4 bhk multistorey apartment is available for sale in Aparna Constructions Elina, Yeshwantpur, Bangalore. It has a built-up area of 3835 sqft and is priced at Rs. 4.10 cr . It is an unfurnis...', 'covered_area': 3835.0, 'carpet_area': 0.0, 'trans_type': 'buy', 'source': 'Makaan', 'distance': 1.14}, {'id': '2n4BxyrfqEtzpSvf+uAgZw==', 'bathrooms': 4.0, 'bedrooms': 3.0, 'price': 40600000.0, 'name': '3BHK Multistorey Apartment for New Property in Phoenix One Bangalore West at Rajajinagar', 'lat': 12.994704, 'lng': 77.5514405, 'type': 'AP', 'desc': '', 'covered_area': 2600.0, 'carpet_area': 0.0, 'trans_type': 'buy', 'source': 'MagicBricks', 'distance': 1.84}, {'id': '14865785', 'bathrooms': 3.0, 'bedrooms': 3.0, 'price': 40300000.0, 'name': '3 BHK Property for Sale in Rajajinagar Bangalore', 'lat': 13.00999928, 'lng': 77.5535965, 'type': 'AP', 'desc': 'It’s a 3 bhk multistorey apartment situated in The Phoenix Mills Ltd One Bangalore West, Rajajinagar, Bangalore. It has an area of 2771 sqft with a carpet area of 2390 sqft . The property is available...', 'covered_area': 2771.0, 'carpet_area': 0.0, 'trans_type': 'buy', 'source': 'Makaan', 'distance': 0.17}, {'id': '15653863', 'bathrooms': 0.0, 'bedrooms': 4.0, 'price': 40198036.0, 'name': '4 BHK Property for Sale in Dasarahalli on Tumkur Road Bangalore', 'lat': 13.02738571, 'lng': 77.54189301, 'type': 'AP', 'desc': 'This spacious 4 bhk multistorey apartment is available for sale and is located in Cardinal Energy And Infrastructure Cardinal One, one of the most prestigious projects of Dasarahalli on Tumkur Road. I...', 'covered_area': 3326.0, 'carpet_area': 0.0, 'trans_type': 'buy', 'source': 'Makaan', 'distance': 2.28}, {'id': '9247825', 'bathrooms': 3.0, 'bedrooms': 3.0, 'price': 40100000.0, 'name': '3 BHK Property for Sale in Rajajinagar Bangalore', 'lat': 13.00999928, 'lng': 77.5535965, 'type': 'AP', 'desc': ""It is an unfurnished property. It has lift available as well as cctv. The project also has club house, power backup, community hall, swimming pool, intercom, children's play area, gated community and ..."", 'covered_area': 2390.0, 'carpet_area': 0.0, 'trans_type': 'buy', 'source': 'Makaan', 'distance': 0.17}, {'id': '15886703', 'bathrooms': 4.0, 'bedrooms': 4.0, 'price': 40000000.0, 'name': '4 BHK Property for Sale in Dasarahalli on Tumkur Road Bangalore', 'lat': 13.02738571, 'lng': 77.54189301, 'type': 'AP', 'desc': 'A spacious 4 bhk multistorey apartment is available for sale in Cardinal Energy And Infrastructure Cardinal One, Dasarahalli on Tumkur Road, Bangalore. The house is semi-furnished. Its main door is fa...', 'covered_area': 3326.0, 'carpet_area': 0.0, 'trans_type': 'buy', 'source': 'Makaan', 'distance': 2.28}, {'id': 'fYdZLEJWChlzpSvf+uAgZw==', 'bathrooms': 3.0, 'bedrooms': 3.0, 'price': 40000000.0, 'name': '3BHK Multistorey Apartment for Resale in Sattva Luxuria at Malleshwaram', 'lat': 13.0076516, 'lng': 77.5621668, 'type': 'AP', 'desc': '', 'covered_area': 2210.0, 'carpet_area': 0.0, 'trans_type': 'buy', 'source': 'MagicBricks', 'distance': 0.89}, {'id': '14344933', 'bathrooms': 4.0, 'bedrooms': 4.0, 'price': 40000000.0, 'name': '4 BHK Property for Sale in Yeshwantpur Bangalore', 'lat': 13.02094936, 'lng': 77.55200958, 'type': 'AP', 'desc': 'Well designed 4 bhk multistorey apartment is available at a prime location in Aparna Constructions Elina. It has an area of 3755 sqft . The property is available at a price of Rs. 4.00 cr . The house ...', 'covered_area': 3755.0, 'carpet_area': 0.0, 'trans_type': 'buy', 'source': 'Makaan', 'distance': 1.14}, {'id': '8a9fe082887339c80188758c588c75af', 'bathrooms': 3.0, 'bedrooms': 3.0, 'price': 40000000.0, 'name': '3 BHK Flat  In Mantri Greens For Sale  In Malleshwaram', 'lat': 12.9927958, 'lng': 77.5699243, 'type': 'AP', 'desc': '', 'covered_area': 1750.0, 'carpet_area': 0.0, 'trans_type': 'buy', 'source': 'NoBroker', 'distance': 2.6}, {'id': '8a9fbb827cc7a4b4017cca9714fb133a', 'bathrooms': 3.0, 'bedrooms': 3.0, 'price': 39600000.0, 'name': '3 BHK Flat  In Phoenix  One Bangalore West Tower 7 For Sale  In Rajajinagar', 'lat': 13.009496610489746, 'lng': 77.55309244737099, 'type': 'AP', 'desc': '', 'covered_area': 1723.0, 'carpet_area': 1275.0, 'trans_type': 'buy', 'source': 'NoBroker', 'distance': 0.25}, {'id': '8a9f8d838a3fac66018a3fbb7ed909e6', 'bathrooms': 4.0, 'bedrooms': 4.0, 'price': 39500000.0, 'name': '4 BHK Flat  In Esteem Classic For Sale  In Mahalakshmi Layout', 'lat': 13.014760788544194, 'lng': 77.55039338574477, 'type': 'AP', 'desc': 'There is a beautiful 509 sq ft private terrace on the top floor its a very well maintained property. The location is in the heart of the city', 'covered_area': 3340.0, 'carpet_area': 0.0, 'trans_type': 'buy', 'source': 'NoBroker', 'distance': 0.63}, {'id': '8a9ff38286883b050186889ab53755d1', 'bathrooms': 2.0, 'bedrooms': 2.0, 'price': 39100000.0, 'name': '2 BHK Flat  In Phoenix One Bangalore West Tower 7 For Sale  In Rajajinagar', 'lat': 13.009496784193615, 'lng': 77.55309145969704, 'type': 'AP', 'desc': '', 'covered_area': 1701.0, 'carpet_area': 1255.0, 'trans_type': 'buy', 'source': 'NoBroker', 'distance': 0.25}, {'id': '5598858', 'bathrooms': 3.0, 'bedrooms': 3.0, 'price': 38000000.0, 'name': '3 BHK Property for Sale in Yeshwantpur Bangalore', 'lat': 13.02797318, 'lng': 77.54645538, 'type': 'AP', 'desc': 'A spacious 3 bhk multistorey apartment is available for sale in CNTC India The Presidential Tower, Yeshwantpur, Bangalore. It has an area of 2415 sqft . The property is available at a price of Rs. 3.8...', 'covered_area': 2415.0, 'carpet_area': 0.0, 'trans_type': 'buy', 'source': 'Makaan', 'distance': 2.08}, {'id': '/JaePr2NPDBzpSvf+uAgZw==', 'bathrooms': 5.0, 'bedrooms': 4.0, 'price': 37771000.0, 'name': '4BHK Multistorey Apartment for New Property in The Presidential Tower at Yeshwantpur', 'lat': 13.027758, 'lng': 77.5454695, 'type': 'AP', 'desc': '', 'covered_area': 3055.0, 'carpet_area': 0.0, 'trans_type': 'buy', 'source': 'MagicBricks', 'distance': 2.11}, {'id': 'ff8081816b6a2f60016b6a44637b1354', 'bathrooms': 10.0, 'bedrooms': 4.0, 'price': 37500000.0, 'name': '4+ BHK Flat  For Sale  In Yeshwanthpur', 'lat': 13.027770834924066, 'lng': 77.5534050753937, 'type': 'AP', 'desc': '', 'covered_area': 2700.0, 'carpet_area': 0.0, 'trans_type': 'buy', 'source': 'NoBroker', 'distance': 1.86}, {'id': '225fxgAN8VpzpSvf+uAgZw==', 'bathrooms': 4.0, 'bedrooms': 4.0, 'price': 37500000.0, 'name': '4BHK Multistorey Apartment for Resale in Prestige West Woods at Magadi Main Road', 'lat': 12.9816938827323, 'lng': 77.5341650017169, 'type': 'AP', 'desc': '', 'covered_area': 2570.0, 'carpet_area': 0.0, 'trans_type': 'buy', 'source': 'MagicBricks', 'distance': 3.94}, {'id': '5003433', 'bathrooms': 4.0, 'bedrooms': 3.0, 'price': 37125000.0, 'name': '3 BHK Property for Sale in Malleswaram Bangalore', 'lat': 13.01761913, 'lng': 77.55807495, 'type': 'AP', 'desc': 'This 3bhk apartment in Malleswaram, Bangalore is with 4 bathrooms. It is present in the project Luxuria Sattva Group Bangalore which is Completed. The price of the property is INR 3.71 Cr. Points have...', 'covered_area': 2475.0, 'carpet_area': 0.0, 'trans_type': 'buy', 'source': 'Makaan', 'distance': 0.81}, {'id': '5479802', 'bathrooms': 0.0, 'bedrooms': 4.0, 'price': 37000000.0, 'name': '4 BHK Property for Sale in Yeshwantpur Bangalore', 'lat': 13.02797318, 'lng': 77.54645538, 'type': 'AP', 'desc': 'A 4 bhk property is available for sale in CNTC India The Presidential Tower, Yeshwantpur, Bangalore. It has an area of 3055 sqft . The property is available at a price of Rs. 3.70 cr . It has staff qu...', 'covered_area': 3055.0, 'carpet_area': 0.0, 'trans_type': 'buy', 'source': 'Makaan', 'distance': 2.08}, {'id': '16164390', 'bathrooms': 5.0, 'bedrooms': 4.0, 'price': 37000000.0, 'name': '4 BHK Property for Sale in Rajajinagar Bangalore', 'lat': 12.97756386, 'lng': 77.56466675, 'type': 'AP', 'desc': 'It’s a 4 bhk multistorey apartment situated in Prestige Group West Woods, Rajajinagar, Bangalore. It has a salable area of 3981 sqft and is available at a price of Rs. 9,294 per sqft. The house is sem...', 'covered_area': 3981.0, 'carpet_area': 0.0, 'trans_type': 'buy', 'source': 'Makaan', 'distance': 3.86}, {'id': '5180317', 'bathrooms': 5.0, 'bedrooms': 4.0, 'price': 37000000.0, 'name': '4 BHK Property for Sale in Yeshwantpur Bangalore', 'lat': 13.02797318, 'lng': 77.54645538, 'type': 'AP', 'desc': 'The Presidential Tower by CNTC India, located in Yeshwantpur, Bangalore brings you a spacious 4 bedrooms apartment with 5 bathrooms and 1 balcony. Currently in Under Construction status, this apartmen...', 'covered_area': 3055.0, 'carpet_area': 0.0, 'trans_type': 'buy', 'source': 'Makaan', 'distance': 2.08}, {'id': '15653859', 'bathrooms': 0.0, 'bedrooms': 4.0, 'price': 36902460.0, 'name': '4 BHK Property for Sale in Dasarahalli on Tumkur Road Bangalore', 'lat': 13.02738571, 'lng': 77.54189301, 'type': 'AP', 'desc': 'Well designed 4 bhk multistorey apartment is available at a prime location in Cardinal Energy And Infrastructure Cardinal One. It has a salable area of 3077 sqft and is available at a price of Rs. 11,...', 'covered_area': 3077.0, 'carpet_area': 0.0, 'trans_type': 'buy', 'source': 'Makaan', 'distance': 2.28}, {'id': '8a9f0782866cfdfa01866d16951d0a38', 'bathrooms': 4.0, 'bedrooms': 4.0, 'price': 36800000.0, 'name': '4 BHK Flat  In Birla Tisya For Sale  In Rajajinagar', 'lat': 12.980228978472615, 'lng': 77.53827361214695, 'type': 'AP', 'desc': '', 'covered_area': 2504.0, 'carpet_area': 1753.0, 'trans_type': 'buy', 'source': 'NoBroker', 'distance': 3.85}, {'id': '16152385', 'bathrooms': 5.0, 'bedrooms': 4.0, 'price': 36167520.0, 'name': '4 BHK Property for Sale in Dasarahalli on Tumkur Road Bangalore', 'lat': 13.02738571, 'lng': 77.54189301, 'type': 'AP', 'desc': 'Well designed 4 bhk multistorey apartment is available at a prime location in Cardinal Energy And Infrastructure Cardinal One. It has a built-up area of 3077 sqft and is priced at Rs. 3.62 cr . It is ...', 'covered_area': 3077.0, 'carpet_area': 0.0, 'trans_type': 'buy', 'source': 'Makaan', 'distance': 2.28}, {'id': '8a9fa0888c4c59b9018c4d0e797d6555', 'bathrooms': 8.0, 'bedrooms': 4.0, 'price': 36000000.0, 'name': '4+ BHK Flat  In Standalone Building  For Sale  In Basaveshwar Nagar,', 'lat': 12.997243120350696, 'lng': 77.54652444368949, 'type': 'AP', 'desc': '', 'covered_area': 4800.0, 'carpet_area': 0.0, 'trans_type': 'buy', 'source': 'NoBroker', 'distance': 1.77}, {'id': 'j1X/yuNf1W5zpSvf+uAgZw==', 'bathrooms': 3.0, 'bedrooms': 3.0, 'price': 36000000.0, 'name': '3BHK Multistorey Apartment for Resale in Sobha Indraprastha at Rajajinagar', 'lat': 12.994704, 'lng': 77.5514405, 'type': 'AP', 'desc': '', 'covered_area': 2200.0, 'carpet_area': 0.0, 'trans_type': 'buy', 'source': 'MagicBricks', 'distance': 1.84}, {'id': '8a9fce838b21a9de018b225ef88b469e', 'bathrooms': 16.0, 'bedrooms': 4.0, 'price': 36000000.0, 'name': '4+ BHK Flat  For Sale  In Srirampura', 'lat': 12.9848394997284, 'lng': 77.56800026694297, 'type': 'AP', 'desc': '', 'covered_area': 1650.0, 'carpet_area': 0.0, 'trans_type': 'buy', 'source': 'NoBroker', 'distance': 3.23}, {'id': 'qWxloFozv+ZzpSvf+uAgZw==', 'bathrooms': 4.0, 'bedrooms': 4.0, 'price': 36000000.0, 'name': '4BHK Multistorey Apartment for Resale in Brigade Gateway at Rajajinagar', 'lat': 12.994704, 'lng': 77.5514405, 'type': 'AP', 'desc': '', 'covered_area': 2400.0, 'carpet_area': 0.0, 'trans_type': 'buy', 'source': 'MagicBricks', 'distance': 1.84}, {'id': '7504785', 'bathrooms': 3.0, 'bedrooms': 3.0, 'price': 36000000.0, 'name': '3 BHK Property for Sale in Malleswaram Bangalore', 'lat': 13.01761913, 'lng': 77.55807495, 'type': 'AP', 'desc': 'It’s a 3 bhk multistorey apartment situated in Salarpuria Sattva Group Luxuria, Malleswaram. It has a built-up area of 2215 sqft and is priced at Rs. 3.60 cr (negotiable). It is an unfurnished propert...', 'covered_area': 2215.0, 'carpet_area': 0.0, 'trans_type': 'buy', 'source': 'Makaan', 'distance': 0.81}, {'id': '8340307', 'bathrooms': 3.0, 'bedrooms': 3.0, 'price': 35113500.0, 'name': '3 BHK Property for Sale in Rajajinagar Bangalore', 'lat': 13.00999928, 'lng': 77.5535965, 'type': 'AP', 'desc': '', 'covered_area': 2601.0, 'carpet_area': 0.0, 'trans_type': 'buy', 'source': 'Makaan', 'distance': 0.17}, {'id': '5528848', 'bathrooms': 4.0, 'bedrooms': 4.0, 'price': 35000000.0, 'name': '4 BHK Property for Sale in Seshadripuram Bangalore', 'lat': 12.99256611, 'lng': 77.57068634, 'type': 'AP', 'desc': 'This spacious 4 bhk multistorey apartment is available for sale and is located in Mantri Group Greens, one of the most prestigious projects of Seshadripuram. It has a built-up area of 3145 sqft and is...', 'covered_area': 3145.0, 'carpet_area': 0.0, 'trans_type': 'buy', 'source': 'Makaan', 'distance': 2.68}, {'id': '7258148', 'bathrooms': 6.0, 'bedrooms': 4.0, 'price': 35000000.0, 'name': '4 BHK Property for Sale in Yeshwantpur Bangalore', 'lat': 13.01576328, 'lng': 77.54993439, 'type': 'AP', 'desc': 'It has a built-up area of 4465 sqft and is priced at Rs. 3.50 cr (negotiable). It is located on the 21st floor(out of a total of 22 floor(s)). It has lift available. Other amenities include 24 x 7 sec...', 'covered_area': 4465.0, 'carpet_area': 0.0, 'trans_type': 'buy', 'source': 'Makaan', 'distance': 0.74}, {'id': '8a9fa2838c0441b6018c0551426f20b1', 'bathrooms': 10.0, 'bedrooms': 4.0, 'price': 35000000.0, 'name': '4+ BHK Flat  In Standalonebuilding For Sale  In Mathikere', 'lat': 13.029767606306883, 'lng': 77.5582419300585, 'type': 'AP', 'desc': '', 'covered_area': 6000.0, 'carpet_area': 0.0, 'trans_type': 'buy', 'source': 'NoBroker', 'distance': 2.11}, {'id': '8a9fa5838c518554018c52b4f3bd5d05', 'bathrooms': 3.0, 'bedrooms': 3.0, 'price': 35000000.0, 'name': '3 BHK Flat  In Parvathi Nivas For Sale  In Seshadripuram', 'lat': 12.99269815756403, 'lng': 77.5785011085962, 'type': 'AP', 'desc': '', 'covered_area': 3000.0, 'carpet_area': 0.0, 'trans_type': 'buy', 'source': 'NoBroker', 'distance': 3.28}, {'id': '14342128', 'bathrooms': 5.0, 'bedrooms': 4.0, 'price': 35000000.0, 'name': '4 BHK Property for Sale in Yeshwantpur Bangalore', 'lat': 13.01576328, 'lng': 77.54993439, 'type': 'AP', 'desc': 'This spacious 4 bhk multistorey apartment is available for sale and is located in Assetz Property Group LUMOS, one of the most prestigious projects of Yeshwantpur. The house is unfurnished. It is on 4...', 'covered_area': 4205.0, 'carpet_area': 0.0, 'trans_type': 'buy', 'source': 'Makaan', 'distance': 0.74}, {'id': '8937813', 'bathrooms': 4.0, 'bedrooms': 4.0, 'price': 35000000.0, 'name': '4 BHK Property for Sale in Rajajinagar Bangalore', 'lat': 12.97877312, 'lng': 77.56320953, 'type': 'AP', 'desc': 'This spacious 4 bhk multistorey apartment is available for sale and is located in Sobha Limited Rajvilas, one of the most prestigious projects of Rajajinagar. It has a salable area of 2848 sqft and is...', 'covered_area': 2848.0, 'carpet_area': 0.0, 'trans_type': 'buy', 'source': 'Makaan', 'distance': 3.68}, {'id': '10713180', 'bathrooms': 3.0, 'bedrooms': 4.0, 'price': 35000000.0, 'name': '4 BHK Property for Sale in Rajajinagar Bangalore', 'lat': 12.97877312, 'lng': 77.56320953, 'type': 'AP', 'desc': '4 BHK Apartment available for sale in Sy. No. 19/3, Minerva Mill Quarters, Gopalapura, Mysore Deviation Road, Rajaji Nagar, Bangalore, Binnipete, Bengaluru.', 'covered_area': 2848.0, 'carpet_area': 0.0, 'trans_type': 'buy', 'source': 'Makaan', 'distance': 3.68}, {'id': '12287113', 'bathrooms': 3.0, 'bedrooms': 3.0, 'price': 35000000.0, 'name': '3 BHK Property for Sale in Rajajinagar Bangalore', 'lat': 13.00999928, 'lng': 77.5535965, 'type': 'AP', 'desc': 'Well designed 3 bhk multistorey apartment is available at a prime location in The Phoenix Mills Ltd One Bangalore West. It has a salable area of 2771 sqft and is available at a price of Rs. 12,630 per...', 'covered_area': 2771.0, 'carpet_area': 0.0, 'trans_type': 'buy', 'source': 'Makaan', 'distance': 0.17}, {'id': 'ff808181649c8b2f0164a18998e87584', 'bathrooms': 3.0, 'bedrooms': 2.0, 'price': 35000000.0, 'name': '2 BHK Flat  In Sobha Indraprastha For Sale  In Rajaji Nagar', 'lat': 12.98101366901706, 'lng': 77.56300181772154, 'type': 'AP', 'desc': '', 'covered_area': 1310.0, 'carpet_area': 0.0, 'trans_type': 'buy', 'source': 'NoBroker', 'distance': 3.44}, {'id': 'GlfIxIcijJBzpSvf+uAgZw==', 'bathrooms': 3.0, 'bedrooms': 4.0, 'price': 35000000.0, 'name': '4BHK Builder Floor Apartment for Resale in Kumara Park West, Kumara Park West', 'lat': 12.992356, 'lng': 77.5785865, 'type': 'AP', 'desc': '', 'covered_area': 2200.0, 'carpet_area': 0.0, 'trans_type': 'buy', 'source': 'MagicBricks', 'distance': 3.31}, {'id': '10388870', 'bathrooms': 4.0, 'bedrooms': 4.0, 'price': 35000000.0, 'name': '4 BHK Property for Sale in Rajajinagar Bangalore', 'lat': 12.992033, 'lng': 77.5538559, 'type': 'AP', 'desc': 'The residential enclave Sobha RajVilas features the very best in SOBHA Limited?s luxury living segment. The project offers spacious Apartments with luxurious features. More About This Property 4 BHK A...', 'covered_area': 2848.0, 'carpet_area': 0.0, 'trans_type': 'buy', 'source': 'Makaan', 'distance': 2.1}, {'id': '16133369', 'bathrooms': 3.0, 'bedrooms': 3.0, 'price': 35000000.0, 'name': '3 BHK Property for Sale in Malleswaram Bangalore', 'lat': 13.01761913, 'lng': 77.55807495, 'type': 'AP', 'desc': 'Well designed 3 bhk multistorey apartment is available at a prime location in Sattva Group Bangalore Luxuria. It has full power backup. Other amenities include gymnasium, lift available, cctv, full po...', 'covered_area': 2475.0, 'carpet_area': 0.0, 'trans_type': 'buy', 'source': 'Makaan', 'distance': 0.81}, {'id': '5180316', 'bathrooms': 4.0, 'bedrooms': 3.0, 'price': 35000000.0, 'name': '3 BHK Property for Sale in Yeshwantpur Bangalore', 'lat': 13.02797318, 'lng': 77.54645538, 'type': 'AP', 'desc': 'This 3bhk apartment in Yeshwantpur, Bangalore is with 4 bathrooms and 1 balcony. It is present in the project The Presidential Tower CNTC India which is Under Construction. The price of the property i...', 'covered_area': 2415.0, 'carpet_area': 0.0, 'trans_type': 'buy', 'source': 'Makaan', 'distance': 2.08}, {'id': '8a9fe782832591a3018325c044331862', 'bathrooms': 4.0, 'bedrooms': 4.0, 'price': 35000000.0, 'name': '4 BHK Flat  In Standalone Building  For Sale  In Rajajinagar', 'lat': 12.99118233655066, 'lng': 77.55378150996133, 'type': 'AP', 'desc': '3 more units available', 'covered_area': 2200.0, 'carpet_area': 1700.0, 'trans_type': 'buy', 'source': 'NoBroker', 'distance': 2.2}, {'id': '16255672', 'bathrooms': 4.0, 'bedrooms': 5.0, 'price': 35000000.0, 'name': '5 BHK Property for Sale in Magadi Bangalore', 'lat': 12.9778471, 'lng': 77.55531311, 'type': 'AP', 'desc': 'Well designed 5 bhk multistorey apartment is available at a prime location in Puravankara Limited Bluebelle. It has an area of 2900 sqft . The property is available at a price of Rs. 3.50 cr . The hou...', 'covered_area': 2900.0, 'carpet_area': 0.0, 'trans_type': 'buy', 'source': 'Makaan', 'distance': 3.67}, {'id': '5479803', 'bathrooms': 0.0, 'bedrooms': 3.0, 'price': 35000000.0, 'name': '3 BHK Property for Sale in Yeshwantpur Bangalore', 'lat': 13.02797318, 'lng': 77.54645538, 'type': 'AP', 'desc': 'It’s a 3 bhk multistorey apartment situated in CNTC India The Presidential Tower, Yeshwantpur. It has a salable area of 2415 sqft and is available at a price of Rs. 14,492 per sqft. The house is unfur...', 'covered_area': 2415.0, 'carpet_area': 0.0, 'trans_type': 'buy', 'source': 'Makaan', 'distance': 2.08}, {'id': '13744471', 'bathrooms': 3.0, 'bedrooms': 3.0, 'price': 35000000.0, 'name': '3 BHK Property for Sale in Rajajinagar Bangalore', 'lat': 12.9814024, 'lng': 77.56319427, 'type': 'AP', 'desc': 'Sobha Indraprastha is the new residential Apartment project launched in Old Mysore Road, Rajajinagar, Bangalore. The residential enclave Sobha Indraprastha features the very best in SOBHA Limited’s lu...', 'covered_area': 2313.0, 'carpet_area': 0.0, 'trans_type': 'buy', 'source': 'Makaan', 'distance': 3.4}, {'id': '6027322', 'bathrooms': 3.0, 'bedrooms': 3.0, 'price': 35000000.0, 'name': '3 BHK Property for Sale in Rajajinagar Bangalore', 'lat': 13.00999928, 'lng': 77.5535965, 'type': 'AP', 'desc': 'A spacious 3 bhk multistorey apartment is available for sale in The Phoenix Mills Ltd One Bangalore West, Rajajinagar, Bangalore. It has a salable area of 2578 sqft and is available at a price of Rs. ...', 'covered_area': 2578.0, 'carpet_area': 0.0, 'trans_type': 'buy', 'source': 'Makaan', 'distance': 0.17}, {'id': '8a9fb9837d47277d017d47310f340471', 'bathrooms': 3.0, 'bedrooms': 3.0, 'price': 34900000.0, 'name': '3 BHK Flat  In Cntc The Presidential Tower For Sale  In Yeshwanthpur', 'lat': 13.026932536624315, 'lng': 77.54557043198126, 'type': 'AP', 'desc': '', 'covered_area': 2069.0, 'carpet_area': 1614.0, 'trans_type': 'buy', 'source': 'NoBroker', 'distance': 2.02}, {'id': '8654350', 'bathrooms': 3.0, 'bedrooms': 3.0, 'price': 34803000.0, 'name': '3 BHK Property for Sale in Rajajinagar Bangalore', 'lat': 13.00999928, 'lng': 77.5535965, 'type': 'AP', 'desc': '', 'covered_area': 2578.0, 'carpet_area': 0.0, 'trans_type': 'buy', 'source': 'Makaan', 'distance': 0.17}, {'id': '5473807', 'bathrooms': 0.0, 'bedrooms': 3.0, 'price': 34519500.0, 'name': '3 BHK Property for Sale in Rajajinagar Bangalore', 'lat': 13.00999928, 'lng': 77.5535965, 'type': 'AP', 'desc': '', 'covered_area': 2557.0, 'carpet_area': 0.0, 'trans_type': 'buy', 'source': 'Makaan', 'distance': 0.17}, {'id': '8a9ffb838a2551fe018a25cdb4892905', 'bathrooms': 2.0, 'bedrooms': 3.0, 'price': 34500000.0, 'name': '3 BHK Flat  In Chandrahasa Apartment For Sale  In Sadashiva Nagar', 'lat': 13.008996813210535, 'lng': 77.58023704219804, 'type': 'AP', 'desc': '', 'covered_area': 1500.0, 'carpet_area': 1300.0, 'trans_type': 'buy', 'source': 'NoBroker', 'distance': 2.78}, {'id': '14706443', 'bathrooms': 3.0, 'bedrooms': 3.0, 'price': 34500000.0, 'name': '3 BHK Property for Sale in Rajajinagar Bangalore', 'lat': 12.9814024, 'lng': 77.56319427, 'type': 'AP', 'desc': 'This spacious 3 bhk multistorey apartment is available for sale and is located in Sobha Limited Indraprastha, one of the most prestigious projects of Rajajinagar. It has a salable area of 2280 sqft an...', 'covered_area': 2280.0, 'carpet_area': 0.0, 'trans_type': 'buy', 'source': 'Makaan', 'distance': 3.4}, {'id': '8a9f87848b658790018b65c0e44523d7', 'bathrooms': 2.0, 'bedrooms': 2.0, 'price': 34200000.0, 'name': '2 BHK Flat  In Jp Enclave Sadashivanagar For Sale  In Sadashivnagar, Armane Nagar', 'lat': 13.0068182, 'lng': 77.5812849, 'type': 'AP', 'desc': 'the property is in prime and porsh location.flooring is layed with Italian marble and good wardrobes.flat is spacious with balcony and good view', 'covered_area': 1700.0, 'carpet_area': 1500.0, 'trans_type': 'buy', 'source': 'NoBroker', 'distance': 2.92}, {'id': '15119044', 'bathrooms': 0.0, 'bedrooms': 4.0, 'price': 34119596.0, 'name': '4 BHK Property for Sale in Rajajinagar Bangalore', 'lat': 12.98643875, 'lng': 77.56486511, 'type': 'AP', 'desc': ""It is an unfurnished property. It has security cabin as well as 24x7 water supply. The project also has power backup, conference room, cctv, gymnasium, kid's pool, spa, football field and yoga/meditat..."", 'covered_area': 2890.0, 'carpet_area': 0.0, 'trans_type': 'buy', 'source': 'Makaan', 'distance': 2.93}, {'id': '6099617', 'bathrooms': 4.0, 'bedrooms': 4.0, 'price': 34000000.0, 'name': '4 BHK Property for Sale in Yeshwantpur Bangalore', 'lat': 13.01576328, 'lng': 77.54993439, 'type': 'AP', 'desc': 'This spacious 4 bhk multistorey apartment is available for sale and is located in Assetz Property Group LUMOS, one of the most prestigious projects of Yeshwantpur. It has an area of 3800 sqft . The pr...', 'covered_area': 3800.0, 'carpet_area': 0.0, 'trans_type': 'buy', 'source': 'Makaan', 'distance': 0.74}, {'id': '6027319', 'bathrooms': 3.0, 'bedrooms': 3.0, 'price': 34000000.0, 'name': '3 BHK Property for Sale in Rajajinagar Bangalore', 'lat': 13.00999928, 'lng': 77.5535965, 'type': 'AP', 'desc': 'This spacious 3 bhk multistorey apartment is available for sale and is located in The Phoenix Mills Ltd One Bangalore West, one of the most prestigious projects of Rajajinagar. It has a built-up area ...', 'covered_area': 2436.0, 'carpet_area': 0.0, 'trans_type': 'buy', 'source': 'Makaan', 'distance': 0.17}, {'id': '8674669', 'bathrooms': 4.0, 'bedrooms': 3.0, 'price': 33800000.0, 'name': '3 BHK Property for Sale in Yeshwantpur Bangalore', 'lat': 13.02797318, 'lng': 77.54645538, 'type': 'AP', 'desc': 'It’s a 3 bhk multistorey apartment situated in CNTC India The Presidential Tower, Yeshwantpur, Bangalore. It has a salable area of 2415 sqft and is available at a price of Rs. 13,995 per sqft. The hou...', 'covered_area': 2415.0, 'carpet_area': 0.0, 'trans_type': 'buy', 'source': 'Makaan', 'distance': 2.08}, {'id': '15119049', 'bathrooms': 0.0, 'bedrooms': 4.0, 'price': 33710480.0, 'name': '4 BHK Property for Sale in Rajajinagar Bangalore', 'lat': 12.98643875, 'lng': 77.56486511, 'type': 'AP', 'desc': 'Well designed 4 bhk multistorey apartment is available at a prime location in DNR Group Highline. It has a salable area of 2846 sqft and is available at a price of Rs. 11,844 per sqft. It is an unfurn...', 'covered_area': 2846.0, 'carpet_area': 0.0, 'trans_type': 'buy', 'source': 'Makaan', 'distance': 2.93}, {'id': '14599126', 'bathrooms': 2.0, 'bedrooms': 2.0, 'price': 33500000.0, 'name': '2 BHK Property for Sale in Rajajinagar Bangalore', 'lat': 13.00999928, 'lng': 77.5535965, 'type': 'AP', 'desc': 'It has an area of 1971 sqft . The property is available at a price of Rs. 3.35 cr (negotiable ). The house is unfurnished. It is on the 15th floor of the building (total number of floors are 30). It i...', 'covered_area': 1971.0, 'carpet_area': 0.0, 'trans_type': 'buy', 'source': 'Makaan', 'distance': 0.17}, {'id': '8a9fad838c47f6a2018c486991335941', 'bathrooms': 11.0, 'bedrooms': 4.0, 'price': 33500000.0, 'name': '4+ BHK Flat  In Sb For Sale  In Laggere', 'lat': 12.99986041199194, 'lng': 77.5271812453866, 'type': 'AP', 'desc': '4+ bhk house.', 'covered_area': 6500.0, 'carpet_area': 0.0, 'trans_type': 'buy', 'source': 'NoBroker', 'distance': 3.23}, {'id': '5479805', 'bathrooms': 0.0, 'bedrooms': 3.0, 'price': 33300000.0, 'name': '3 BHK Property for Sale in Yeshwantpur Bangalore', 'lat': 13.02797318, 'lng': 77.54645538, 'type': 'AP', 'desc': 'It’s a 3 bhk multistorey apartment situated in CNTC India The Presidential Tower, Yeshwantpur. The house is unfurnished. It has business suites as well as spa. The project also has solar water heating...', 'covered_area': 2310.0, 'carpet_area': 0.0, 'trans_type': 'buy', 'source': 'Makaan', 'distance': 2.08}, {'id': '5180314', 'bathrooms': 3.0, 'bedrooms': 3.0, 'price': 33300000.0, 'name': '3 BHK Property for Sale in Yeshwantpur Bangalore', 'lat': 13.02797318, 'lng': 77.54645538, 'type': 'AP', 'desc': 'The Presidential Tower by CNTC India, located in Yeshwantpur, Bangalore brings you a spacious 3 bedrooms apartment with 3 bathrooms and 1 balcony. Currently in Under Construction status, this apartmen...', 'covered_area': 2310.0, 'carpet_area': 0.0, 'trans_type': 'buy', 'source': 'Makaan', 'distance': 2.08}, {'id': '5003429', 'bathrooms': 3.0, 'bedrooms': 3.0, 'price': 33225000.0, 'name': '3 BHK Property for Sale in Malleswaram Bangalore', 'lat': 13.01761913, 'lng': 77.55807495, 'type': 'AP', 'desc': 'This 3bhk apartment in Sattva Group Bangalore Luxuria is Completed. It has 3 bathrooms and 2 balconies. It is 2215 sqft. in area. Points have Master Bedroom, Other Bedroom, Living, Dining, Kitchen and...', 'covered_area': 2215.0, 'carpet_area': 0.0, 'trans_type': 'buy', 'source': 'Makaan', 'distance': 0.81}, {'id': '8413376', 'bathrooms': 3.0, 'bedrooms': 3.0, 'price': 33223500.0, 'name': '3 BHK Property for Sale in Rajajinagar Bangalore', 'lat': 13.00999928, 'lng': 77.5535965, 'type': 'AP', 'desc': '', 'covered_area': 2461.0, 'carpet_area': 0.0, 'trans_type': 'buy', 'source': 'Makaan', 'distance': 0.17}, {'id': '14290502', 'bathrooms': 6.0, 'bedrooms': 4.0, 'price': 33000000.0, 'name': '4 BHK Property for Sale in Yeshwantpur Bangalore', 'lat': 13.01576328, 'lng': 77.54993439, 'type': 'AP', 'desc': 'A 4 bhk property is available for sale in Assetz Property Group LUMOS, Yeshwantpur, Bangalore. It has a salable area of 3841 sqft and is available at a price of Rs. 8,591 per sqft. It is an unfurnishe...', 'covered_area': 3841.0, 'carpet_area': 0.0, 'trans_type': 'buy', 'source': 'Makaan', 'distance': 0.74}, {'id': '8a9ffa82880479d30188048f1fde09fe', 'bathrooms': 4.0, 'bedrooms': 3.0, 'price': 33000000.0, 'name': '3 BHK Flat  In Sobha Rajvillas For Sale  In Rajaji Nagar', 'lat': 12.978523, 'lng': 77.563149, 'type': 'AP', 'desc': '', 'covered_area': 1982.0, 'carpet_area': 1480.0, 'trans_type': 'buy', 'source': 'NoBroker', 'distance': 3.71}, {'id': '16181511', 'bathrooms': 3.0, 'bedrooms': 3.0, 'price': 32900000.0, 'name': '3 BHK Property for Sale in Yeshwantpur Bangalore', 'lat': 13.02797318, 'lng': 77.54645538, 'type': 'AP', 'desc': 'It’s a 3 bhk multistorey apartment situated in CNTC India The Presidential Tower, Yeshwantpur, Bangalore. It is an unfurnished property. This residential complex is under-construction as of now. The e...', 'covered_area': 2310.0, 'carpet_area': 0.0, 'trans_type': 'buy', 'source': 'Makaan', 'distance': 2.08}, {'id': '6274061', 'bathrooms': 3.0, 'bedrooms': 3.0, 'price': 32900000.0, 'name': '3 BHK Property for Sale in Yeshwantpur Bangalore', 'lat': 13.02797318, 'lng': 77.54645538, 'type': 'AP', 'desc': 'It has a salable area of 2335 sqft and is available at a price of Rs. 14,089 per sqft. It has power backup. Other amenities include gated community, club house, cctv, intercom, gymnasium, lift availab...', 'covered_area': 2335.0, 'carpet_area': 0.0, 'trans_type': 'buy', 'source': 'Makaan', 'distance': 2.08}, {'id': '5465448', 'bathrooms': 3.0, 'bedrooms': 3.0, 'price': 32900000.0, 'name': '3 BHK Property for Sale in Yeshwantpur Bangalore', 'lat': 12.992033, 'lng': 77.5538559, 'type': 'AP', 'desc': 'A 3 bhk property is available for sale in CNTC India The Presidential Tower, Yeshwantpur, Bangalore. It has a built-up area of 2310 sqft and is priced at Rs. 3.29 cr . It is an under-construction prop...', 'covered_area': 2310.0, 'carpet_area': 0.0, 'trans_type': 'buy', 'source': 'Makaan', 'distance': 2.1}, {'id': '8543675', 'bathrooms': 3.0, 'bedrooms': 3.0, 'price': 32886000.0, 'name': '3 BHK Property for Sale in Rajajinagar Bangalore', 'lat': 13.00999928, 'lng': 77.5535965, 'type': 'AP', 'desc': '', 'covered_area': 2436.0, 'carpet_area': 0.0, 'trans_type': 'buy', 'source': 'Makaan', 'distance': 0.17}, {'id': '8a9fa6838badff6c018baeb75a5b244e', 'bathrooms': 3.0, 'bedrooms': 3.0, 'price': 32800000.0, 'name': '3 BHK Flat  In Brigade Gateway For Sale  In Rajaji Nagar, Yeshwanthpur', 'lat': 13.0115417, 'lng': 77.5576069, 'type': 'AP', 'desc': '', 'covered_area': 1640.0, 'carpet_area': 1580.0, 'trans_type': 'buy', 'source': 'NoBroker', 'distance': 0.32}, {'id': '13626088', 'bathrooms': 2.0, 'bedrooms': 3.0, 'price': 32800000.0, 'name': '3 BHK Property for Sale in Rajajinagar Bangalore', 'lat': 12.97877312, 'lng': 77.56320953, 'type': 'AP', 'desc': 'It has a built-up area of 2001 sqft and is priced at Rs. 3.28 cr . It is an unfurnished property. This residential property is ready-to-move-in. It is made in way to provide a comfortable living for t...', 'covered_area': 2001.0, 'carpet_area': 0.0, 'trans_type': 'buy', 'source': 'Makaan', 'distance': 3.68}, {'id': '8654728', 'bathrooms': 3.0, 'bedrooms': 3.0, 'price': 32602500.0, 'name': '3 BHK Property for Sale in Rajajinagar Bangalore', 'lat': 13.00999928, 'lng': 77.5535965, 'type': 'AP', 'desc': '', 'covered_area': 2415.0, 'carpet_area': 0.0, 'trans_type': 'buy', 'source': 'Makaan', 'distance': 0.17}, {'id': '5473808', 'bathrooms': 0.0, 'bedrooms': 3.0, 'price': 32521500.0, 'name': '3 BHK Property for Sale in Rajajinagar Bangalore', 'lat': 13.00999928, 'lng': 77.5535965, 'type': 'AP', 'desc': '', 'covered_area': 2409.0, 'carpet_area': 0.0, 'trans_type': 'buy', 'source': 'Makaan', 'distance': 0.17}, {'id': '16130854', 'bathrooms': 3.0, 'bedrooms': 3.0, 'price': 32500000.0, 'name': '3 BHK Property for Sale in Sadashiva Nagar Bangalore', 'lat': 13.01259613, 'lng': 77.57798004, 'type': 'AP', 'desc': 'Residential apartment for saleing .Located on 1st floor out of the 4 located in sadashiva nagar. It is a semi-Furnished property. The property has 3 bedrooms with 3 bathrooms, 2 balconies, 1 utility d...', 'covered_area': 1704.0, 'carpet_area': 0.0, 'trans_type': 'buy', 'source': 'Makaan', 'distance': 2.53}, {'id': '12304280', 'bathrooms': 4.0, 'bedrooms': 3.0, 'price': 32500000.0, 'name': '3 BHK Property for Sale in Malleswaram Bangalore', 'lat': 13.01761913, 'lng': 77.55807495, 'type': 'AP', 'desc': 'It’s a 3 bhk multistorey apartment situated in Salarpuria Sattva Group Luxuria, Malleswaram. It has an area of 2475 sqft . The property is available at a price of Rs. 3.25 cr . The house is furnished....', 'covered_area': 2475.0, 'carpet_area': 0.0, 'trans_type': 'buy', 'source': 'Makaan', 'distance': 0.81}, {'id': '8a9f058388e8441f0188ebf4daab26b3', 'bathrooms': 14.0, 'bedrooms': 4.0, 'price': 32500000.0, 'name': '4+ BHK Flat  In Thimmarayaswamy Nilaya For Sale  In Basaweshwara Nagar', 'lat': 13.00462748193945, 'lng': 77.53543270537699, 'type': 'AP', 'desc': '', 'covered_area': 6400.0, 'carpet_area': 0.0, 'trans_type': 'buy', 'source': 'NoBroker', 'distance': 2.21}, {'id': '8a9faa838bcce55c018bcd4583df5491', 'bathrooms': 10.0, 'bedrooms': 4.0, 'price': 32500000.0, 'name': '4+ BHK Flat  For Sale  In Binnipete', 'lat': 12.97547639096394, 'lng': 77.56254801860554, 'type': 'AP', 'desc': '', 'covered_area': 7200.0, 'carpet_area': 0.0, 'trans_type': 'buy', 'source': 'NoBroker', 'distance': 4.02}, {'id': 'zYZaIT4Z5FxzpSvf+uAgZw==', 'bathrooms': 3.0, 'bedrooms': 3.0, 'price': 32500000.0, 'name': '3BHK Multistorey Apartment for Resale in Sobha Indraprastha at Rajajinagar', 'lat': 12.994704, 'lng': 77.5514405, 'type': 'AP', 'desc': '', 'covered_area': 2023.0, 'carpet_area': 0.0, 'trans_type': 'buy', 'source': 'MagicBricks', 'distance': 1.84}, {'id': '16217743', 'bathrooms': 4.0, 'bedrooms': 3.0, 'price': 32500000.0, 'name': '3 BHK Property for Sale in Rajajinagar Bangalore', 'lat': 13.00824356, 'lng': 77.55290222, 'type': 'AP', 'desc': ""It has a salable area of 2000 sqft and is available at a price of Rs. 16,250 per sqft. Its main door is facing east direction. It is an under-construction property . The time you'll spend here will be..."", 'covered_area': 2000.0, 'carpet_area': 0.0, 'trans_type': 'buy', 'source': 'Makaan', 'distance': 0.37}, {'id': '15603418', 'bathrooms': 3.0, 'bedrooms': 3.0, 'price': 32500000.0, 'name': '3 BHK Property for Sale in Dasarahalli on Tumkur Road Bangalore', 'lat': 13.02738571, 'lng': 77.54189301, 'type': 'AP', 'desc': ""It has a salable area of 2400 sqft and is available at a price of Rs. 13,541 per sqft. It is an unfurnished property. It has swimming pool as well as gymnasium. The project also has children's play ar..."", 'covered_area': 2400.0, 'carpet_area': 0.0, 'trans_type': 'buy', 'source': 'Makaan', 'distance': 2.28}, {'id': '15716207', 'bathrooms': 3.0, 'bedrooms': 3.0, 'price': 32500000.0, 'name': '3 BHK Property for Sale in Rajajinagar Bangalore', 'lat': 12.992033, 'lng': 77.5538559, 'type': 'AP', 'desc': 'It’s a 3 bhk multistorey apartment situated in Sobha Limited Rajvilas, Rajajinagar, Bangalore. It has a built-up area of 2171 sqft and is priced at Rs. 3.25 cr . The house is unfurnished. It is facing...', 'covered_area': 2171.0, 'carpet_area': 0.0, 'trans_type': 'buy', 'source': 'Makaan', 'distance': 2.1}, {'id': '12313236', 'bathrooms': 3.0, 'bedrooms': 3.0, 'price': 32474775.0, 'name': '3 BHK Property for Sale in Malleswaram Bangalore', 'lat': 13.01754856, 'lng': 77.55769348, 'type': 'AP', 'desc': 'It has a built-up area of 2215 sqft and is priced at Rs. 3.25 cr (negotiable). It is facing east direction. The property is available on freehold. It is made in way to provide a comfortable living. Co...', 'covered_area': 2215.0, 'carpet_area': 0.0, 'trans_type': 'buy', 'source': 'Makaan', 'distance': 0.79}, {'id': '13929908', 'bathrooms': 3.0, 'bedrooms': 3.0, 'price': 32324775.0, 'name': '3 BHK Property for Sale in Malleswaram Bangalore', 'lat': 13.01754856, 'lng': 77.55769348, 'type': 'AP', 'desc': 'It’s a 3 bhk multistorey apartment situated in Salarpuria Sattva Group Salarpuria Sattva Luxuria, Malleswaram, Bangalore. It has an area of 2215 sqft . The property is available at a price of Rs. 3.23...', 'covered_area': 2215.0, 'carpet_area': 0.0, 'trans_type': 'buy', 'source': 'Makaan', 'distance': 0.79}, {'id': '5473809', 'bathrooms': 0.0, 'bedrooms': 3.0, 'price': 32278500.0, 'name': '3 BHK Property for Sale in Rajajinagar Bangalore', 'lat': 13.00999928, 'lng': 77.5535965, 'type': 'AP', 'desc': '', 'covered_area': 2391.0, 'carpet_area': 0.0, 'trans_type': 'buy', 'source': 'Makaan', 'distance': 0.17}, {'id': '5473810', 'bathrooms': 0.0, 'bedrooms': 3.0, 'price': 32211000.0, 'name': '3 BHK Property for Sale in Rajajinagar Bangalore', 'lat': 13.00999928, 'lng': 77.5535965, 'type': 'AP', 'desc': '', 'covered_area': 2386.0, 'carpet_area': 0.0, 'trans_type': 'buy', 'source': 'Makaan', 'distance': 0.17}, {'id': '15139347', 'bathrooms': 2.0, 'bedrooms': 2.0, 'price': 32195425.0, 'name': '2 BHK Property for Sale in Rajajinagar Bangalore', 'lat': 13.00999928, 'lng': 77.5535965, 'type': 'AP', 'desc': 'PHOENIX ONE BANGALORE WEST – ONE HOME, UNLIMITED ADVANTAGES Phoenix One Bangalore West is an address designed to raise the bar in premium living. Backed by the extensive real estate expertise of Phoen...', 'covered_area': 1971.0, 'carpet_area': 0.0, 'trans_type': 'buy', 'source': 'Makaan', 'distance': 0.17}, {'id': '8a9f91597411cb73017411cd0ddb002a', 'bathrooms': 12.0, 'bedrooms': 4.0, 'price': 32000000.0, 'name': '4+ BHK Flat  For Sale  In Guttahalli', 'lat': 12.998905331555932, 'lng': 77.58032561226844, 'type': 'AP', 'desc': 'total 9BHK building, g-3BHK , F- 2BHK 2portions , 1BHK 2portions, 2nd floor - 2 2BHK , 1 BHK, terrace 1RK,', 'covered_area': 4800.0, 'carpet_area': 0.0, 'trans_type': 'buy', 'source': 'NoBroker', 'distance': 3.08}, {'id': '8a9ff0898b1765e4018b17721f420149', 'bathrooms': 2.0, 'bedrooms': 2.0, 'price': 32000000.0, 'name': '2 BHK Flat  In Nanjundeshwara  For Sale  In Vijayanagar', 'lat': 12.973001353321427, 'lng': 77.55273465067145, 'type': 'AP', 'desc': 'Size = 30*40\n\nFacing= north\n\nLift available \n\nGround 2bhk common washroom\n\n1st floor , 2nd floor , 3rd floor\n\n2bhk wit atch bathroom \nAnd comman \n\nTerrace 1 bhk common bath room \n\n5 saprate solar\nCorporation Water facility \nBorewell water', 'covered_area': 1200.0, 'carpet_area': 0.0, 'trans_type': 'buy', 'source': 'NoBroker', 'distance': 4.21}, {'id': '8a9fb0838b7e5c67018b7f364ae16043', 'bathrooms': 3.0, 'bedrooms': 3.0, 'price': 32000000.0, 'name': '3 BHK Flat  In Tiruved Nivas For Sale  In Malleswaram', 'lat': 13.0016153, 'lng': 77.563732, 'type': 'AP', 'desc': '', 'covered_area': 2000.0, 'carpet_area': 1850.0, 'trans_type': 'buy', 'source': 'NoBroker', 'distance': 1.43},