id,name,lat,lng,source,category,number_of_votes,reviews_per_day
ChIJ441Kr5I9rjsRm-EYn-cfOhE,Narayana Nethralaya Eye Hospital,13.011795997619627,77.55216979980469,gmaps_v2,hospital,53561,199.74440563605947
ChIJB8kXjms9rjsRQ9CZSbMQbVw,SPARSH Hospital Yeshwanthpur,13.027713775634766,77.54293060302734,gmaps_v2,clinic,5928,39.19941772494851
ChIJbeV3d9wXrjsR0MkusbZE-zs,Ramaiah Memorial Hospital,13.028156280517578,77.56987762451172,gmaps_v2,clinic,3924,23.46798491524986
ChIJ42Ok9N0XrjsRyGYL-4uYWkE,Apollo Hospital Seshadripuram,12.98834228515625,77.57242584228516,gmaps_v2,hospital,10850,12.809262721334315
ChIJAybMf-c9rjsRLRe6EnWeteM,Specsmakers - Vijaya Nagar,12.972765922546388,77.5389404296875,gmaps_v2,clinic,382,12.331788970258556
ChIJGVbRMvU9rjsRVb_fBxndm0A,Suguna Hospital,12.988144874572754,77.5600357055664,gmaps_v2,hospital,6404,8.586285570419058
ChIJU7wA9V09rjsRCYraMBhjYAw,Sun Orthopaedic Hospital | Shoulder & Knee | Mathikere | Bengaluru,13.033313751220703,77.55493927001953,gmaps_v2,clinic,473,7.827543963280232
ChIJDXECiyUWrjsRcC93I6N3f6Y,"Lenskart.com at Margosa Road, Malleshwaram",12.999958992004396,77.56938934326172,gmaps_v2,clinic,952,4.233756991444911
ChIJszr2p-4XrjsRx2R5eI5StRY,Lenskart.com at New Bel Road,13.027755737304688,77.57169342041016,gmaps_v2,clinic,1079,3.884216470771756
ChIJHZok4tc9rjsRYVjWBCjdKs4,AARTHI SCANS & LABS | RAJAJINAGAR | DIAGNOSTIC CENTER,12.981183052062988,77.54934692382812,gmaps_v2,clinic,3567,3.806853680064911
ChIJxXRUeSoWrjsRrdDPQZ3sk_I,Cloudnine Hospital - Malleshwaram,13.007858276367188,77.56254577636719,gmaps_v2,clinic,5526,3.222048993370519
ChIJp-kMh749rjsRUqGj74e8vdM,Divisha Arthritis and Medical Center,12.9921875,77.53607177734375,gmaps_v2,clinic,1647,3.019143980957647
ChIJPbt9NHsXrjsRd9nqAe0ubzo,Doorstep Delivery Forex(currency exchange) Services.,13.030190467834473,77.5705337524414,gmaps_v2,hospital,794,2.9202112600123984
ChIJNSOSoXg9rjsRyqe-j79Znp0,"Lenskart.com at Orion Mall, Malleshwaram West",13.011481285095217,77.55513000488281,gmaps_v2,clinic,728,2.9139877173623896
ChIJlzh0J-I9rjsRldDpJqpk71A,Dr Agarwals Eye Hospital,13.000006675720217,77.54986572265625,gmaps_v2,hospital,3138,2.8548695062469225
ChIJSQLkRXc-rjsRF9E3nqtTlOE,CUTIS HOSPITAL - SKIN HAIR NAIL : Best Dermatology Hospital in Bangalore,12.976850509643556,77.54495239257812,gmaps_v2,clinic,5454,2.69069234559257
ChIJe58LMms9rjsRhiea4GHK0ls,People Tree Hospitals,13.02879524230957,77.53946685791016,gmaps_v2,hospital,2973,2.1477928176011862
ChIJY3xQT2I9rjsRLN8EO-oy25E,Lenskart.com at Mathikere,13.031824111938477,77.55952453613281,gmaps_v2,clinic,488,2.1324590510174866
ChIJlRXHDNsXrjsR3hNgTs_bZ-Q,Clinikk Health Hub Malleshwaram,13.000432968139648,77.5633773803711,gmaps_v2,clinic,184,2.0012797535461044
ChIJIexasio9rjsRSwoP0A4Qtn0,IVF Access Rajajinagar,12.9911527633667,77.55762481689453,gmaps_v2,clinic,1054,1.9192099798514315
ChIJmWMZe2I9rjsRuw0CDecj1hs,"Lenskart.com at Basaveshwanagar, Bangaluru",12.99596118927002,77.53997039794922,gmaps_v2,clinic,328,1.83042630307716
ChIJp7_699c8rjsRs7WodvzpQMc,People Tree Hospitals @ Dasarahalli,13.042570114135742,77.51557159423828,gmaps_v2,hospital,1880,1.8195264179313684
ChIJQyABNcIXrjsR7Ny0fCoIaxE,Apollo hospital parking,12.988245010375977,77.572509765625,gmaps_v2,hospital,26,1.7427273869795052
ChIJiR-5XXg9rjsRcPKp8tB-aY0,NU Hospitals (West),13.012133598327637,77.55274963378906,gmaps_v2,hospital,3624,1.691733820341328
ChIJc8-KGQkXrjsRA6s3FO1BOtM,Titan Eye+ Lulu Mall,12.981345176696776,77.5637435913086,gmaps_v2,clinic,716,1.6231663077962275
ChIJQU4P2DAWrjsRtMa1nkN_23g,Kolors Healthcare Sadashiv Nagar,13.003170013427734,77.57836151123047,gmaps_v2,clinic,2456,1.2877012738690006
ChIJ37o1kpA9rjsRvOJ70RMQMvw,"Lenskart.com at Dr Modi Hospital Road Rajajinagar, Bengaluru",12.997482299804688,77.54742431640625,gmaps_v2,clinic,482,1.2855678304283282
ChIJr9oPCmbFrzsR9SX1DIpcJqU,Specsmakers - Mathikere,13.029815673828123,77.5609130859375,gmaps_v2,clinic,1136,1.224181261803822
ChIJxytoD7U9rjsRTbKpinu3EAQ,"Fortis Hospital Rajajinagar, Bangalore",13.002140045166016,77.54910278320312,gmaps_v2,hospital,2349,1.217160861294167
ChIJ5b7pxwMWrjsRvAoPkDynRBE,ETA Star The Gardens Apartment,12.972614288330078,77.565185546875,gmaps_v2,hospital,3210,1.1809353540767324
ChIJD-Y_f4E9rjsRZalDy9FBjRQ,Dr Bhat's Homeopathy,13.008177757263184,77.5561294555664,gmaps_v2,clinic,148,1.1054430222496865
ChIJQQEJjDA9rjsRRXe6rRoCm5U,VIVIDUS HOSPITALS,13.029417037963867,77.56082153320312,gmaps_v2,clinic,405,1.0949263811265633
ChIJreOiuoYXrjsRjZ-EGQHZW5Y,Dr. Karthik Aditya - Best Plastic Surgeon | Gynecomastia | Lipoma | Cyst Removal | Liposuction Expert in Bangalore,13.000248908996582,77.55148315429688,gmaps_v2,clinic,104,1.082902621558097
ChIJVWrPQe4XrjsR0LZOJ1USwCE,Dr. Kiran Chouka | Best Orthopaedic Surgeon in Yeshwanthpur | Manipal Hospital Yeshwanthpur,12.991634368896484,77.55730438232422,gmaps_v2,hospital,203,1.0640666502539742
ChIJFQC0ox8XrjsRwhCAV3Ua8AE,Dr. Sajeet Nayar - Laparoscopic Surgeon | Piles | Fissure | Fistula | Circumcision | Hernia | Hydrocele | Gall Stone,13.003808975219728,77.56809997558594,gmaps_v2,clinic,102,1.0424098820759626
ChIJ0wdbQwIXrjsRceZCFW8B0JE,"Lenskart.com at Sampige Road, Malleshwaram",13.001277923583984,77.57129669189453,gmaps_v2,clinic,681,1.0285308655752616
ChIJe9e99twXrjsRdhpGXVcI8YI,Titan Eye+ at BEL Road,13.029966354370115,77.5708236694336,gmaps_v2,clinic,2049,0.9715059845840068
ChIJ7cDG5DMWrjsRuQIpeKWLc4Q,Medall Clumax Diagnostics,13.0057954788208,77.57835388183594,gmaps_v2,clinic,909,0.9669210913984422
ChIJcbQeVfM9rjsRNF9nJX8x5jk,KANVA DIAGNOSTIC SERVICES PVT. LTD,12.98689079284668,77.56029510498047,gmaps_v2,clinic,2023,0.9498290663403494
ChIJlegbUjsWrjsRj4WbzMYOmcM,Dr.Solanki Eye Hospital,12.995132446289062,77.57383728027344,gmaps_v2,hospital,594,0.9433735788856488
ChIJBTH794s9rjsRXvSYsEkHnFs,"Nethradhama Super Speciality Eye Hospital, Rajaji Nagar",12.99757957458496,77.55093383789062,gmaps_v2,hospital,757,0.910711182601179
ChIJAV2hTuY9rjsRBadjPG3hzxU,Kangaroo Care - Women and Children Hospital in West Bangalore,12.974213600158691,77.54229736328125,gmaps_v2,clinic,1764,0.8963395656767326
ChIJB1uA5S8WrjsRsgIDumddqC0,RV Metropolis Diagnostic & Healthcare Center Pvt Ltd,13.00570297241211,77.56802368164062,gmaps_v2,clinic,894,0.8916424931202156
ChIJoTzZ8HU9rjsRLx3tyDKHooM,Sanjeevini Multi Speciality Hospital,13.011701583862305,77.54390716552734,gmaps_v2,hospital,1858,0.8649883819075397
ChIJkRpDzoI9rjsRxOMETabtF-A,SkinSerene Clinic,12.986992835998535,77.5421371459961,gmaps_v2,clinic,73,0.8317527191991901
ChIJoUy3PHcXrjsRZpd8NdlY8kw,Dr. Divya B - Best ENT Specialist for Sinusitis | Tonsilitis | Deviated Nasal Septum | Ear Drum Repair,13.006001472473145,77.56806182861328,gmaps_v2,clinic,97,0.8203549193985239
ChIJ-8eKkUgXrjsRQr1UDZFC63A,Dr Utkarshas Esthetic Centre,13.007105827331545,77.57127380371094,gmaps_v2,clinic,403,0.8044329013962315
ChIJQ_hfDxgWrjsRBXOwN4ysRUA,"Dr. Sriprada Vinekar - Best Gynecologist at Cloudnine Hospital, Bengaluru",13.007867813110352,77.56253051757812,gmaps_v2,clinic,513,0.7700977884082519
ChIJtdKxJGs9rjsRqx59oJdMUfo,Jai Hanuman Ambulance Service - 24x7 Ambulance in Bangalore | ambulance service,13.023504257202148,77.53655242919922,gmaps_v2,clinic,197,0.7434855576855867
ChIJq4bi6Kw9rjsR7koaHaLiC_4,"Dhanvantari Health Care ENT Clinic, Dr RK Swathi",12.987295150756836,77.55071258544922,gmaps_v2,clinic,13,0.7330516079557506
ChIJ14U1SHkXrjsRjkpYOdp-mGo,Dr. Prerana Tripathi - Best Cataract Surgeon | Lasik Surgeon | Squint,13.005640029907228,77.58165740966797,gmaps_v2,clinic,61,0.725145761122369
ChIJAUr4_xE9rjsR-dXbGBVi2eg,Dr. Anitha M | Plastic Surgeon | Cozmo blis,12.980395317077637,77.55450439453125,gmaps_v2,clinic,20,0.7237869134467294
ChIJk5zxkWA9rjsRtH31xiCNlcQ,"Smiles Hospitals - Advanced Treatment for Piles, Fissure, Fistula, & Hernia in Mathikere, Bangalore",13.03231716156006,77.55838012695312,gmaps_v2,clinic,1218,0.7115002349633195
ChIJCaAKKzkWrjsR-M2kN83tabg,"Milann Fertility & Birthing Hospital, Kumara Park, Best Fertility & Birthing Hospital in Kumara Park, Bangalore",12.987422943115234,77.57918548583984,gmaps_v2,hospital,1292,0.699412891608232
ChIJ6diJZUcXrjsRooNwqOR9uaE,Trinity Central Hospital,12.988862991333008,77.57376098632812,gmaps_v2,hospital,541,0.6944878827893016
ChIJw7asq_M9rjsR21w8U6Bg8-8,Prism Eye Care,12.984783172607422,77.55352020263672,gmaps_v2,clinic,1164,0.6839317701185532
ChIJ0S_7FF49rjsREOcPXhBq2H4,"Dr. Keshav's Skin Hair Laser & Cosmetic Clinic- Best Skin, Hair Transplant & Laser Clinic Bangalore",13.034197807312012,77.55783081054688,gmaps_v2,clinic,1381,0.6803195959901088
ChIJ9xJ3WjEWrjsR_GnT_vlzfTI,"Oliva Clinic Sadashivanagar: Laser Hair Removal, PRP, Hair Loss, Acne Scar, Skin Lightening Treatments",13.00543975830078,77.57839965820312,gmaps_v2,clinic,1474,0.6717939102788494
ChIJsxJY6JE9rjsRrdnTgDpeBw8,Rehamo,13.001733779907228,77.55010986328125,gmaps_v2,clinic,902,0.661687695885167
ChIJV_D9ZY49rjsRTYLxDPN1U0E,cim nature cure bangalore,13.01870822906494,77.55831909179688,gmaps_v2,clinic,285,0.6595508882723367
ChIJB-1voig9rjsRywiFEDplvCU,VIVEKA SCANS & DIAGNOSTICS,13.04338550567627,77.5109634399414,gmaps_v2,clinic,1353,0.6557831830651142
ChIJhb0gaCgWrjsRfgsZxHqNSr8,Manipal Hospital Malleshwaram,13.001055717468262,77.56404876708984,gmaps_v2,hospital,1368,0.6437519430442664
ChIJmSkQQ4kXrjsRn4qp8u7dgZs,Dr Prathik R | Uroclinic And Kidney Stone Centre | Best Urologist | Bangalore,12.991068840026855,77.57774353027344,gmaps_v2,clinic,92,0.6350525215790668
ChIJkY3Ymy0XrjsR8z3Ci66VOw4,Dr Sharan Srinivasan | Best Neurosurgeon and Neurologist in Bangalore,12.982988357543944,77.5682601928711,gmaps_v2,clinic,409,0.6139345612151963
ChIJb_VGfb49rjsRguO84xmGFdQ,Titan Eyeplus,12.991622924804688,77.53828430175781,gmaps_v2,clinic,1106,0.5956528234865378
ChIJg6mAzlQ9rjsRa-MWXXIa6EU,Sree clinic - Diabetes & Health care centre,13.00202751159668,77.55309295654297,gmaps_v2,clinic,47,0.5847132222683469
ChIJf3gfDBgWrjsRLgWJ_VFKg3Q,Apollo Sugar Clinics,12.988336563110352,77.57268524169922,gmaps_v2,clinic,447,0.5692914290454844
ChIJ5yhSah09rjsR-qy2ddd8VQA,Anas Sheikh Hair Solution | Hair Patch In Bengaluru | Hair Replacement in Bengaluru | Hair Bonding In Bengaluru,12.98670482635498,77.55996704101562,gmaps_v2,clinic,163,0.5378859514648371
ChIJqeFmHEUXrjsRt8o47ub3eN0,Specsmakers - New BEL Rd,13.029918670654297,77.57083129882812,gmaps_v2,clinic,399,0.5370433174376595
ChIJw-FLcvQ9rjsR7hCoibfl2FQ,"Altius Hospitals, Rajajinagar",12.9849271774292,77.55693817138672,gmaps_v2,clinic,1092,0.5287571320072559
ChIJkUqPtCAWrjsR32S1iRZm3o4,Bhagya Dental Care,12.99337387084961,77.56352996826172,gmaps_v2,clinic,37,0.5018754391881072
ChIJE-WiBNE8rjsRkq08O-urfJk,Aditi Hearing Solutions - Signia Hearing Aids in Bangalore,13.04528522491455,77.5082778930664,gmaps_v2,clinic,220,0.4977784723956985
ChIJOajiQO09rjsRRpQjo1THjI0,Curls & Curves Cosmetic Surgery,12.975852012634276,77.54212951660156,gmaps_v2,clinic,1143,0.485965231483586
ChIJUWFnwvY9rjsRSE9q1SkGD7M,Punya Hospital,12.986079216003418,77.5374984741211,gmaps_v2,clinic,969,0.4857379205185382
ChIJubJZx8cXrjsRgzfjofhU3j0,Dr Pramod Krishnappa : Best Andrologist & Urologist on New BEL Road (Orchidz Health Clinic),13.031654357910156,77.56993865966797,gmaps_v2,clinic,48,0.483847031910197
ChIJ7bKcIo49rjsR8RXXCnwYMGE,Nurture Hospital (unit of ambuja hospitals pvt ltd),12.996892929077148,77.55071258544922,gmaps_v2,clinic,62,0.4794934383836431
ChIJi31-vT8XrjsRypdk4Gv3ZT0,Lensight - ZEISS VISION EXPERT,13.000017166137695,77.56947326660156,gmaps_v2,clinic,282,0.4771448483237782
ChIJ4z3Di-c9rjsRC4_4oW6DAng,Dr. Satyaprakash's Centre for Digestive and Liver Diseases,12.974200248718262,77.53924560546875,gmaps_v2,clinic,721,0.4515459459873216
ChIJswlKMvQ9rjsRTgyFUIQv8Gs,Philips Service Center,12.98374843597412,77.55973815917969,gmaps_v2,clinic,1088,0.4514922938148233
ChIJOzYzA509rjsRdKcZ-ohc40w,Samruddhi Health Care & Women's Clinic (kidney care),13.04511260986328,77.50691986083984,gmaps_v2,clinic,71,0.4467258781388839
ChIJqxmc6DUWrjsRjvr09H2Rp6g,"Nova IVF Fertility Center - Best IVF Center in Basaveshwar Nagar, Bengaluru",12.99757480621338,77.54456329345703,gmaps_v2,clinic,506,0.4437919376904685
ChIJ3f5XRC8WrjsR3zdES63OXso,Narayana Super Specialty Hospitals,13.008495330810549,77.56848907470703,gmaps_v2,hospital,856,0.4350559657548723
ChIJH0gsQv4XrjsRwUQxYNMWRdw,Physiotattva Physiotherapy Clinic | Malleshwaram,13.00143051147461,77.56920623779297,gmaps_v2,clinic,133,0.4247293049249039
ChIJ3Yc6g1g9rjsRriQP-lFDCmg,Tattoo Planet.,12.997747421264648,77.54998779296875,gmaps_v2,hospital,718,0.4214186816666733
ChIJ9dNTdDo9rjsRk7JOOrgha5I,"Janisthaa Fertility and IVF Center, Bangalore | IVF Center | IVF treatment | Maternity and child care | Basaveshwaranagar",12.985501289367676,77.54339599609375,gmaps_v2,clinic,728,0.4150082811700107
ChIJnZ3V1Y09rjsR8Fmtna-cfz8,HEALTH CARE SPECIALIST CLINIC,12.986945152282717,77.53758239746094,gmaps_v2,clinic,172,0.4095131112646197
ChIJiZ-x7-E9rjsRtvvTC3zm1Mk,Rishi Speech and Hearing Solutions,12.992267608642578,77.53848266601562,gmaps_v2,clinic,110,0.4057257534678153
ChIJTxJBRP49rjsRKTKweDIsJ1Q,"Orthosquare Dental Clinic in Mathikere, Bangalore",13.03363037109375,77.55558013916016,gmaps_v2,clinic,82,0.4001903344273496
ChIJx7977MI9rjsRY6fpPpJJEb4,SPECTRUM DIAGNOSTICS AND HEALTHCARE,13.007613182067873,77.55461883544922,gmaps_v2,clinic,552,0.3942172965963339
ChIJQTAJkmA9rjsREPgtcRwNJIs,Dr. Ravi Prakash,13.0325345993042,77.5543212890625,gmaps_v2,clinic,328,0.3936179424178752
ChIJywu0ipw9rjsRTbEDjCIhSKg,Sri Guru krupa clinic,12.999951362609863,77.55686950683594,gmaps_v2,clinic,30,0.3896081642150312
ChIJncQ_9QQ9rjsRCKAEatXB0y4,Clove Dental,13.030744552612305,77.56033325195312,gmaps_v2,clinic,305,0.3880146640447799
ChIJi1CUu3E9rjsRGE8DniprS-Y,Dr. K VIJAY KUMAR,12.986913681030272,77.54994201660156,gmaps_v2,clinic,17,0.3779955529934942
ChIJ_SpNalQXrjsReXn-xgsbg70,ISHA DIAGNOSTICS PVT LMT,13.00605583190918,77.57135772705078,gmaps_v2,clinic,730,0.377785394607722
ChIJt2W-MC8WrjsRBiswRTPQhL0,Dr. Mohan's Diabetes Specialities Centre - Malleswaram,13.001687049865724,77.56838989257812,gmaps_v2,clinic,615,0.3669596482922156
ChIJyZqJr-g9rjsRdq6bwggTNUE,Isha Hearing Clinic - Hearing Aid Clinic - Hearing Aid Sales and Services in Bangalore,12.997137069702148,77.5512924194336,gmaps_v2,clinic,196,0.3622854481754928
ChIJKVQ1tREWrjsRfV5_gikBiIQ,AlaMirap Nutrition by Parimala Jaggesh - Sandalwood Celebrity Nutritionist | Weight Loss | Diabetes Management Experts,13.009491920471191,77.56402587890625,gmaps_v2,clinic,488,0.3614269141978821
ChIJqZhgPAQ9rjsRUfQMNjMgIqM,SKINOMY,12.99794864654541,77.5554428100586,gmaps_v2,clinic,181,0.3593060281981617
ChIJvS54aT8XrjsRsvr-nvE7xKE,Riyal Health Clinic,12.990130424499512,77.57786560058594,gmaps_v2,clinic,28,0.3512025843121382
ChIJb0VREp09rjsRNQLwdxpFdmQ,Optima Super Speciality Hospital,13.00904941558838,77.54859161376953,gmaps_v2,clinic,800,0.3436275913706362
ChIJu5j7GyUWrjsR7xR9QHeLJgk,Sabka dentist -Malleshwaram,12.997685432434082,77.57106018066406,gmaps_v2,clinic,517,0.3435477586552076
ChIJ-1N5pvM9rjsRSWVqICNXdN0,"Lenskart.com at Rajaji Nagar, Bengaluru",12.984991073608398,77.55412292480469,gmaps_v2,clinic,468,0.3371923480072669
ChIJ3fdyCpw9rjsRqaDdF6H7rZM,Sonovision Diagnostic Center,13.022381782531738,77.5587158203125,gmaps_v2,clinic,49,0.3350312014424954
ChIJu-mxGow9rjsRFoCEvOXtU_w,Clove Dental,12.990137100219728,77.55634307861328,gmaps_v2,clinic,505,0.3335260760183224
ChIJnRdifJE9rjsRLvJz01YWk_I,Shashi's Dental surgery,12.99344253540039,77.547119140625,gmaps_v2,clinic,360,0.3257959604128999
ChIJZwPwi94XrjsRx0_ZlH2SVnU,Ramaiah Medical College,13.030502319335938,77.5667495727539,gmaps_v2,clinic,1347,0.3052099563618325
ChIJPcENtEQ9rjsRyT1MhZGse2M,Madhu Super Speciality Hospital And Research Centre,12.978150367736816,77.54338073730469,gmaps_v2,hospital,200,0.3031605434026423
ChIJy4269Nc8rjsRt8anMIBN96c,Sri Ayyappa Mess,13.042795181274414,77.51471710205078,gmaps_v2,clinic,511,0.3022370611021962
ChIJC3qgfbpRUjoRC_nBgC4wng0,Dr Mohankumar Urologist,13.011262893676758,77.55694580078125,gmaps_v2,clinic,284,0.2964689021247023
ChIJ6e6RK2g9rjsRDqjcny_Q6j8,Unique Healthcare Centre - Rajajinagar,12.998085975646973,77.55332946777344,gmaps_v2,clinic,104,0.2952647914579044
ChIJ0_9AztwXrjsRLNK-7SxHHRY,Pristyn Care,13.005860328674316,77.56806182861328,gmaps_v2,clinic,446,0.293639522600769
ChIJPyAIYGsXrjsR8Me2jYXfgLQ,Dr. Divya D Sundaresh,13.008371353149414,77.5715560913086,gmaps_v2,clinic,17,0.2933486079122638
ChIJ_WwLLBU9rjsROTlsN5d2B8o,Ayu Health Hospitals,13.02879524230957,77.53946685791016,gmaps_v2,hospital,91,0.2899715516310457
ChIJ28WrUe09rjsR6tnxDfzBCjo,Focus Diagnostics Centre & Speciality Clinics,12.987024307250977,77.54997253417969,gmaps_v2,clinic,973,0.2895667974317686
ChIJ190iR90XrjsRACsYJ42HV_M,Thyrocare Malleshwaram Blood Test Center / Home Sample Collection,13.006473541259766,77.5710678100586,gmaps_v2,clinic,66,0.2883331704346654
ChIJuVnx92Y9rjsRkxdTPZ7GgYM,8th Mile Circle,13.04517936706543,77.50740814208984,gmaps_v2,clinic,116,0.2834972650762224
ChIJHUURoYw9rjsRmhjo8C7d_Qs,Sabka dentist - Rajajinagar,12.98914623260498,77.55611419677734,gmaps_v2,clinic,353,0.2833076073989255
ChIJm0h6v909rjsRT09rKYpUlP8,Jiv's Women Clinic,13.035737037658691,77.54899597167969,gmaps_v2,hospital,45,0.2820153624387017
ChIJM60uOd49rjsRlYOPlxIpqT8,Nirmal Skin & Hair Clinic,12.97614574432373,77.54219055175781,gmaps_v2,clinic,493,0.2781394269866276
ChIJnxqcPRk9rjsRcIif_QhZQPA,Remidio Innovative Solutions Pvt Ltd,13.03986930847168,77.52201843261719,gmaps_v2,clinic,181,0.2724880197985936
ChIJ4w6p6TwWrjsRSsy5YuH9saI,Namma Homeopathy - Malleswaram,12.99821949005127,77.57096862792969,gmaps_v2,clinic,291,0.2723889464196325
ChIJCx7UKSMXrjsRQ8l-bcfRXEE,Dr Darshan Kumar A. Jain,13.006535530090332,77.56964874267578,gmaps_v2,clinic,265,0.2709412684981228
ChIJq4QGkH09rjsRuqm-qTk7bsk,"Dr. Prasanna T Y- Best Orthopaedic Surgeon,Bangalore, Fractures/Hip & Knee joint Replacement, Knee and Shoulder Scopy",12.998987197875977,77.54118347167969,gmaps_v2,clinic,61,0.2700171112277965
ChIJQ7JCJAo9rjsRg3bpTiJElD8,Aster labs Vijayanagar,12.976851463317873,77.54205322265625,gmaps_v2,clinic,142,0.2689234185942675
ChIJDwEAAZs9rjsRUjjgd_8a2LE,Happy Healthy Hospital,12.98886775970459,77.54666900634766,gmaps_v2,hospital,59,0.2685433373031486
ChIJkS2qRiUWrjsRiK58O1wl37Y,RxDx SAMANVAY - Best Clinic in Malleswaram,13.00539207458496,77.56222534179688,gmaps_v2,clinic,497,0.2614590594068059
ChIJE885RAk9rjsRQPx7220use8,HARIHAR DENTAL CARE,12.993427276611328,77.5462417602539,gmaps_v2,clinic,21,0.2570475207820455
ChIJIajJP8c9rjsRL8SGtDpqGE4,APOORVA HEALTH CARE (Clinic),12.990262031555176,77.55451965332031,gmaps_v2,clinic,29,0.2566203723760705
ChIJWzhG8LAXrjsRihvDZBXTq-M,"Kaya Clinic: Skin, Body & Hair Care (Sadashiva Nagar, Bengaluru)",13.008395195007324,77.57988739013672,gmaps_v2,clinic,334,0.2547798728067707
ChIJO9xPlrw9rjsRwyWRPIDWaKI,Trucare Dental And Surgical Clinic,12.996639251708984,77.5341567993164,gmaps_v2,clinic,16,0.2438383371580063
ChIJMf4A9xoXrjsRfrZ0VvcH4X0,NG Imaging and diagnostic centre,12.998950958251951,77.5517578125,gmaps_v2,clinic,160,0.2435094231400219
ChIJB97agDcXrjsRHDiHddLmksI,Specsmakers - Margosa Rd,12.99972438812256,77.56925964355469,gmaps_v2,clinic,142,0.2416271118665109
ChIJqUW8voc9rjsR_5mg3bfSB7A,Ayu Health Hospitals,12.998726844787598,77.55523681640625,gmaps_v2,hospital,95,0.2394106437982055
ChIJi-SzcJcXrjsRIoYtfCSu7Mo,Titli Breast Care Center,12.994763374328612,77.57150268554688,gmaps_v2,clinic,28,0.2370778276176069
ChIJlVLyrdUXrjsRMyLG_hlT3TI,Blue Bliss Hospital,12.99294090270996,77.57625579833984,gmaps_v2,clinic,336,0.2368003778051883
ChIJQejgV809rjsR6qRzB2gc1rI,Dr.A.K. Diagnostic Centre,13.003077507019045,77.52635955810547,gmaps_v2,clinic,43,0.2349402847462086
ChIJQbu_hoQ9rjsRbxfE_VKFR3Q,Tamara Hospital & IVF Centre,13.004419326782228,77.55303192138672,gmaps_v2,hospital,386,0.23193918690051
ChIJA9mSYws9rjsRNLQkLHMZXMk,Ganesh Multispeciality Clinic,13.006114959716797,77.54158782958984,gmaps_v2,clinic,20,0.2301280500123654
ChIJE40voAY9rjsRuFcKIyjO5us,Dr. Srihari Modhagala - Pediatrician in Bangalore,13.029457092285156,77.56085205078125,gmaps_v2,clinic,33,0.2287363152915746
ChIJ48M-imA9rjsRKvfqc3BJiNc,Parijma Medical Center,13.002506256103516,77.5455551147461,gmaps_v2,clinic,115,0.2271383719829756
ChIJA7PppmMXrjsRRYKl6Z9RI2U,"Praba's VCare Health Clinic (P) Ltd., - Malleshwaram",12.996028900146484,77.57145690917969,gmaps_v2,clinic,293,0.2269141627030801
ChIJ7WBwIDQ9rjsRqvb8o-FuaRE,Vardhan Fertility,12.982439041137695,77.54938507080078,gmaps_v2,clinic,205,0.2235208496417192
ChIJ1dcMpF09rjsRljq4fa5u6Xw,Dr. Mohammed Rehan Sayeed | Best Cardiac Surgeon & CTVS in Yeshwanthpur | Manipal Hospital Yeshwanthpur,13.014219284057615,77.55603790283203,gmaps_v2,hospital,48,0.2223741345079326
ChIJvT2Q2R4XrjsR_EiXPhBuHaI,Child Neurologist: Dr C P Ravi Kumar,13.001420974731444,77.56920623779297,gmaps_v2,clinic,151,0.2223698013682908
ChIJg7tI6YM9rjsR_VObAHHmumc,Sai Krupa Speciality Dental Care,13.000062942504885,77.53814697265625,gmaps_v2,clinic,17,0.2208633791285009
ChIJVy8jbEM9rjsRVPjd73rsQtk,SRL Diagnostics (RAJAJINAGAR),13.007323265075684,77.54852294921875,gmaps_v2,clinic,127,0.2203607217938256
ChIJNz2ZyL89rjsRMYVAPWu2OPo,Clove Dental,12.990553855895996,77.53826904296875,gmaps_v2,clinic,401,0.2202145369243223
ChIJBygYyPE9rjsRPdxryrvQ2VM,skinxperts Super Speciality Skin Hair and Laser clinics,13.005121231079102,77.54264068603516,gmaps_v2,clinic,228,0.2201060174188696
ChIJ89rDr0M9rjsRH01ipR_TrLk,"Indira IVF Fertility Centre - Best IVF Center in Rajaji Nagar, Bengaluru",12.998978614807127,77.55259704589844,gmaps_v2,clinic,313,0.2188640688401435
ChIJbxw5iC09rjsR-E6pPIk9fl8,Iswarya Fertility Centre Basaveshwaranagar - Best IVF & IUI Treatments Bengaluru,12.987122535705566,77.5372085571289,gmaps_v2,clinic,229,0.2168500569579927
ChIJWarN2Ic9rjsR2qIckJHOULs,Sri Dental Clinic | Dr Sunil Kumar | Best Cosmetic Dentist | Smile Correction & Root Canal Treatment in Basaveshwara Nagar,12.99224853515625,77.5331039428711,gmaps_v2,clinic,106,0.2167863156668093
ChIJMW9CW_U9rjsR0xQrNzhtX8w,Dr. Amith Kamath - MS Orthopaedics,12.998091697692873,77.55329132080078,gmaps_v2,clinic,42,0.2166292434793182
ChIJ9QMYz789rjsRQ5p8642v0a4,Amrutha Orthopaedic Clinic,12.9893159866333,77.53804016113281,gmaps_v2,clinic,476,0.2163545464677604
ChIJKyzPRPU9rjsRLg20-n2yw0E,Sajjalashree Home Nursing Services || Health Care Services,13.016552925109863,77.531494140625,gmaps_v2,clinic,64,0.2140999051581095
ChIJURuDAiUWrjsR9yEnL6haMUE,Partha Dental Clinic,13.001358032226562,77.57139587402344,gmaps_v2,clinic,545,0.2140387355747151
ChIJeViy3yQWrjsRu476UCVQX_I,Dr Batra’s Homeopathy Clinic,12.99623966217041,77.57327270507812,gmaps_v2,clinic,646,0.2043424670705704
ChIJfZ1r8oQ9rjsREDpBDHadA5s,Shathayu Ayurveda Clinic,13.003951072692873,77.54470825195312,gmaps_v2,clinic,313,0.2026108670441031
ChIJTYRZ9T0WrjsRPJYEvhNvJVI,Kumara Park West Children's Garden,12.989006042480469,77.5777587890625,gmaps_v2,clinic,576,0.1991549193881062
ChIJLel_dUY9rjsRbzENneuMl0E,SHREYAS HOSPITAL a unit since 1997,13.00852394104004,77.54181671142578,gmaps_v2,hospital,196,0.1940896657258686
ChIJOe2otDg9rjsRJo9fb_Fy_T8,"Ayush Health Clinic | Best Sexologist in Bangalore, Male Sexual Problems Treatment, Infertility Specialist",12.99337100982666,77.55467987060547,gmaps_v2,clinic,333,0.1931599963520668
ChIJo6BxTuM9rjsRZHFQK-J4XV8,Circadian Healthcare,12.987027168273926,77.54535675048828,gmaps_v2,clinic,12,0.1923627105776113
ChIJ8yXapmE9rjsR0RaVQR3pXTg,"Bajaj Auto (Kalyani Motors, Bengaluru, Mathikere)",13.029480934143066,77.5592041015625,gmaps_v2,hospital,503,0.1922332327978367
ChIJHfY-xhE9rjsRMGcoUfUwXWY,CURE DIABETES CENTRE ( CDC),12.979665756225586,77.53388214111328,gmaps_v2,clinic,133,0.1919770493602644
ChIJ0c57OSkWrjsRKvSIar43QWQ,Vijaya Ent care centre,13.000041007995604,77.56968688964844,gmaps_v2,clinic,266,0.1911080061751541
ChIJ1-9Ob-s9rjsRyUKY6SyKI5Q,SHANBHAG HOSPITAL (unit of ANANYA HOSPITAL PRIVATE LIMITED),12.98572063446045,77.54351043701172,gmaps_v2,clinic,681,0.1904757446579642
ChIJ_z3KUw49rjsRnByLeTU99n8,True Dent Dental Clinic,12.99151611328125,77.53910827636719,gmaps_v2,clinic,49,0.1895543364248295
ChIJWXZhZ3wXrjsRJZIF5E3YtaY,RBL Labs,13.02537727355957,77.53593444824219,gmaps_v2,hospital,42,0.1893831358930987
ChIJ8c05BOg9rjsRsfQOFv3foO4,"Allergy And Asthma Clinic, 4D Diagnostics",12.975570678710938,77.54156494140625,gmaps_v2,clinic,132,0.1891550130705835
ChIJkwRuXpUXrjsR1Js-wMcLEiI,Rubix Lung Care Clinic (Dr.Rohan Naick),13.00451374053955,77.56538391113281,gmaps_v2,clinic,181,0.1873324751094839
ChIJVzOIS-89rjsRK8Jf89QM1IU,Offspring Maternity & Child Care,12.976991653442385,77.54472351074219,gmaps_v2,clinic,295,0.1869085532816717
ChIJIfl2FS8WrjsRKcMcFS4kU9c,Bengaluru Neuro Centre,13.001423835754396,77.5692138671875,gmaps_v2,clinic,581,0.1860391622176039
ChIJb-d6j7I9rjsRPvM2rrgoF0Q,"Dr Vasan S S - Best | Famous | Top Urologist | Andrologist | Fertility Doctors in Rajajinagar, Bangalore",13.000858306884766,77.5499496459961,gmaps_v2,clinic,55,0.1813505048447718
ChIJgQvn0r89rjsRH1XKpP88ryE,Partha Dental Skin Hair Clinic,12.993085861206056,77.53935241699219,gmaps_v2,clinic,435,0.1805872658099589
ChIJn4-7GAwWrjsRIwqNevJaUvk,Navayavvana Dispensary,12.994107246398926,77.57118225097656,gmaps_v2,clinic,354,0.1793100225887503
ChIJQWPkDnwXrjsRrBViyxCvKSE,Kalp Aesthetics and Plastic surgery,12.994744300842283,77.57154083251953,gmaps_v2,clinic,22,0.1777011429133956
ChIJUfn6txU9rjsRPEgYItWROes,Aster Labs - Basaveshwara Nagar,12.993170738220217,77.53948211669922,gmaps_v2,clinic,105,0.1724102641349192
ChIJA1p6OXc9rjsRwpmUZ5uovmo,Specsmakers - Mahakavi Kuvempu Rd,12.998697280883787,77.55653381347656,gmaps_v2,clinic,220,0.1717366596854678
ChIJizko4zs9rjsRMBhkv3bNmYY,Dr. Vinay Munikoty Venkatesh | Best Pediatric Hematologist in Yeshwanthpur | Manipal Hospital Yeshwanthpur,13.014185905456545,77.55607604980469,gmaps_v2,hospital,11,0.1691342157593083
ChIJryQZFdA9rjsRBBHagS_tRdM,Dr. Geetha Shanbhag,12.98572063446045,77.54351043701172,gmaps_v2,clinic,151,0.1687332471491474
ChIJsZvkFoA9rjsRbRgheEAyQms,NU Fertility (West),13.012107849121094,77.55279541015625,gmaps_v2,clinic,236,0.1667740575651203
ChIJb1BZqys9rjsRfydjpG2za9o,Pepdent Multispeciality Dental clinic Nandini layout branch,13.010969161987305,77.52918243408203,gmaps_v2,hospital,142,0.1647190017723457
ChIJMwn-hqoWrjsRCmACDzmon_w,Prashanthi Ayurvedic Centre Main Hospital,12.996328353881836,77.5509262084961,gmaps_v2,hospital,408,0.164377306799589
ChIJZ4q0iyUWrjsRNiwBhaMt7nc,Lakshmi Maternity & Surgical Center,13.005769729614258,77.5693359375,gmaps_v2,clinic,366,0.1643605893905952
ChIJc3ZBpCAWrjsRnPCscclCDMw,Somu Dental Care,12.99293613433838,77.56240844726562,gmaps_v2,clinic,64,0.1636341312933674
ChIJExn-BkcXrjsRnq-Tu7rwNpQ,Hearzap Sadashivanagar By Hearing Solutions,13.003897666931152,77.58355712890625,gmaps_v2,clinic,44,0.1616467902826365
ChIJJR1hrDQ9rjsRGgcQYWHKgDA,RR multispeciality hospital,12.980253219604492,77.53715515136719,gmaps_v2,hospital,139,0.1611535792295021
ChIJfy2Atx89rjsRDNiD70QMRX0,Clove Dental,13.003509521484377,77.54376983642578,gmaps_v2,clinic,267,0.1579704922339939
ChIJ58kWHWM9rjsRKWhAZVT1ep4,Ayu Health Hospital - Department of Neurology,13.026324272155762,77.5390625,gmaps_v2,hospital,15,0.1578356638451106
ChIJjYGjjJc9rjsReHq4HTKdISE,Chord Road Hospital Private Limited,12.99797821044922,77.54045867919922,gmaps_v2,hospital,407,0.1569623983623075
ChIJh0FQqCUWrjsRSIx6PbPYOIY,Citizen Skin Clinic,12.997770309448242,77.5708999633789,gmaps_v2,clinic,168,0.1568916753408066
ChIJH-7mi7w9rjsRLu3peTV_15k,ChanRe Rheumatology And Immunology Center And Research,12.999068260192873,77.55023193359375,gmaps_v2,clinic,451,0.1560012761819107
ChIJj0D_FjwWrjsRtR349wcuP3M,Sathyasree Skin Hair Cosmetic & Laser Clinic,12.994025230407717,77.5778579711914,gmaps_v2,clinic,70,0.154560394129005
ChIJg84oYRY9rjsRAnMRrptKmeA,Ebisu Diagnostics,13.043267250061035,77.51122283935547,gmaps_v2,clinic,212,0.1526070686663073
ChIJyc_Gy-g9rjsRBZgnk24L1B8,Hearing Health Care Clinic AS - Vijayanagar,12.979462623596191,77.53884887695312,gmaps_v2,clinic,87,0.1523249803848759
ChIJGTOvtqcWrjsRQQrpKRx1SWc,LifeCell International Pvt. Ltd,12.998041152954102,77.55070495605469,gmaps_v2,clinic,305,0.1509038987200741
ChIJA0DTyJo9rjsR273c0RaLtno,Ankur Healthcare - Best | Famous | Top Andrology | IVF | Urology | Infertility Doctors | Hospital In Rajajinagar | Bangalore,13.000852584838867,77.5499496459961,gmaps_v2,clinic,365,0.1492212861912426
ChIJ8wUM8Z8XrjsRrmctIMoNpDM,Aster Labs,12.994284629821776,77.58042907714844,gmaps_v2,clinic,118,0.1482922457447687
ChIJAYrYB5YXrjsRihcIfyyzc7c,Anand Diagnostic Laboratory (A Neuberg Associate),13.002252578735352,77.57867431640625,gmaps_v2,clinic,262,0.1470730177303134
ChIJEfL1fV0XrjsRQkFMQfpMGLk,Ganga Hospital (COFT Hospitals LLP) Bangalore,12.993698120117188,77.57134246826172,gmaps_v2,clinic,30,0.1461114484238706
ChIJC5XX1lU9rjsRQ0UwVxS8U1I,Eye Station Opticians,13.029407501220703,77.56124114990234,gmaps_v2,clinic,116,0.1437271002334762
ChIJp-0UmnU9rjsRmA65Faf9k4w,Dr. Ankit Bhojani - MD General Physician,12.998099327087402,77.55329132080078,gmaps_v2,clinic,55,0.1436064877615511
ChIJgdMLtRk9rjsR4WB_hjW03Kc,Kangaroo Care Fertility,12.974470138549805,77.54222106933594,gmaps_v2,clinic,90,0.1412691650125766
ChIJAcnl0VY9rjsRYNekUXaDTfM,Vishwa Medical Admission Point (VMAP) - iKonect Bangalore,12.987475395202637,77.53758239746094,gmaps_v2,clinic,50,0.1326152829720042
ChIJgx31igEWrjsRFq9cwQS3Fdc,PILES AND FISTULA CLINIC,12.971139907836914,77.56348419189453,gmaps_v2,clinic,121,0.1319365938051337
ChIJfyLUW2A9rjsRBo7vItLUe1U,Akshaya Dental Care,13.031272888183594,77.55951690673828,gmaps_v2,clinic,35,0.130235351300816
ChIJwbOGZDoWrjsR92qwtiV_a2o,"Hair Transplant in Bangalore - Vtiara Hair & Skin Clinic, Malleshwarum.",12.999347686767578,77.57664489746094,gmaps_v2,clinic,250,0.1300050742304598
ChIJUb0cyFg9rjsR4i4JXY2xCFw,SHARADA HEALTHCARE,13.035479545593262,77.55702209472656,gmaps_v2,hospital,28,0.1287187066877274
ChIJzZnfZoU9rjsRyYzfTsxttDA,Anand Diagnostic Laboratory (A Neuberg Associate),12.999425888061523,77.55203247070312,gmaps_v2,clinic,202,0.1251408002503504
ChIJEVQ03SwXrjsRtnlCHP1rmEM,Dr. Mahesh C Gonchikar | Malleshwara Orthopaedic Centre and Polyclinic,13.002952575683594,77.5651626586914,gmaps_v2,clinic,114,0.123485148671751
ChIJD1vWfRg9rjsRnfeRlHpSRNU,Ashwini Health Center,13.041109085083008,77.55793762207031,gmaps_v2,clinic,75,0.1228649606007338
ChIJfSwHAHE9rjsRYTvdgyYFnaA,Tatkshana Ayurveda Hospital,13.019136428833008,77.5523910522461,gmaps_v2,clinic,182,0.1217541197046601
ChIJF-5_ZD09rjsRqEUNL1I9e2w,Dr Anand Kumar K _ Hematologist _ BMT physician _Pediatric Oncologist,13.027920722961426,77.54289245605469,gmaps_v2,clinic,119,0.1214207732643021
ChIJz8RzD0o9rjsRR8Pcj_7tfq4,ESI Hospital - Main Branch Rajajinagar,12.990429878234863,77.55370330810547,gmaps_v2,hospital,86,0.1199960175740291
ChIJL76ZNy0XrjsR7B2kU1lwc-Y,FirstCry Malleshwaram Bengaluru.,13.002904891967772,77.56919860839844,gmaps_v2,clinic,111,0.1191787833233559
ChIJqbtR_gwXrjsRL7Zys0MFAbk,VIJAYSHEELA SPORTS-ORTHOPAEDICS & WELLNESS CENTRE,13.03574275970459,77.56768035888672,gmaps_v2,clinic,65,0.1165192367741018
ChIJkawOKwgVrjsR6ubQozX0hQw,Dr.Murali Mohan S - Best Neurosurgeon,13.02879524230957,77.53946685791016,gmaps_v2,hospital,226,0.1153990480394102
ChIJz2mDpYQ9rjsR-49pzQ30r00,Precision Fertility Clinic : Dr Akhila Anand,12.973801612854004,77.54417419433594,gmaps_v2,clinic,72,0.1128213805656793
ChIJ2UlUcigWrjsRlmvas1qYuu0,Cera Care Health Care,12.996676445007324,77.5630874633789,gmaps_v2,clinic,250,0.1124433794876445
ChIJYxFNa_c9rjsRPf308iB_D1w,Best Trichologist,12.976153373718262,77.54242706298828,gmaps_v2,clinic,24,0.111270960565241
ChIJy_Gfui8WrjsRPD5ReNN5DmU,Amplifon,13.003681182861328,77.56425476074219,gmaps_v2,clinic,107,0.11115245502791
ChIJ58mTYtsXrjsRCsmI6NWVn48,Fear Tattoo Studio,13.02811050415039,77.57150268554688,gmaps_v2,hospital,362,0.1095108699695846
ChIJERa3Ulc9rjsRERRkHuIf0iQ,AV EYE HOSPITAL,12.997623443603516,77.54823303222656,gmaps_v2,clinic,36,0.1094005319347623
ChIJPwYuWjwXrjsRZzKINAC-OFs,Ojas Physiotherapy and Wellness Center,13.007623672485352,77.56568908691406,gmaps_v2,clinic,42,0.1088316454401271
ChIJVfqXgyoWrjsRQfXoAqz_bEE,Cloudnine Fertility & IVF Center,13.007858276367188,77.56254577636719,gmaps_v2,clinic,190,0.1073887699685316
ChIJCYpnGZ49rjsRjaWNDNWl5pM,Nayana Ambulance Service - Ambulance in Rajajinagar Bangalore,12.984376907348633,77.54886627197266,gmaps_v2,clinic,13,0.1065887546396522
ChIJHw77bO09rjsRWBKL08OgC7U,Citi Hospital,12.995606422424316,77.55110931396484,gmaps_v2,clinic,260,0.1045792290055556
ChIJa3R68IU9rjsRAKLrj9mloUQ,Rao's Joint and Orthopaedic Clinic,12.979990005493164,77.55303955078125,gmaps_v2,clinic,100,0.1044027308274293
ChIJp6LSkyk9rjsRaglX3KC_K2M,"Dhanavantri Health Care, ENT Clinic Dr. R K Swathi",12.987293243408203,77.55071258544922,gmaps_v2,clinic,48,0.1041337236506613
ChIJQRGT9dsXrjsRIqjS8WMkPss,Ramaiah Indic Specialty Ayurveda Restoration Hospital (RISA) - Ramaiah Ayurveda Hospital,13.028071403503418,77.5688247680664,gmaps_v2,hospital,131,0.1019249574259063
ChIJKYBYeOA9rjsRUV_K5kozolU,Satellite dental clinic,12.99514865875244,77.55414581298828,gmaps_v2,hospital,13,0.1008755480258137
ChIJXakvzUU9rjsRdPoL8SuHJGY,Dr Robin Gupta,13.02879524230957,77.53946685791016,gmaps_v2,clinic,13,0.0992185917549809
ChIJ8ZFP_b89rjsRXum70QT6GW0,Anand Diagnostic Laboratory (A Neuberg Associate),12.98259162902832,77.53746032714844,gmaps_v2,clinic,151,0.0974731943672382
ChIJR9hk4o09rjsR1jxEFP_jir8,Best Urticaria Treatment And Best Vitiligo Treatment And Cure In Bangalore,12.976153373718262,77.54242706298828,gmaps_v2,clinic,21,0.0973510209865386
ChIJn8pWP4IjrjsRL76UkDYXcNU,Dr. Sagar Z,13.028156280517578,77.56987762451172,gmaps_v2,clinic,22,0.0967678775446495
ChIJHzolHoY9rjsRaCW668eoGNY,Aj Multispecialty Dental Clinic,12.975418090820312,77.55362701416016,gmaps_v2,clinic,20,0.0967500602168343
ChIJq0R4cSkWrjsRPAISax75NB4,The Fracture & Orthopaedic Clinic,13.008130073547363,77.56350708007812,gmaps_v2,clinic,269,0.0964111047559567
ChIJSQYI3yQWrjsR3KeN19ZZ_bA,HearFon - Hearing Aids & Speech Therapy Clinic,12.996659278869627,77.57051849365234,gmaps_v2,clinic,224,0.0960047950013932
ChIJwxts71E9rjsR0O-22MkKrNg,Vital Diagnostics,13.032537460327148,77.55860137939453,gmaps_v2,clinic,205,0.0953955387074184
ChIJnfH7ytA8rjsRt-zeinLVcTQ,RHEA CLINIC,13.043783187866213,77.5102310180664,gmaps_v2,clinic,89,0.0940641296785393
ChIJTxBc2Kw9rjsRF3ZaOzjy2qE,"Madhavbaug Clinic - Basaveshwar nagar, Banglore",12.988296508789062,77.53636169433594,gmaps_v2,hospital,33,0.0934573312477628
ChIJX-3MEO49rjsRtBdpj8eJBaA,Dr. Pavan Rasalkar (Interventional Cardiologist ) - Rajajinagar,12.998091697692873,77.5533218383789,gmaps_v2,clinic,38,0.0927613880270284
ChIJV1Z6KJQ9rjsRYXp5UyPdw1M,New Varalakshmi Hospital,12.998762130737305,77.55511474609375,gmaps_v2,clinic,121,0.0920134363345643
ChIJyxb8C4QXrjsRCtnDjv68C_c,Dr Anand Cardio Care,13.004549980163574,77.57067108154297,gmaps_v2,clinic,17,0.0913756514745521
ChIJycwfi309rjsRA7fYPyCa-es,Metropolis Healthcare Ltd - Best Diagnostic Centre In Basaveshwaranagar,12.986010551452637,77.53736877441406,gmaps_v2,clinic,37,0.091328150948338
ChIJW6EHL2s9rjsRKcH1jmRso3c,Dr Mahesh Rajashekaraiah,13.029006004333496,77.53958129882812,gmaps_v2,clinic,82,0.0909110588475747
ChIJh6tvdPY9rjsR-yxX9PF-3_E,Optical square Contact Lens Eye Clinic Rajajinager,13.003839492797852,77.55009460449219,gmaps_v2,clinic,118,0.0905729112424114
ChIJ0f2V_709rjsRFsY9kmBaqj8,Supra Hospital Basveshwarnagar,12.9928617477417,77.53873443603516,gmaps_v2,hospital,197,0.0895978396796873
ChIJn5Fm9DYWrjsR9bHjIFDasDo,Summit Dental Clinic,13.00458526611328,77.58153533935547,gmaps_v2,clinic,170,0.0894776353763331
ChIJ-xtEdk49rjsRzd88-Avlj54,Lap Mac,13.001822471618652,77.52753448486328,gmaps_v2,hospital,16,0.0890753445709337
ChIJxVkKF5w9rjsR4TReEBVROC0,Skin Lumina Dermatology Clinic,13.00632667541504,77.5496597290039,gmaps_v2,hospital,148,0.088688477319232
ChIJkx5MS6M9rjsRnmMugfIYQPU,VISHAL OPTICIANS ವಿಶಾಲ್ ಆಪ್ಟಿಕಲ್,12.987299919128418,77.53736114501953,gmaps_v2,clinic,25,0.0877331009597595
ChIJ1Tl3Ztc8rjsRX-jAyIPweDs,SUMERU DENTAL CARE,13.04298496246338,77.51216888427734,gmaps_v2,clinic,148,0.0876234765380418
ChIJCVHCmSQWrjsRPm2wUE3T2vg,Le Yantra- Spine & Sports Clinic,12.99498176574707,77.57195281982422,gmaps_v2,clinic,177,0.0872711141292092
ChIJATXqyuU9rjsRSlMp-mTfhIQ,Bangalore Child Neurology and Rehabilitation Center,12.97357940673828,77.54619598388672,gmaps_v2,clinic,214,0.0860421122567932
ChIJmSUhyPoXrjsRVDQ9mw9oiiQ,"Dr Sahana P Raju - Best Dermatologist ,Cosmetologist and Paediatric Dermatologist in Malleshwaram Bangalore",13.005512237548828,77.57184600830078,gmaps_v2,clinic,24,0.0851075531516903
ChIJKeO2oDkXrjsR0bKjSa1fSFs,Paediatric Orthopaedics and clubfoot clinic,13.007848739624023,77.56678771972656,gmaps_v2,clinic,100,0.0849562283682416
ChIJs5T77ksXrjsRmvgcGb8bRs8,Kosmoderma Skin & Hair Clinics RMV Extension,13.027921676635742,77.57325744628906,gmaps_v2,clinic,51,0.0848034274872573
ChIJe68V63A9rjsR70D70Ws3STE,Tiny Palms Child & Adult Therapy Centre,12.994640350341797,77.55265045166016,gmaps_v2,clinic,31,0.0847345640113413
ChIJZ5mugNc8rjsReKQcWaQgokc,Naik Skin Clinic,13.04269313812256,77.5128173828125,gmaps_v2,hospital,87,0.084072247238709
ChIJM7mH7e4XrjsRcs0NPT4KgqI,Dr. Badarayan’s Pediatric & Rheumatology clinic,13.006814002990724,77.56433868408203,gmaps_v2,clinic,32,0.0837853397050354
ChIJRTkjkCU9rjsRcrnKkLB4bRo,Vijayanagar Physiotherapy Clinic,12.973104476928713,77.53791809082031,gmaps_v2,clinic,19,0.0837677526810171
ChIJyz38iFc9rjsRli3_uymzbRA,SSB FOREX,12.997355461120604,77.5451889038086,gmaps_v2,hospital,62,0.0833673979501841
ChIJRb77WCc9rjsR3dQZoc8zQ8A,Child Care Clinic - Dr Deepthi.R,13.03775691986084,77.55348205566406,gmaps_v2,clinic,42,0.0831473699145099
ChIJ3_1irZY9rjsR7i_RBwOUM3M,Event Doctors,12.97043514251709,77.54645538330078,gmaps_v2,clinic,79,0.0819734040163389
ChIJX1_qaps9rjsRKLKRDRAJ740,Confident Dental Care,13.003199577331545,77.54901885986328,gmaps_v2,clinic,202,0.0811927605820052
ChIJS9TFdC4WrjsRF9XkHpugp_w,"Sushrutha Orthopedic, Eyecare & Skin Centre - Best Skincare, Orthopedic, Eyecare Center",13.005544662475586,77.57185363769531,gmaps_v2,clinic,39,0.0805918102303955
ChIJ8eQGPqY9rjsR0ptGoVP3Gp4,SCD - Best hair transplant clinic,12.993280410766602,77.5563735961914,gmaps_v2,clinic,67,0.0797844045884136
ChIJJ5LeUoU9rjsRo_quZivik1k,Vasan Eye Care,12.999472618103027,77.55049896240234,gmaps_v2,clinic,232,0.0795013813983742
ChIJmZeiu5MXrjsRiOybicga07I,CAR CARE TECH,13.03020477294922,77.56970977783203,gmaps_v2,hospital,77,0.0794822480864757
ChIJgTDIHus9rjsRULD2NFIBn-8,JAYASURYA Dental and advanced IMPLANT CENTRE,12.985625267028809,77.54232788085938,gmaps_v2,clinic,189,0.0794821936785625
ChIJIWpJD0E9rjsRt7kNc609peQ,Dr. Jyothi Shenoy | Best Obstetrician-gynecologist in Yeswanthpur | Manipal Hospital Yeswanthpur,13.014189720153809,77.55606842041016,gmaps_v2,hospital,27,0.0793318360446822
ChIJgUxJ9CwWrjsRW2XVayaWQpY,Abbee Hearing Solutions,13.001288414001465,77.56517791748047,gmaps_v2,clinic,178,0.0792237437194724
ChIJCTZEmmA9rjsRW21jKpEv8ss,Sumathi Nursing and Maternity Home,13.032678604125977,77.55815124511719,gmaps_v2,clinic,132,0.0780140056236053
ChIJxyjP6p09rjsRoBlK7HVotsA,Plexihealth Labs- Orthopaedics and Skin Centre,12.967324256896973,77.54468536376953,gmaps_v2,clinic,28,0.0775874560275209
ChIJ7eieXWEXrjsRZgl6Q71s1kc,Aster Labs - Sadashiva Nagar,13.007634162902832,77.57806396484375,gmaps_v2,clinic,59,0.0771782367304333
ChIJHW5-ExU9rjsRszbS981b5Js,KRIDE Corporate Office,13.01172924041748,77.55412292480469,gmaps_v2,clinic,48,0.07704819649683
ChIJZ_6QqGs9rjsRNCQvUtuVlEc,Sai Drishti Eye Clinic,13.034780502319336,77.55426025390625,gmaps_v2,clinic,40,0.0766125002693408
ChIJlbqNxCQWrjsRQPQioNTUcBg,Jayashree Speciality Hospital,12.9910306930542,77.57777404785156,gmaps_v2,hospital,165,0.0761883494642229
ChIJvTnD6IE9rjsRiIjTlPP03KA,Fusion Dental and Ortho Care,13.001707077026367,77.55481719970703,gmaps_v2,clinic,29,0.0761077565060877
ChIJjx2Gr4M9rjsRGUtJgPJZqeA,St. Theresa's Multi Speciality Hospital,13.00647258758545,77.5533218383789,gmaps_v2,clinic,189,0.075745909415442
ChIJ2WrH-dM9rjsR40u4jGWu2CY,Healios Wound and Plastic surgery Clinic - Rajajinagar,12.990289688110352,77.55641174316406,gmaps_v2,clinic,70,0.0749747276407895
ChIJn-Rr_cE9rjsR9zuWZd1Omeo,Sri Sai Ortho Neuro Physiotherapy Clinic,13.008695602416992,77.54341888427734,gmaps_v2,clinic,89,0.074831435855521
ChIJB7kaTh4XrjsRmPWlFKIgsuo,Jagruth (Empower your Inner-Self),13.036416053771973,77.56584930419922,gmaps_v2,clinic,47,0.0745140471401537
ChIJ0VhWxBU9rjsRCauX8unJSyk,LAKSHMI MEDICALS,13.008708953857422,77.54154205322266,gmaps_v2,clinic,18,0.0744494097064662
ChIJZyuRAE09rjsRNItvC_ZNiDA,Dr.Shanthi’s Clinic,12.982377052307127,77.55390930175781,gmaps_v2,clinic,29,0.0742488548634318
ChIJndltgyoWrjsRn10gZX563g8,Kidney Donor Firm,13.00859832763672,77.56214141845703,gmaps_v2,clinic,19,0.0739444304182053
ChIJn-h677g9rjsRf7KgyJAuH1o,BabyScience IVF Clinics,12.997610092163086,77.5482406616211,gmaps_v2,clinic,42,0.0736776652902525
ChIJp2EzTOQ9rjsRPgUwBbKW0g8,Dr. Karan Shetty (Dr. Shetty's OrthoCare),12.982623100280762,77.53746032714844,gmaps_v2,clinic,46,0.0733981577845428
ChIJYxW9gTI9rjsROfUgyb5QMvA,"Dr. Shruthi BR: Skin Doctor in Basaveshwar Nagar, Cosmetic Skin Care Clinic in Bangalore, Dermatologist in Bengaluru",12.998690605163574,77.54191589355469,gmaps_v2,clinic,31,0.0732818332190402
ChIJhUmjlWs9rjsRiwnZPKysohM,Dcare Physiotherapy Clinic,12.979846000671388,77.5533218383789,gmaps_v2,clinic,105,0.0728266337339148
ChIJRdlb0Hk9rjsR2HlW0DE6sik,NIRANTARA CHILD HEALTH CLINIC,13.026721954345703,77.54725646972656,gmaps_v2,clinic,17,0.0724655628232717
ChIJ6cg41gUXrjsRr0DWa88Nm8g,House Of Dentistry™️,13.004290580749512,77.58024597167969,gmaps_v2,clinic,101,0.0721717879104844
ChIJsby4fvo9rjsRFIOkufF9fvo,Ayu Health Hospitals,13.005020141601562,77.542724609375,gmaps_v2,hospital,13,0.0719743476043153
ChIJRdFTlJc9rjsRlJqyjCCn-k0,COSMODENT Multispeciality Dental Center,12.999471664428713,77.53246307373047,gmaps_v2,clinic,84,0.0710768756796831
ChIJHTjxyGw9rjsRJeaa86D_j50,Ayuralaya Ayurveda Clinic,13.031675338745115,77.55889129638672,gmaps_v2,clinic,82,0.0706285162355168
ChIJp2NRCEo9rjsRDb4iN0_LREQ,KASHYAP Orthopaedic and Womens Clinic - Dr Shashikiran R/ Dr Padmapriya G.V.,12.99710464477539,77.55133056640625,gmaps_v2,clinic,68,0.0701895240200027
ChIJ_bc1OiwWrjsR7xif7vMqCKw,Sapiens Clinic,13.008370399475098,77.57157897949219,gmaps_v2,clinic,146,0.0700578994571951
ChIJAanAmhY9rjsR-JDCtODhOEE,M. S. Physiotherapy and Rehabilitation (Home Physiotherapy services),13.003217697143556,77.5333480834961,gmaps_v2,clinic,47,0.0699625322797972
ChIJHXDJJZg9rjsRkaeoINCvpMk,Sakshi Diagnostics,12.998916625976562,77.54109191894531,gmaps_v2,clinic,144,0.0696617353209936
ChIJWR686KsVrjsRYTEDcya8ca0,Dr Mahesh Oncologist,12.992087364196776,77.57433319091797,gmaps_v2,clinic,73,0.0695766531145601
ChIJr5Axb9c8rjsRf1urg4_6e2o,Premier Sanjeevini Hospital,13.041630744934082,77.51583099365234,gmaps_v2,hospital,184,0.0685556874356915
ChIJmfgVpCY9rjsRfh3Om3mF3fs,"SKINPRO SKIN,HAIR & LASER CLINIC",12.98691463470459,77.5603256225586,gmaps_v2,clinic,44,0.0684536016982457
ChIJP1b_z_s9rjsRd9EB47HRZnI,Shree Sukshema Diagnostics,12.999841690063477,77.53990173339844,gmaps_v2,clinic,13,0.0683414583125318
ChIJfd9gtDoWrjsRBxYHpsU7MG8,The Physio Human Performance,13.008819580078123,77.58050537109375,gmaps_v2,clinic,136,0.0680922744891932
ChIJ3f9TYnY9rjsRCyT2bqlNWc4,Mathru Dental Care,12.990365982055664,77.54920196533203,gmaps_v2,clinic,30,0.0678541527343574
ChIJ_0f3U3cXrjsRZEyoB4c7rQc,Maayra Emotional Wellness Centre,12.99972915649414,77.56839752197266,gmaps_v2,clinic,25,0.0674046077352966
ChIJkRXPqpw9rjsRnDfx1ebdPw8,ADI Advanced Centre For Fetal Care,12.998418807983398,77.55036163330078,gmaps_v2,clinic,37,0.0669140779533937
ChIJ-yS1SMY9rjsRishsZVK9k6I,Ayu Health Hospitals,13.0322904586792,77.55838012695312,gmaps_v2,hospital,19,0.0663779720882568
ChIJYzx0EMIXrjsRntM8AhXAACI,"Dr. ChandraShekar A MD DrNB FASN (USA) MSc Organ Transplantation (UK), PhD (Vellore)",13.004910469055176,77.56918334960938,gmaps_v2,clinic,53,0.0661999324700549
ChIJaxWip1Q9rjsRIOpxWg2kfJg,Best Cardiologist in Bangalore Shri Kanhaiya Diagnostics,13.01153564453125,77.53292083740234,gmaps_v2,clinic,73,0.0652920052221181
ChIJIyTKsds9rjsRCKTBBXcLyx8,Dr.Aravind's Diabetes Centre,12.986364364624023,77.54029846191406,gmaps_v2,clinic,87,0.0652727236335184
ChIJXSqQFpQ9rjsR5aLGnu1rkEQ,ESI Dispensary I - Rajajinagara,13.004595756530762,77.55400085449219,gmaps_v2,clinic,254,0.0650610840468123
ChIJk8P3KUgXrjsRHQBe1-87RpY,"Dr. Harish Puranik, Orthopaedics & Arthroscopic Surgeon and SPORTS Medicine Specialist",13.00743007659912,77.5636215209961,gmaps_v2,clinic,78,0.0649557288616485
ChIJFVVV5eEXrjsR2evC2H7SSK8,"Milann Fertility Center in MS Ramaiah, IVF Center",13.028397560119627,77.57044219970703,gmaps_v2,hospital,127,0.0648605908999151
ChIJVa0ceC4WrjsR8l_tP4c-vdA,SANJEEVINI COLD LASER,13.00592803955078,77.57129669189453,gmaps_v2,clinic,137,0.064780190974157
ChIJDewSyp49rjsRdqggdwX4dbs,Namratha Hospitals,13.004502296447754,77.54327392578125,gmaps_v2,clinic,152,0.0645798728118563
ChIJ3T32f-wXrjsRmJB4RQH6sOg,"Alleviate Pain Clinic, Sadashiva Nagar, Neck Pain, Shoulder Pain, Knee Pain Treatment, Back Pain, Hip Pain Management",13.005227088928224,77.5804672241211,gmaps_v2,clinic,102,0.0641163765781613
ChIJQ3VOO5gXrjsRDB5ZwqwVjwI,Tamahar Trust - Early Intervention Centre,13.003972053527832,77.56228637695312,gmaps_v2,clinic,25,0.0639273406581438
ChIJXaiRaJE9rjsRrZus544OkNs,OLYMPUS DIAGNOSTICS,12.997051239013672,77.52723693847656,gmaps_v2,clinic,24,0.0638383608761975
ChIJjYFgYpc9rjsRhCvN00MvCgo,Dr. M.C. Modi Eye Hospital,12.998273849487305,77.5460433959961,gmaps_v2,clinic,195,0.0633786840143795
ChIJcWqdjtwXrjsRhgJ-zeP90U4,Ear2Hear Clinic - Best Hearing Aids and Speech Therapy in Bangalore.,13.029858589172363,77.57108306884766,gmaps_v2,clinic,167,0.0631550230487296
ChIJxwgHbx0XrjsRhWQotDvtOdw,SIDDHARTH HOME NURSING SERVICES,13.002737045288086,77.57646942138672,gmaps_v2,clinic,55,0.062904533435209
ChIJG_ijPOUXrjsRV8c5IF9bOlU,Pinklemon Accessories,13.029300689697266,77.57112884521484,gmaps_v2,hospital,166,0.0628883373687092
ChIJCbA0oNwXrjsRty1C8dBnZLc,Globe Spirits,13.0284423828125,77.57200622558594,gmaps_v2,hospital,218,0.0623933711177304
ChIJD5KUY-sXrjsR1ZQqkPZMvy4,Glamyo Health,12.986672401428224,77.57234954833984,gmaps_v2,clinic,35,0.0620822663114893
ChIJCWwi0isWrjsR3crr9tK7O6M,Centre for Child Development And Disabilities,13.006064414978027,77.56507110595703,gmaps_v2,clinic,147,0.0620298818777825
ChIJP0l6MJY9rjsRrewYnCId_mo,Family Smiles Dental Clinic,12.99436092376709,77.53958129882812,gmaps_v2,clinic,19,0.0619022964862075
ChIJl4YD-Gg9rjsRg6wNUuoESac,Active Health Diabetes Centre | Dr Vasu HV - Diabetes (Sugar) and Obesity Reversal Doctor | MC Layout Bengaluru,12.975207328796388,77.54475402832031,gmaps_v2,clinic,32,0.0618751071283287
ChIJzUaiMb49rjsRN8MZh6Aros8,SAPTHAGIRI MEDICALS,12.990572929382324,77.53821563720703,gmaps_v2,clinic,66,0.0615613311238734
ChIJFcyWRJk9rjsR-pKy0QrMVXU,Atharva Eye Hospital,13.003303527832031,77.54391479492188,gmaps_v2,clinic,134,0.061240601414274
ChIJFeJAmzMWrjsREP4BsuYfCQU,Orchards Dental Care & wellness Centre,13.007672309875488,77.58134460449219,gmaps_v2,clinic,120,0.0601790532306072
ChIJowmAX_M9rjsRK4VHeN4eWHc,Orthocare | | Dr Chethan Nagaraj,12.986733436584473,77.55624389648438,gmaps_v2,clinic,80,0.0601588763547355
ChIJYxHlhtI9rjsR1FNLrdyYCDQ,Dr.Renuprasad,13.006585121154783,77.54373168945312,gmaps_v2,clinic,52,0.0599280990862458
ChIJC02Ze0Y9rjsRrnoQxmv5NDA,Sumukha Dental Clinic - Dr Renuka Murthy,13.002333641052246,77.55339813232422,gmaps_v2,clinic,82,0.0596073772913005
ChIJ_VpxP6E9rjsRer8HuUoywK0,Medfin Clinic-Rajajinagar Bangalore,13.007593154907228,77.55459594726562,gmaps_v2,clinic,40,0.0594521075428072
ChIJ75eYkj4WrjsRxQ7olObnSB4,Samprathi Eye Hospital and Squint Centre,12.993179321289062,77.58068084716797,gmaps_v2,clinic,182,0.0593783834544744
ChIJ98B7e6w9rjsRXt7f5g1ceaE,Kirunage Dental Care,13.043102264404297,77.51185607910156,gmaps_v2,clinic,41,0.0593418611684225
ChIJnVSNPxo9rjsRIGPw--TRvvA,Sacred Heart College Of Nursing,13.04714584350586,77.50286102294922,gmaps_v2,clinic,43,0.0592146060399758
ChIJw69IwfM9rjsRW5mkAKhIu4Q,Skinxperts Super speciality Skin Hair and Laser Clinics,12.983321189880373,77.55442810058594,gmaps_v2,clinic,60,0.0588798129221153
ChIJn2JdKSQ9rjsRVFgvTEVy0xA,Apple Diagnostics (ONCQUEST laboratories),13.007128715515137,77.54835510253906,gmaps_v2,clinic,17,0.0583850801316144
ChIJqfNVvC8WrjsRkZsuKP-cRG4,Nanda Dental Clinic,12.998940467834473,77.57546997070312,gmaps_v2,clinic,132,0.0581047453584295
ChIJy_JO-pk9rjsRre9n1GNAzS4,Dr Akhil's Dental Clinic,12.997159004211426,77.55126190185547,gmaps_v2,clinic,18,0.0573558404358453
ChIJaTabRtA8rjsRnBNtO2ZcX1Q,ESIC model Hospital Peenya,13.024822235107422,77.531005859375,gmaps_v2,clinic,170,0.0570761963023857
ChIJAQAAwLc9rjsR3fzQd6nYq6Q,Matru Multispeciality Hospital,12.98961353302002,77.53888702392578,gmaps_v2,hospital,155,0.0569757450653982
ChIJBScxtyIWrjsRx23FJgqDWn4,Amplifon,12.99295139312744,77.57231903076172,gmaps_v2,clinic,71,0.0567242757180402
ChIJd4eXuyg9rjsRS2VNNisDMjA,Sumukha Children's Clinic ( DR SUNIL GANJAMAD),13.043288230895996,77.51315307617188,gmaps_v2,clinic,14,0.0567112164152716
ChIJE8R9PncWrjsRCuBtnQna0lw,Government Unani Medical College,12.983257293701172,77.5365982055664,gmaps_v2,clinic,171,0.0566416076573883
ChIJW2qCVYw9rjsRxb9KVQmoJz0,ESI Post Graduate Institute of Medical Science and Research,12.99066925048828,77.55352783203125,gmaps_v2,clinic,168,0.0565695349631679
ChIJq_cQW2M9rjsRz17rskfsYeY,Priyanka rastogi Clinical Psychologist,13.032485961914062,77.55435943603516,gmaps_v2,clinic,34,0.0565639502864185
ChIJqfH4KeQXrjsR2hB5kOa1xt8,"Wigs Castle | Hair Fixing Studio, Bonding, Clipping, Taping, Weaving, Extensions, Ladies Wigs, Chemo wigs",13.033477783203123,77.56774139404297,gmaps_v2,clinic,55,0.0550523564476498
ChIJK5UH3wsXrjsREZipJQWK6js,Sri shakthi health care,12.988921165466309,77.5740966796875,gmaps_v2,clinic,27,0.0547435954358184
ChIJNznWUHY9rjsRjxHLwMV52So,Nurseva Home Health Care Services,13.03805160522461,77.55778503417969,gmaps_v2,clinic,75,0.0546019395165047
ChIJaSZsiXsXrjsRbUeRVb5FxhM,Metropolis Healthcare Ltd,13.001129150390623,77.57300567626953,gmaps_v2,clinic,33,0.0545142573558589
ChIJ92Zr_vA9rjsRTUD8Eu4IrsY,Neurotherapy Center,12.979880332946776,77.55335998535156,gmaps_v2,clinic,128,0.0542109892761435
ChIJ8bi2IQE9rjsRyeZ4ENv4xAw,THE ENT & ALLERGY CLINIC,12.987062454223633,77.54991912841797,gmaps_v2,clinic,11,0.0539891898917512
ChIJxXkVVrgXrjsRjY-f0AEsO_A,Ishika diagnostic center,13.002044677734377,77.5610580444336,gmaps_v2,clinic,24,0.0539386686435161
ChIJM61GCls9rjsRXuHVlEQbtTk,"Dr Vinay Kumaraswamy, Orthopaedic surgeon, Fortis Rnr",13.00221061706543,77.54908752441406,gmaps_v2,clinic,40,0.0538537257077974
ChIJ5wqnQ_09rjsRVLemPqes_hY,Ishkriti Physiocare (Physiotherapy),12.97389316558838,77.54759979248047,gmaps_v2,clinic,73,0.0538211942883076
ChIJ6dhH_z4XrjsRt_cEIi0kYvw,Procure Dental,13.00392723083496,77.5836181640625,gmaps_v2,clinic,31,0.0534407948759567
ChIJQ0UNnfo9rjsR3Mkv1kIBmm4,USTAD KAYANGADI PAPANNA'S POLYCLINIC & DIAGNOSTIC Since 1860,12.976332664489746,77.55254364013672,gmaps_v2,clinic,145,0.0532298091724087
ChIJVcpeDNk9rjsR0wYorP7X54A,Dr. Kiran Puttaramaiah's Skin & Hair Transplant Clinic,13.00303840637207,77.52629852294922,gmaps_v2,hospital,34,0.0531974538238277
ChIJQ6bA2lk9rjsRlTRWe2zH8AA,SmilenFace,12.993523597717283,77.5389175415039,gmaps_v2,clinic,30,0.0530182370053467
ChIJpTJF2ps9rjsRSSdQWLxqsPY,KULKARRNI’S MEDZONE,13.003554344177246,77.54790496826172,gmaps_v2,clinic,135,0.0529809862759441
ChIJsX85BXEXrjsR1AmZKDmGITY,MS Ramaiah Old Hospital,13.02898406982422,77.56847381591797,gmaps_v2,clinic,83,0.0524971892898559
ChIJ59VmviUWrjsRpU9_rfVHDYk,Vijaya international homeopathy,12.99850082397461,77.56949615478516,gmaps_v2,hospital,34,0.0523166288002151
ChIJZ8MqPtIXrjsR5QswoDcUczM,"Dr. Abhishek M L, Consultant Psychiatrist",13.001693725585938,77.5656967163086,gmaps_v2,clinic,55,0.0521646284498045
ChIJu4r3EyUWrjsRtA62iADiwj8,Armour Fitness Studio,12.998250961303713,77.57152557373047,gmaps_v2,clinic,115,0.0520511004344422
ChIJb3X7ftc8rjsRB71iEE_umZw,SUPRIYA DENTAL,13.042603492736816,77.51299285888672,gmaps_v2,clinic,151,0.0520286866838302
ChIJo9SU7vQ9rjsRNnFCb3fKTlU,Spandana Nursing Home,12.984773635864258,77.55814361572266,gmaps_v2,clinic,163,0.0515625716009529
ChIJ8U_--HFbozsRLC_3Pgs7aac,Gamca Mangalore (Taha enterprises),12.988729476928713,77.57560729980469,gmaps_v2,clinic,84,0.0513824921252061
ChIJpyty8589rjsRkUAfT78AUJY,"Lakshmi Health Clinic | Best Doctor for Diabetes Management, Viral Fever Treatment & Allergy Treatment",13.008343696594238,77.56034851074219,gmaps_v2,clinic,88,0.051334467959749
ChIJmVRiRB4XrjsRn8y8s8Z0998,"Officers IAS Academy, Bengaluru",13.02985668182373,77.56584930419922,gmaps_v2,clinic,79,0.0508267708957015
ChIJGwzgk6gVrjsRHP6y5fxfIkw,Caree Fertility,12.991369247436523,77.53819274902344,gmaps_v2,clinic,127,0.0507308761280283
ChIJTXyxQw4XrjsR93KtelHBDOE,Dr. Abhijit Bhograj | Expert Endocrinologist | A-Health Clinic,13.01314640045166,77.57606506347656,gmaps_v2,clinic,23,0.0506389820524918
ChIJx03-2cI9rjsROYWyJ3aYbRE,"PragyanCDC Rajajinagar-1 (Speech, Occupational, Physio, Behavioral/ABA, Psychologist Consultation, Development Assessment)",12.999223709106444,77.5501708984375,gmaps_v2,clinic,35,0.0502972318575813
ChIJD2bnBtgXrjsRax3y5LY0k2w,Dr. Deepak G Shivarathre,13.005045890808104,77.56368255615234,gmaps_v2,clinic,17,0.0495328056196532
ChIJy0hPBnY9rjsRP9yb8DwvfRM,Raghav Dental,12.98665714263916,77.5400390625,gmaps_v2,clinic,27,0.0491823217635758
ChIJGSG-6bI9rjsR_S7Bu9kQiSk,ANIMISHA DERMATOLOGY AND SKIN SURGERY CENTER,13.00165557861328,77.54460144042969,gmaps_v2,clinic,64,0.0489689540497619
ChIJmUncIrwVrjsRxlBdzptPFW0,Dr. Anjanappa Polyclinic and Day CARE,12.98798942565918,77.55535888671875,gmaps_v2,hospital,11,0.0484773501007292
ChIJo37Ysp89rjsRT-MNRsgA4fw,Sharma Nethralaya,12.997758865356444,77.54075622558594,gmaps_v2,clinic,46,0.0476669307753327
ChIJA8iK8xgXrjsR2918l2Hq__E,"Dr. Mamatha C V - Best Gynecologist at Cloudnine Hospital, Bengaluru",13.008151054382324,77.56253051757812,gmaps_v2,clinic,12,0.0471045212435121
ChIJ2TIPczE9rjsRJQhoQe2yq6w,Muniswamy Clinical Psychologist,13.032478332519531,77.55430603027344,gmaps_v2,clinic,67,0.0470564376564752
ChIJgX8dCS8WrjsRhJ62eFS-gX0,RICH CARE HOMEOPATHY,13.001545906066896,77.5721664428711,gmaps_v2,hospital,109,0.0470482945327949
ChIJO7oT4f49rjsRWkUFKeFUmfk,Dr. Shafalika S B | Best Gynecologist in Yeswanthpur | Manipal Hospital Yeswanthpur,13.014189720153809,77.55606842041016,gmaps_v2,hospital,11,0.0470016819025671
ChIJD2daWF89rjsR1ZBl03psOrM,Dr Manimaran - Varicose Veins Specialist,13.028207778930664,77.55878448486328,gmaps_v2,clinic,17,0.0469500676057958
ChIJk82GyC0WrjsR2zWG5jrtAWA,Utkarshas Dental & Implant Clinic,13.007092475891112,77.57125854492188,gmaps_v2,clinic,163,0.0468778537857132
ChIJJX7ovngXrjsR7BjMls-TbGE,"HCG Day Care Centre, Malleshwaram",13.005966186523438,77.57136535644531,gmaps_v2,clinic,31,0.0466885732018048
ChIJ68_DwNI9rjsRKK5DzlkGSSw,LOTUS HOSPITAL,13.000290870666504,77.53423309326172,gmaps_v2,clinic,85,0.0463486851088194
ChIJG7oLNX49rjsR1P2P7OLVzz4,Delta Dental Care,13.002883911132812,77.55023193359375,gmaps_v2,clinic,24,0.0462312439736182
ChIJZ-UVrBA9rjsRPl9Bqi9yGd0,Pragathi Dental Care,13.015698432922363,77.54889678955078,gmaps_v2,clinic,82,0.0458103882116152
ChIJ_ym2jDQWrjsR70udUMh1hPE,Skinologycentre,13.009449005126951,77.58367919921875,gmaps_v2,clinic,88,0.0455260247078439
ChIJ1b3wTo8XrjsR-3mA5TM4lF0,Dr. Umesh Gupta,12.985133171081545,77.55967712402344,gmaps_v2,clinic,48,0.0453248517106197
ChIJ28DziDwXrjsRtqXvfjI10ww,"Dr. Mukta Nadig - Best Gynecologist at Cloudnine Hospital, Bengaluru",13.008151054382324,77.56253051757812,gmaps_v2,clinic,12,0.0453000419969139
ChIJDWo1cykWrjsRw7EkQ1p_IpU,Dr Kaushik k Murthy's Children's Clinic,13.004232406616213,77.5639877319336,gmaps_v2,clinic,104,0.0452729239951465
ChIJ7Vvi9d0XrjsRUBZ3sKPoB8U,Dr Prabhakar C Koregol,13.00455379486084,77.57054901123047,gmaps_v2,clinic,48,0.0450801865775353
ChIJTVm73-EXrjsRDetCRCGgoCI,Facial Aesthetics Center,13.037604331970217,77.56208038330078,gmaps_v2,clinic,104,0.0449152476628835
ChIJQZBbAeQ9rjsRt6bY7sjWsJs,Manasa Hospital,12.970902442932127,77.5450439453125,gmaps_v2,clinic,96,0.0447776821605685
ChIJvYUI6oM9rjsR2arYOvAjhX0,Tender Moments Pre School,13.006245613098145,77.55509185791016,gmaps_v2,clinic,91,0.044765755854762
ChIJ-__Dr509rjsR9F8uoXdKVk8,Suprabha Maternity and Medical Center,13.007933616638184,77.54698181152344,gmaps_v2,clinic,126,0.0447411418311416
ChIJycRJMC8WrjsR8-rdQiHP1IA,Dr. Ashwath Narayan,13.001526832580566,77.56819915771484,gmaps_v2,clinic,119,0.0446737327601977
ChIJ817xAmA9rjsRklF9E62Gjv8,Fire To Fly - Counselling & Psychotherapy Center,13.00640106201172,77.54927062988281,gmaps_v2,clinic,24,0.044590837455968
ChIJnWk_h-EXrjsRmcsZdUznT4A,"Dr. Akhil's Advanced Skin Hair & Cosmetic Clinic, Bangalore",13.038723945617676,77.56498718261719,gmaps_v2,clinic,100,0.04453904937183
ChIJFRodEGg9rjsRUjx3NCyD0XQ,Dr. Khushal D Shah | Best Neonatologist in Yeswanthpur | Manipal Hospital Yeswanthpur,13.014188766479492,77.55606842041016,gmaps_v2,hospital,16,0.0443591816590956
ChIJZ4q0iyUWrjsR96p4PMaaj7o,"Lawrence & Mayo, Malleswaram",12.997718811035156,77.56954193115234,gmaps_v2,clinic,128,0.0435947389516465
ChIJw1gg0KI9rjsRKWPbBWnhW2o,RNP Dental And Orthodontic Care Center,12.99758529663086,77.5484619140625,gmaps_v2,clinic,35,0.0434224014762008
ChIJdanKFL89rjsRhcxQ0FBdgBY,Cosme Skin and Hair Clinic,12.988165855407717,77.53463745117188,gmaps_v2,clinic,101,0.0434074564831717
ChIJz2jyfNwXrjsRidliuFesOMg,Dwaraka Auditorium,13.02876091003418,77.57028198242188,gmaps_v2,hospital,75,0.0431417494346899
ChIJj41ZMocXrjsRl2OUS2XutAY,Namma Physio,13.008788108825684,77.56340789794922,gmaps_v2,clinic,42,0.0430356861639189
ChIJM3zCMh4WrjsR0wrVYrXXUCs,G S K Store,12.985350608825684,77.56278228759766,gmaps_v2,clinic,89,0.0427483288425425
ChIJnaOoGes9rjsRJPv5XVPQvrE,Sumukha Child care,12.99982738494873,77.53058624267578,gmaps_v2,clinic,29,0.0424642094640683
ChIJhWPtAl89rjsRvbxHSRpDrHw,"Dr. Parameshwara CM - Best Fistula, Fissure, Piles Doctor/Surgeon in Bangalore, India, Best general surgeon in Bengaluru",13.032318115234377,77.5583724975586,gmaps_v2,clinic,55,0.0420555700637832
ChIJ64XDN3M9rjsRDdgNpRuy4_I,BL Hospital (Boregowda Lingamma Hospital),13.016841888427734,77.53938293457031,gmaps_v2,clinic,99,0.0419058044173762
ChIJAec-K7U9rjsRTDfihbCobx0,Shanti Clinic & Physiotherapy Centre,13.026619911193848,77.5582046508789,gmaps_v2,clinic,45,0.041862639377394
ChIJ2QzmxCc9rjsRO_NRUSsgUu8,Excel Kalyana Mantapa,13.041797637939451,77.51801300048828,gmaps_v2,hospital,92,0.0417461672637856
ChIJhwGiXg49rjsRGhqA-MqE2Zs,Kanteerava Studio,13.018197059631348,77.53157806396484,gmaps_v2,hospital,115,0.0414143353996388
ChIJjX-u0gs9rjsRhvpOOOgMLIA,Trinity Homeopathy Clinic,12.980950355529783,77.53291320800781,gmaps_v2,clinic,41,0.0411497249889441
ChIJA8l6MfM9rjsR5KcfV9QRtv8,Kotak Life Insurance,13.000611305236816,77.55187225341797,gmaps_v2,clinic,107,0.0410227388391752
ChIJRc_Sh2A9rjsRPDOfo0wdwH4,Dr.Shah's Diagnostic Center(Dr Anil Shah),13.03253936767578,77.55901336669922,gmaps_v2,clinic,105,0.0408683804660439
ChIJsdbWwi4WrjsRmE_E8CVeRdY,ChanRe Diagnostic Laboratory (A unit of ChanRe Laboratory Pvt Ltd),13.001324653625488,77.5694808959961,gmaps_v2,clinic,119,0.0408327520800712
ChIJu7m3imk9rjsRd9XjY9yW_gk,Healion Health Care,12.985251426696776,77.53728485107422,gmaps_v2,hospital,20,0.0407734265987713
ChIJbyAu59I9rjsRRdp-7vOihHw,MANOVANA MIND CARE,12.973791122436523,77.54415130615234,gmaps_v2,clinic,53,0.0407344788043363
ChIJqwhBP789rjsRvRb3C8gosPQ,Gopala Nethralaya,12.988320350646973,77.53434753417969,gmaps_v2,clinic,91,0.0404982087330752
ChIJTb7bYtsXrjsRbvRWjuKm0f4,MS Ramaiah Hospital,13.027069091796877,77.57169342041016,gmaps_v2,clinic,89,0.0402864231825229
ChIJ22fBIgg9rjsRB58yTXspxPg,Spandana Hospital Rehabilitation Center,13.010282516479492,77.52928161621094,gmaps_v2,hospital,102,0.0401545671985984
ChIJnzMHNDA9rjsRbAtygx4XATY,Precision Oncology Clinic - Cancer Center in Bangalore,12.973727226257324,77.54449462890625,gmaps_v2,clinic,56,0.0401442667994078
ChIJ51oguy8WrjsR7xZXNRvmB0E,DECKLINE LEITAO,13.005410194396973,77.56220245361328,gmaps_v2,clinic,54,0.0401087785561634
ChIJRWtC6Qs9rjsRQIN8R4QRaYs,"Dr.Indira Bai at Maa Durga Clinic, Mathikere",13.032543182373049,77.55863189697266,gmaps_v2,clinic,65,0.0398872633661111
ChIJy4z161o9rjsRiXIqDv0bQ6k,Dento Cure,12.979918479919434,77.5550308227539,gmaps_v2,clinic,31,0.0396974233461341
ChIJI68yBCwWrjsRULqzkAb8XsI,Sampige Onco Diagnostics,13.006001472473145,77.56803131103516,gmaps_v2,clinic,80,0.0394150790858828
ChIJrUhhoSYWrjsRybmfdYkNKlQ,DENTAL 360,12.996286392211914,77.56682586669922,gmaps_v2,clinic,92,0.0393895587669218
ChIJl7dVVt8XrjsRbL5K6qOWGpg,ORAL D MATHIKERE,13.02830410003662,77.5621337890625,gmaps_v2,clinic,39,0.0392249514647101
ChIJTwH-EzoWrjsRDgJKo-wNVR8,Bilva Hospital,12.998921394348145,77.58020782470703,gmaps_v2,hospital,78,0.0391968858669762
ChIJjUpidYQ9rjsRD5zw4Xz3LQc,Life Saviour Health Care,13.031526565551758,77.55355834960938,gmaps_v2,hospital,37,0.0391662777564407
ChIJVVU8ENg8rjsR_kFnc5LDNPY,Lakshmi Nursing Home,13.041683197021484,77.5151596069336,gmaps_v2,clinic,57,0.0391475745995674
ChIJSTqzpf0XrjsRC_vjUoXyb6Y,Dr. Soumya Soragavi Skin Clinic | Best Dermatologist in Malleshwaram | Healthyskinco,13.007518768310549,77.56367492675781,gmaps_v2,clinic,27,0.0390775480775037
ChIJoW-mDKo9rjsRt0f2ZKZ7j5I,Statistician-Medical,13.037151336669922,77.531005859375,gmaps_v2,clinic,63,0.0390206001413034
ChIJk8yuS_I9rjsRGPcyCVdjvvU,Diacon Hospital,13.003826141357422,77.5497055053711,gmaps_v2,hospital,106,0.0389632032187799
ChIJs4VdIpY9rjsRPYaKmiE3RPY,Manjushree Clinic,12.994281768798828,77.53954315185547,gmaps_v2,clinic,15,0.0388854027378564
ChIJlT02kUYZrjsRCKFMCqTzG80,"Dr Karthikeyan Y R - Best Neurosurgeon, Spine Surgeon - Bangalore",12.996758460998535,77.57227325439453,gmaps_v2,clinic,11,0.0385832509555484
ChIJ0cxdsgY9rjsRym02-GcX-qQ,Akshatha Dental Clinic,13.012181282043455,77.54390716552734,gmaps_v2,clinic,63,0.0385532679387313
ChIJC6fzk2I9rjsR-H50Xuxt8wk,Amplifon,12.997187614440918,77.54024505615234,gmaps_v2,clinic,65,0.0385314365922638
ChIJkWFYa549rjsRVtsOe00X0Eg,Dr.Vasudha's Dental Clinic,13.008414268493652,77.54368591308594,gmaps_v2,clinic,73,0.0385105697659923
ChIJTyeYAX49rjsR52p1GYMwp1M,PHYSIO X10 - Basaveshwara Nagar,12.988749504089355,77.54312896728516,gmaps_v2,clinic,38,0.0383341907308132
ChIJie7nk_I9rjsRXyWoOxO_OCo,Happy Healthy Hospital (Shushrutha Urology & Andrology Clinic),12.98880100250244,77.54679107666016,gmaps_v2,clinic,83,0.038104192309189
ChIJDUl0zr49rjsRMNzu3Y6c3Zs,PROGUT GASTRO CENTRE,13.043306350708008,77.51128387451172,gmaps_v2,clinic,29,0.0378521383021294
ChIJ5R3LK4I9rjsRgF6Nq2TrVqg,Mamatha Nursing Home,13.00794506072998,77.55601501464844,gmaps_v2,hospital,58,0.0377656983277946
ChIJkw9v9uY9rjsRhMzfmS0PrLM,Dr.Nagbhushan Skin Care Clinic,12.972734451293944,77.54200744628906,gmaps_v2,hospital,91,0.0377167303445904
ChIJ9ziBFPQXrjsRtPmqPMaXSnE,Affinity Dental,13.007481575012209,77.56806182861328,gmaps_v2,clinic,26,0.0374997996805572
ChIJWfmmStc9rjsRQ_lW-3gXo7w,Tambi AMA Motors,13.022157669067385,77.52873992919922,gmaps_v2,hospital,16,0.0361155169858925
ChIJ03V8UsM9rjsRgH_wcbx26JM,4D Diagnostics & Polyclinics,12.975540161132812,77.54155731201172,gmaps_v2,clinic,93,0.0360434609533008
ChIJE1Y2P4gXrjsR1VqyNjPn6VY,Top rock dance studio,13.029306411743164,77.57107543945312,gmaps_v2,hospital,16,0.0354778528528335
ChIJJ4cRMPM9rjsRfWuX9BsP8So,Bangalore Diagnostic & Multi Speciality Centre,12.987192153930664,77.55413055419922,gmaps_v2,clinic,49,0.0354066427749327
ChIJS23XSqk9rjsRqmDfSbunQuw,ESI local office peenya industry,13.037148475646973,77.52299499511719,gmaps_v2,hospital,42,0.0351262604079623
ChIJf1YBkSk9rjsRXC1H07YvwgY,Genesis Playhome and Daycare / Hello Kids Rajajinagar,12.98456859588623,77.55204772949219,gmaps_v2,clinic,55,0.0351118334060544
ChIJl-InY4E9rjsRv20GP9mQCkU,NCDclinic Dr Niveditha Alok Swamy Physician -On Apollo 24|7,12.99838161468506,77.54154205322266,gmaps_v2,clinic,50,0.0348730948301565
ChIJl-kvm-E9rjsR1_0IuDWsATU,ShiVish Medical and Dental Care,12.978730201721191,77.5408935546875,gmaps_v2,clinic,50,0.0347802009648317
ChIJdWwXoKY9rjsR0sKN9KPjOz0,Dr. Ambarish Punya Bhoomi,13.01926040649414,77.53240966796875,gmaps_v2,hospital,58,0.03473927357858
ChIJmxwCCgEXrjsRDUoqosKwvaA,SHIVA A.R.Hospital,12.972901344299316,77.56259155273438,gmaps_v2,clinic,26,0.0340655929474032
ChIJ66L_4ew9rjsRtqJvVaX8yoA,"Santhasa Child Care, Dr LOKESH T R",12.98573398590088,77.5473403930664,gmaps_v2,clinic,93,0.0338402500479121
ChIJOb9EtaI9rjsROJpgZ9ueM8g,Gruhalakshmi Samudaya Bhavana,12.998409271240234,77.53762817382812,gmaps_v2,hospital,86,0.0338053536562787
ChIJ2SLZgI89rjsR3aoSP8WbMKE,PRABHU DENTAL CARE,13.000813484191896,77.55339050292969,gmaps_v2,clinic,83,0.0337201764971366
ChIJV672wjkWrjsRWiB5M9-4dNU,Doctor Nazir Clinic,12.999842643737791,77.5806655883789,gmaps_v2,clinic,93,0.0334908080419352
ChIJ272xihE9rjsR63AQIMptgz8,Siddhi Diagnostics,12.985682487487791,77.54296875,gmaps_v2,clinic,32,0.0334712087739408
ChIJaRDNCL0_rjsRikRa6Yo1FVU,YS Desai Specialty Healthcare,12.986126899719238,77.54175567626953,gmaps_v2,clinic,39,0.0332961847410194
ChIJXStzwzEXrjsRdLLn8lsDAdg,RAKSHA HEART CLINIC,13.00711154937744,77.57083892822266,gmaps_v2,clinic,34,0.0332501746947154
ChIJzUuL9wEWrjsRyodAbwh0Wz4,Bosco Yuvakendra,12.972795486450195,77.56278991699219,gmaps_v2,hospital,30,0.0329708066784862
ChIJHzIg79s9rjsRLX_dEHAeDwg,Able Care,12.999918937683104,77.53922271728516,gmaps_v2,clinic,26,0.0328727644025189
ChIJfwBJaDk9rjsRxws-8srmJA0,Dr. Bharath G - Surgical Oncologist in Bangalore - Robotic Oncologist,12.973814010620115,77.54425048828125,gmaps_v2,clinic,42,0.0327924103787978
ChIJ55MWLZY9rjsRLDD1FfhY68Q,Kolkebail Derma care clinic,12.995328903198242,77.53947448730469,gmaps_v2,clinic,69,0.0326553985822114
ChIJA7gV7Y89rjsReKEWZ0VVA1Y,Aditya ayurvedic clinic and panchakarma Kendra,12.995853424072266,77.5513687133789,gmaps_v2,clinic,82,0.0325648499721669
ChIJVyoTQhoXrjsRTXg2kE7ESJA,Vcare,12.996253967285156,77.57162475585938,gmaps_v2,hospital,22,0.0325493820600505
ChIJoUj5V4Y9rjsRC_WrDGkRwp0,Athmeya polyclinic & Diagnostic Centre,13.002290725708008,77.55838012695312,gmaps_v2,clinic,80,0.0324504760055725
ChIJmeDg42g9rjsRrKCfXSQcplk,SHANKARA CARDIAC CENTER,13.042381286621094,77.51248931884766,gmaps_v2,clinic,50,0.0323964371208365
ChIJI9hYe749rjsRlxwKllNjmqI,Dr.Shankar Orthopaedics Speciality Centre,12.99465274810791,77.53972625732422,gmaps_v2,hospital,89,0.0322931953362538
ChIJ39mPh909rjsR75axHjYbuX0,Smile And Glow Multispecialty Dental Cli,12.97242832183838,77.53887176513672,gmaps_v2,clinic,33,0.0321072692695416
ChIJubz21-w9rjsRuPDsvaaKcPw,Fab Dental - Pediatric dentistry I Dental implants I Braces I Invisalign,12.986465454101562,77.53714752197266,gmaps_v2,clinic,45,0.0320235255625074
ChIJif9EFl49rjsR5wpBVXqg6wo,Dr. Swamy's Dental Concepts,13.034156799316406,77.55786895751953,gmaps_v2,hospital,54,0.0316897473750611
ChIJDUi1eXEXrjsRo9rvlgvuXgo,Practo Care Surgeries,12.987103462219238,77.57858276367188,gmaps_v2,clinic,23,0.031578108336557
ChIJ____v74VrjsRas9ujuvzBNY,COSMO Imaging & Diagnostic Center,13.003155708312988,77.54998779296875,gmaps_v2,clinic,49,0.0314923949615262
ChIJzWdhaKYXrjsR2baUYL2f6ok,"Dr. Shashidhar K P | Best Vascular Surgeon in Bangalore, Karnataka",12.98830223083496,77.57268524169922,gmaps_v2,clinic,68,0.0314785285140244
ChIJEwzg5sU9rjsR4RuQWWtawRk,Confident Hospital,13.017332077026367,77.54307556152344,gmaps_v2,clinic,23,0.0312563205299179
ChIJxVAfRhEXrjsRywyXuK33ay4,GOKUL ORTHOPEDIC AND PHYSIOTHERAPY CLINIC,13.033720970153809,77.55811309814453,gmaps_v2,clinic,29,0.0311518485518866
ChIJR0IkRZc9rjsRUtJAhT4ClCg,"Sai Krupa Multi Speciality Dental Care Hospital|Implantology,Dental Surgeon,Dental Implants in Basaveshwaranagar,",12.997777938842772,77.54366302490234,gmaps_v2,clinic,63,0.0311234658604877
ChIJ4w3IKiwWrjsRsE2hgapboDE,Physio 365,13.005681991577148,77.57044982910156,gmaps_v2,clinic,60,0.0310716493173101
ChIJB7AFiXw9rjsRJJUDiCzg9E0,Bites and Braces Dental Clinic,13.026358604431152,77.5482406616211,gmaps_v2,clinic,90,0.0310048859370079
ChIJo6A-r4s9rjsRSfqNO46rnDA,Mirror Health,12.998289108276367,77.54165649414062,gmaps_v2,clinic,49,0.0309751271616548
ChIJDx2cexQWrjsRU3-6sBTNPh8,Gamca Center,12.98866367340088,77.57450866699219,gmaps_v2,clinic,77,0.030880466489625
ChIJgax-VMM9rjsRzvYbmzuMCcg,Triveni Orthopaedic & Scanning Center,12.975647926330566,77.54204559326172,gmaps_v2,clinic,70,0.0307182939742155
ChIJO7HZ_Rc9rjsRIjWqXUzHMk4,1P SRI RAM HEALTH MART,12.981468200683594,77.54279327392578,gmaps_v2,clinic,16,0.0307133263354464
ChIJRcyWg-g9rjsRcSnTsvvV16k,Vijaynagar Orthopedic and spine Center,12.976158142089844,77.54239654541016,gmaps_v2,clinic,84,0.0306308480900871
ChIJmyq7kow9rjsRsDtFh64TaII,PULSE HOSPITAL,12.999540328979492,77.53070831298828,gmaps_v2,clinic,43,0.0306235114086015
ChIJtV0Im-Y9rjsRy5Dutmigsf8,SADAAYU AYURVEDA Panchakarma & Wellness Centre,12.969647407531738,77.54460906982422,gmaps_v2,clinic,59,0.0305353765119866
ChIJAQAAPGM9rjsRZt91eYsNY3I,"Srinivas Speciality ENT Centre, Mathikere, Bangalore",13.030242919921877,77.56060028076172,gmaps_v2,clinic,67,0.0303303911069038
ChIJf7ifYPA9rjsRP-wRHj5Fds4,Prakruthi Dental Clinic,12.977798461914062,77.55326843261719,gmaps_v2,clinic,71,0.0299955675563904
ChIJB1EvZt09rjsRmA0fBTvcHWo,ENT Hospital,12.97279453277588,77.53783416748047,gmaps_v2,clinic,79,0.029914775628467
ChIJJ2w01zwXrjsREsjhs_Aw5ms,Dr. Shobha N | Best Neurologist in Malleshwaram | Manipal Hospital Malleshwaram,13.003552436828612,77.5694808959961,gmaps_v2,hospital,21,0.0297133102807349
ChIJQVVnSEM9rjsRWP3RVlkfDqI,Bhagwan Adinath Jain Hospitals Charitable Trust,12.98517894744873,77.5540771484375,gmaps_v2,clinic,24,0.0296955782201378
ChIJlXYAGQo-rjsRhBBHEuQGmVQ,Sunflower hospital,12.968186378479004,77.54544830322266,gmaps_v2,hospital,65,0.0296839520135447
ChIJ9WTFrv4XrjsRElR0xnzV60s,Dr. Sudeep K N- Best Cardiologist in Malleshwarum,12.98829746246338,77.5725326538086,gmaps_v2,clinic,15,0.0296550214875343
ChIJ_15XWzw9rjsRbnp0feUzs04,Diagnostica SPAN Bangalore,13.02152156829834,77.54151916503906,gmaps_v2,clinic,11,0.0296283613997941
ChIJDR36UCY9rjsRqtCNmEnxhqg,Modern physiotherapy clinic,12.987342834472656,77.55607604980469,gmaps_v2,clinic,29,0.0295678153291681
ChIJ2cjpTDIXrjsRjG4Uu_yDfF8,Niuscope - Multi Speciality Clinic,12.99883270263672,77.56929779052734,gmaps_v2,clinic,52,0.0294483123356907
ChIJPeVlpfM9rjsRWr_UNn5jPaw,Bangalore Diagnostic Laboratory,12.987157821655272,77.5541763305664,gmaps_v2,clinic,12,0.0292795576753488
ChIJE8R9PncWrjsR1oBYqDGzwns,Chest and Maternity Centre,12.98452854156494,77.55110931396484,gmaps_v2,clinic,112,0.0291801659763064
ChIJF9NA89kXrjsRwW5WYPUZDbc,REJOINT ORTHO AND PHYSIOTHERAPY CLINIC,12.99086093902588,77.57776641845703,gmaps_v2,clinic,22,0.0290211725546123
ChIJ9_U5Ixk9rjsRluKl399XdDo,ಇಎಸ್ಐ ಹಾಸ್ಪಿಟಲ್ ಪೀಣ್ಯ ೧ನೇ ಹಂತ ESI HOSPITAL PEENYA 1st stage,13.028072357177734,77.52318572998047,gmaps_v2,clinic,64,0.0289695181531311
ChIJJXI9dYgXrjsRKP7M4_ydA4A,Silverline Speech And Hearing Clinic,13.00311279296875,77.5831527709961,gmaps_v2,clinic,50,0.0289498760171299
ChIJ7SiqLlM9rjsRwHeVO1rdeh8,Shri Vansh Dental Clinic,12.984270095825195,77.55458068847656,gmaps_v2,clinic,45,0.0286278090301298
ChIJDYMaFDUWrjsRnnWlH4AUQJg,602/14,13.007851600646973,77.57772827148438,gmaps_v2,clinic,83,0.0286273624036017
ChIJ0VVxkIs9rjsRwmDXlltrM_s,R V Speciality Clinic,13.015097618103027,77.53910064697266,gmaps_v2,clinic,41,0.0285467405128767
ChIJxb3gitwXrjsR7GqOjo1yEW4,Eye World Opticians Belroad,13.029531478881836,77.5707015991211,gmaps_v2,clinic,86,0.0285427651878585
ChIJtfjVH5E9rjsRZH7DuUDF8aQ,Narayan Savant,12.995733261108398,77.54642486572266,gmaps_v2,clinic,66,0.0284909441950568
ChIJU2y1xV89rjsRZSCG3hLW9rg,Amar Chidrens And Diabetic Clinic,13.034310340881348,77.5599365234375,gmaps_v2,clinic,51,0.0283831887913561
ChIJXVMW4yg9rjsRW41BfbtKkfw,Doctor's Of Physical Therapy Karnataka,13.03638744354248,77.56187438964844,gmaps_v2,clinic,27,0.0283376887993353
ChIJOxIkVPM9rjsRs6e_lOSyigY,Raghav Dental Care Centre,12.987605094909668,77.5560073852539,gmaps_v2,clinic,58,0.0282781862053554
ChIJ1yZRRnU9rjsR-CT-8N8FJJc,Lokesh bone and ortho clinic .physiotherapy center,13.011499404907228,77.53292846679688,gmaps_v2,clinic,24,0.0282467278115148
ChIJd-SM_sw9rjsRA92HgSS217w,Dr S.D.Shamsundar - Head & Neck Cancer | GI Cancer | Gynecologic Oncologist | Brain Cancer | Radiation,12.97377872467041,77.54419708251953,gmaps_v2,clinic,25,0.0281834593938588
ChIJMeD6nmM9rjsR2tw3oCNU_OA,Raghu Medicals,13.028512954711914,77.55867767333984,gmaps_v2,clinic,108,0.0280853908932632
ChIJ22nzkmUWrjsRIHhPayvY0DE,Vanitha Sahaya Vani,12.99462604522705,77.57023620605469,gmaps_v2,hospital,76,0.0279335060720748
ChIJ-f__v5U9rjsRwFDvJ69RrRM,Four Corners Technologies Pvt ltd,13.027765274047852,77.53145599365234,gmaps_v2,hospital,35,0.0278984076900779
ChIJ8YEBK289rjsRx1FdrKGVbss,Sridhar Bhat Clinic,13.001197814941406,77.5560531616211,gmaps_v2,clinic,19,0.0278620060152129
ChIJ2XIsRIY9rjsRuFXSDLbwboQ,Purvi Dental Care Centre,13.001209259033203,77.55823516845703,gmaps_v2,clinic,44,0.0276899907129711
ChIJ8dYv5Og9rjsRN3N6hW4flog,Madhu Hospital,12.97830295562744,77.5429458618164,gmaps_v2,hospital,83,0.0276234877024517
ChIJq2ZiHpE9rjsRSWLDUaS8ZX0,Hari Om Trust,12.99569034576416,77.54647827148438,gmaps_v2,clinic,83,0.0275295688825826
ChIJe07CcBwXrjsR4VePDWD4BWU,"SURGERY MITHRA-|Laparoscopic Hernia, Gallstones, Appendicitis Surgeon|Robotic Surgeon|Bariatric surgeon|Laser Proctologist",13.003626823425291,77.56553649902344,gmaps_v2,clinic,37,0.0274305347535041
ChIJxwnQ8z0_rjsREAmJeT_st6g,"Dr. Dinesh M G - M.S, M.Ch, F.M.A.S, F.M.A.O (Surgical Oncologist)",12.984832763671877,77.5569076538086,gmaps_v2,clinic,22,0.0273239082429006
ChIJT3vSvCgXrjsRPMgqcQlSBxY,Vegas Hospitals,13.008538246154783,77.56826782226562,gmaps_v2,clinic,29,0.0272902669844417
ChIJpWRy7PI9rjsRyOai-pZnWcE,Kamala Clinic,12.985949516296388,77.5521240234375,gmaps_v2,clinic,49,0.0272689606456519
ChIJo5QOdmM9rjsRPmmtzMIexhw,Shoba Piles Clinic,13.024988174438477,77.55783081054688,gmaps_v2,clinic,52,0.0271547149676646
ChIJnTJiD6cXrjsRv2StRhv3pwA,AyurNewro - Ayurvedic Rehab Centre For Paralysis Stroke Treatment,12.982787132263184,77.56824493408203,gmaps_v2,clinic,19,0.0271252060249947
ChIJv6164Fc9rjsRC7F7l8FpVAA,"Dream Fitness, Nandini Layout",13.017003059387209,77.5316390991211,gmaps_v2,clinic,59,0.0269623923182316
ChIJHcgwbQ49rjsRyoZgQB8pPag,Jivaka Diabetes and Speciality Clinic,13.000086784362791,77.53865814208984,gmaps_v2,clinic,36,0.0268328948861543
ChIJWRgjs-0XrjsRPlRuU5rLxjg,Dr. Anagha Nawal - Best Gynecologist in Bangalore | IVF | Uterus Removal | Fibroids | Abortion | Hysteroscopy | Hysterectomy,13.006001472473145,77.56806182861328,gmaps_v2,clinic,14,0.0266890169532183
ChIJt72B0fQ9rjsRUOZVKVEj-5M,VISION MAXX,13.033820152282717,77.5580062866211,gmaps_v2,clinic,20,0.0266675691663453
ChIJy1X4BR89rjsR9rfG0Bg4X54,Dhanvantari homeopathy chikistalaya,13.015646934509276,77.53305053710938,gmaps_v2,clinic,39,0.0265485962181565
ChIJDUtWxb89rjsRsgAZWWdKZBM,YS Speciality Diagnostics.,12.986063957214355,77.54192352294922,gmaps_v2,clinic,31,0.0264661981274769
ChIJ7UJqJDAWrjsRpE_EcbQe5hQ,Vishnu Dental Care,13.00198459625244,77.57389068603516,gmaps_v2,clinic,98,0.0262572315652299
ChIJdU81_Zw9rjsRlFqx4Ak5T6Q,Medi Dia Line,13.00728702545166,77.54837036132812,gmaps_v2,clinic,27,0.0262359835624275
ChIJFX3NQ0I9rjsRZM9kSVPwGUQ,Ramamani Nursing And Maternity Home( Dr.Padmini Prasad),12.985605239868164,77.55648040771484,gmaps_v2,hospital,42,0.0262353105793586
ChIJMY2COiwWrjsRyWeKu_IC4Xg,Manjunatha Maternity Home and Surgical Centre,13.007671356201172,77.56990051269531,gmaps_v2,clinic,54,0.0260875103678926
ChIJIVYLFHYXrjsROkUp01kE_TM,Dr.Sarah's Multispeciality Dental Clinic,13.005352020263672,77.56241607666016,gmaps_v2,clinic,47,0.0257138900408257
ChIJj3gNznI9rjsRsxRrivEp4Tc,Karnataka Cancer Hospital,13.019336700439451,77.54019927978516,gmaps_v2,hospital,62,0.0257007591353093
ChIJa3OKcjQWrjsRprbDvNFbUOE,DENTAL FITNESS,13.006054878234863,77.54822540283203,gmaps_v2,clinic,66,0.0256672866623525
ChIJ21oguy8WrjsRO07orXsQfVM,Indira Clinic- Dr H R Nandini Devi,13.000530242919922,77.56633758544922,gmaps_v2,hospital,37,0.0255691990203656
ChIJA28QnJs9rjsR_-u7XntyxzU,SUCHETA CLINIC,12.992521286010742,77.53120422363281,gmaps_v2,clinic,43,0.0252018616410062
ChIJl_w2U489rjsRgGZF84UqYqA,Dental health clinic,12.998970985412598,77.55621337890625,gmaps_v2,clinic,49,0.0250351280349349
ChIJ7cfcaBs9rjsRfky3ngUYKu4,Arjun Dento Care,13.022356033325195,77.55553436279297,gmaps_v2,clinic,37,0.024875584532077
ChIJcToBo1o9rjsRSFNOxwol-n4,Mother Diagnostics,12.991212844848633,77.54032897949219,gmaps_v2,clinic,43,0.024867476870375
ChIJY3HJcXk9rjsRUfp1E2MnZ0E,Usha Medicals,12.99208164215088,77.53602600097656,gmaps_v2,clinic,13,0.0247927804094477
ChIJSResiRgXrjsRYpgBQLz1FGM,Shree Maruthi Hospital,12.992653846740724,77.57417297363281,gmaps_v2,hospital,56,0.0247114998532575
ChIJgYmNL5Y9rjsRoIJpPioo2J4,Denta Care,12.994812965393066,77.53942108154297,gmaps_v2,clinic,27,0.0246079902739365
ChIJYYrkk4w9rjsRHOxpABr51Sc,Dr. Suresh's Dia Care,12.989744186401367,77.5551528930664,gmaps_v2,clinic,48,0.0244505928729316
ChIJP8AOjDoXrjsRxNnZUAnPeAc,Shreeraksha labs,13.007143020629885,77.5704574584961,gmaps_v2,hospital,35,0.0242722233876742
ChIJ28zP-F09rjsRS0mwGbnsfus,Mathrushree Nethralaya,13.033246040344238,77.55583953857422,gmaps_v2,clinic,84,0.0240684132708526
ChIJ11JJOPU9rjsRfRzI5Pp_dUM,Dr. Shubhangini K T- Obstetrician & Gynecologist In Bengaluru,13.041537284851074,77.51630401611328,gmaps_v2,clinic,14,0.0238553504320607
ChIJ89SqwTI9rjsRURGGUf5FDh4,Jahnavi homeo clinic,12.98800563812256,77.55419921875,gmaps_v2,clinic,12,0.0237769109316182
ChIJp_JOTPAXrjsRIs3GWhDlbiE,Bengaluru Superspeciality Clinics,13.004549026489258,77.5706787109375,gmaps_v2,clinic,32,0.0236718425077248
ChIJJ4oEmaQXrjsRvIrtqDMpqbs,Tanmayee health care,13.001131057739258,77.57219696044922,gmaps_v2,clinic,35,0.0236660582074058
ChIJVyhim449rjsRVngRKEEzVgM,Jindal Charitable Hospital,12.993766784667969,77.55421447753906,gmaps_v2,hospital,63,0.0236631262878904
ChIJ1dFB5Pk9rjsRs0HbbRCsByM,Government hospital,12.99473476409912,77.52611541748047,gmaps_v2,clinic,19,0.0230527144213138
ChIJTUdvZg0XrjsRwBIeeIvGwgE,AARTHI DIAGNOSTICS - VIJAYANAGAR,12.97281265258789,77.54418182373047,gmaps_v2,clinic,40,0.0229882350922193
ChIJITjZmi09rjsRB90jzv4U4Bo,Anirudh Medicare Multi Speciality Clinic,12.991926193237305,77.53675079345703,gmaps_v2,clinic,13,0.0229658319047503
ChIJs-ClCXs9rjsRBgM7zUDfgbE,The Marriage Fit - Marriage and Relationship Counselling,13.03786849975586,77.55353546142578,gmaps_v2,clinic,23,0.022856189332888
ChIJH0y63LA9rjsRey87PuJ8LQo,Sanjeevan Netralaya,12.98397731781006,77.55418395996094,gmaps_v2,hospital,15,0.022813288233434
ChIJVVVVVSoWrjsRucMzWYM3Xek,Navrang Speech & Hearing Clinic,12.996786117553713,77.57412719726562,gmaps_v2,clinic,44,0.0227850250744957
ChIJL1v_V0g9rjsRy5e75t_4m2U,Elder Net - Kaveri Senior Care Service Bangalore,13.036188125610352,77.54904174804688,gmaps_v2,clinic,18,0.0227306838844581
ChIJyRMfFJM9rjsRSaikafk1mBA,"Dr Niranjan, Sushrutha Child care ( Vaccination &Immunization center)",12.98910427093506,77.54645538330078,gmaps_v2,clinic,40,0.0226891419161512
ChIJy6YC-RwWrjsREe4MSGEiBAQ,"Divisional Railway Hospital, Bengaluru",12.9797945022583,77.56548309326172,gmaps_v2,clinic,55,0.0226242357631235
ChIJ58JKzXcXrjsRBYFgrmJzO3k,Dental Enclave,12.989012718200684,77.57706451416016,gmaps_v2,clinic,37,0.0225574973269598
ChIJIwUApfM9rjsRZJJMlZxQ2oM,positive homeopathy,12.984676361083984,77.55425262451172,gmaps_v2,hospital,33,0.0225282451073067
ChIJ7Q00U_M9rjsR1bsfDkMWNzM,Sri Sai Clinic and Maternity Home,12.988015174865724,77.5556869506836,gmaps_v2,hospital,51,0.0225111867402203
ChIJeYtJnygWrjsRrztcG_0lxYo,Jupiter Hospital,12.999853134155272,77.56635284423828,gmaps_v2,clinic,58,0.0225063287933997
ChIJWYw3JJk9rjsRC4dqBCMAn_I,Sai Raksha Fertility and Maternity center,12.981040954589844,77.53516387939453,gmaps_v2,clinic,40,0.0224483696267479
ChIJGSfteG09rjsRo9fs9S7uD6o,Atharva Dental,13.00065803527832,77.53659057617188,gmaps_v2,clinic,20,0.0222276962497837
ChIJxci-3oQ9rjsREhTCwwj14Fw,Dr.Susheela Suresh,13.003430366516112,77.54071807861328,gmaps_v2,clinic,57,0.0222085822668898
ChIJPecvg9wXrjsRZjs7D3HBNBw,Dental Clinic and Orthodontic Centre,13.036905288696287,77.56590270996094,gmaps_v2,clinic,24,0.0221939258705536
ChIJnWhPq8g9rjsRQWEWs-PCUoQ,Rajajinagar Kidney Care hospital,13.006637573242188,77.54933166503906,gmaps_v2,hospital,63,0.0220824537695481
ChIJ_fpnAOA9rjsRRexPQfQpS5E,Bengaluru Hand Centre and Maya ENT Centre,13.005575180053713,77.55606079101562,gmaps_v2,clinic,60,0.0220342527048766
ChIJd7qQd-EXrjsREITz9MKwhjk,"RejuAge Skin, Hair & Laser Clinic",13.038636207580566,77.56484985351562,gmaps_v2,clinic,47,0.0219130130547822
ChIJ0R2TWi4WrjsRGrvLnzim-mQ,Cauvery Opticians,13.003619194030762,77.57115173339844,gmaps_v2,clinic,53,0.021865305677446
ChIJ00GQv3cXrjsR9N0Knmt6Lng,LivWell Liver & Gastro Medical Centre,13.007761001586914,77.58164978027344,gmaps_v2,clinic,55,0.0217881923421638
ChIJDyj6eec9rjsRNblR5MkCPv8,"Kosmo Care Skin,Hair & Body Care Clinic",12.972689628601074,77.5396957397461,gmaps_v2,clinic,57,0.0217790549720983
ChIJJUDWTow9rjsR5N7oAGsfmY0,ESIC Model Hospital,12.991692543029783,77.55390167236328,gmaps_v2,clinic,48,0.0217604135754652
ChIJOaEX2cc9rjsRrXalVdxQyQU,APOORVA SPECIALIST CLINIC,12.99020767211914,77.53812408447266,gmaps_v2,clinic,30,0.0217187119456451
ChIJU_iJ9hQ9rjsRIBKQFES5Nzo,Chakshu Counselling and Psychotherapy Centre (R),12.986711502075195,77.5512466430664,gmaps_v2,clinic,31,0.0216642426910257
ChIJCSoC3pM9rjsRLQQfpVsWNgU,Hello dear physio care,12.997516632080078,77.53092193603516,gmaps_v2,clinic,24,0.0216156222406489
ChIJ_____4w9rjsRIPNFlTwh3-k,Ria Diagnostics,12.997504234313965,77.55059814453125,gmaps_v2,clinic,51,0.0216087978525649
ChIJTX9yFC8WrjsRrpVlAu7KWaU,Hearing Wellness Clinic Pvt Ltd,13.002603530883787,77.56925964355469,gmaps_v2,clinic,45,0.021532883795616
ChIJqaqquhQ9rjsRF6yPplMrX48,Dr. Agrawal's Dental Care,13.026385307312012,77.53850555419922,gmaps_v2,clinic,38,0.021395945181649
ChIJF8FjpIQ9rjsRDp40ZUUvyl4,Dental Care Centre,13.004058837890623,77.55158233642578,gmaps_v2,clinic,21,0.0212735305749022
ChIJmZAjYPs9rjsRgYbVD-DUtRY,Aadhya Ayurvedic Wellness Center,13.004698753356934,77.56022644042969,gmaps_v2,clinic,19,0.0211377543044321
ChIJJRscibA9rjsRf5GLgOkTCMU,Shankararnag Bus Stop,12.994745254516602,77.52671813964844,gmaps_v2,hospital,65,0.0209419320050967
ChIJgZWy_r89rjsRTXuhlRymimk,Babymart,12.98740577697754,77.53873443603516,gmaps_v2,clinic,59,0.0209228962460024
ChIJq7tOIHQ9rjsRZyoi6jZfpy8,Optical Square subramanyanagara,13.005011558532717,77.55895233154297,gmaps_v2,clinic,19,0.0208975832815667
ChIJ14s3hAk9rjsRLjRgjF_5ht8,Laali Hospital,13.011768341064451,77.53285217285156,gmaps_v2,clinic,44,0.020881646217235
ChIJq6qqqpY9rjsRR_TKzU-Dgik,Trupti Nursing Home,12.994608879089355,77.53974151611328,gmaps_v2,clinic,56,0.0205944070087077
ChIJg6VaM9A9rjsRm86tjm-reLw,Sanatana online Hypno counselling,13.042905807495115,77.51315307617188,gmaps_v2,hospital,18,0.0205777584096801
ChIJ-4fFOLo9rjsRQTaEE2p7NwI,Sharada skin clinic,13.007549285888672,77.54731750488281,gmaps_v2,clinic,22,0.0203353784039693
ChIJT4jy81YXrjsR48_6YySwwQs,My Dental Bay,12.999268531799316,77.56645202636719,gmaps_v2,clinic,20,0.0202427584694506
ChIJbTAxJywWrjsRW7bIJfq_3iE,Dr Srikanth Vijayasimha,13.00581169128418,77.5698471069336,gmaps_v2,clinic,52,0.0202331755491206
ChIJJ-EqSsY9rjsRANW7P_1phWU,Dr. Pramod Govind Shanbhag,12.985745429992676,77.54351806640625,gmaps_v2,clinic,18,0.0201120275627888
ChIJS_JtORpbozsR2gmvVnQaek0,Gamca Mangalore,12.988905906677246,77.57404327392578,gmaps_v2,clinic,15,0.0199208380327656
ChIJNcq8kW09rjsRqXR6fPC3fqI,RR MULTISPECIALITY HEALTHCARE,12.971465110778809,77.55574798583984,gmaps_v2,hospital,14,0.0198332485523171
ChIJeR5M3Sw9rjsRvd7vHgTee4g,Care Woman & Child Clinic - Dr Hethyshi R || Dr Anil M U,13.001410484313965,77.54212188720703,gmaps_v2,clinic,36,0.0197721658365236
ChIJFSo5CLJfUjoRwe55-oqp0fw,Molecular Solutions Care Health LLP,12.989212989807127,77.57435607910156,gmaps_v2,clinic,19,0.0197646187534952
ChIJ-6jGNXk9rjsRbx7qWUJOw_0,"Rivaara Labs Pvt Ltd, C/O Columbia Asia Referral Hospital,",13.014663696289062,77.55592346191406,gmaps_v2,hospital,17,0.0195658593178748
ChIJF-6i5vU9rjsRCoYmX-yGnYg,Flair HairFixing,13.002463340759276,77.55345916748047,gmaps_v2,clinic,30,0.0195103902199231
ChIJLViCv5A9rjsRsH9CtHTpNHo,Shree Shyla Clinic,12.997274398803713,77.54605865478516,gmaps_v2,clinic,55,0.0194088034362404
ChIJgXIvloc9rjsRkFCzcnxsFNc,Dr Poornima Aradhya Sharada Homoeo Clinic,13.00804615020752,77.5384521484375,gmaps_v2,clinic,24,0.019370935592648
ChIJO9d_5-Q9rjsR9NHuYdt46-g,Eswarsa Clinic Dr Nagabhushan,12.97257137298584,77.5486068725586,gmaps_v2,clinic,55,0.0191400730884957
ChIJe9W-6cA9rjsRCqp0z5uliRo,V-Care Ayurvedic Treatment Center,12.985316276550291,77.54380798339844,gmaps_v2,clinic,43,0.0190778857561645
ChIJRSfIm9wXrjsRYK7DYvAXloI,RMV Guest House,13.028779983520508,77.57145690917969,gmaps_v2,hospital,41,0.0190702321863754
ChIJ5SiTyrE9rjsRNehHUwQ-Zro,Bagley Denta Care,12.98685073852539,77.55607604980469,gmaps_v2,clinic,30,0.0190200867452442
ChIJTVkcGAw9rjsRNDWJRcQ5OCc,R.K. Diagnostic Centre,13.01545524597168,77.533447265625,gmaps_v2,clinic,51,0.0189875852631518
ChIJ0_FdoOQ9rjsR18ScPMGf8S4,Sri Ganesh Fruit Juice Corner,12.970746040344238,77.5491943359375,gmaps_v2,clinic,47,0.0189726209866678
ChIJcyVpwJA9rjsRtl3E5ZFVyV0,Dr Rajendra Prasad - Health Station | Best Ent Specialist In malleshwaram,12.997429847717283,77.57313537597656,gmaps_v2,hospital,43,0.0189366071590039
ChIJ40AtmvM9rjsRp66hJjE-8kw,Government Hospital,12.984495162963867,77.55518341064453,gmaps_v2,clinic,49,0.0189270295726387
ChIJWZuHmDQ9rjsR3y_Ho8bnoA8,janaushadhi kendra yeshwanthpur,13.01963233947754,77.55634307861328,gmaps_v2,clinic,21,0.0189148262683527
ChIJE7vz64w9rjsRP8EkTbdjbXg,Acharya Tulsi Diagnostic Centre,12.989599227905272,77.55449676513672,gmaps_v2,clinic,52,0.0188480445044752
ChIJgWfuZ9wXrjsRQyCaeSlx7F0,Ramaiah Advanced Learning Center,13.029291152954102,77.56986999511719,gmaps_v2,clinic,64,0.0188399384234929
ChIJGz4YrfE9rjsRbXNVTX9fqnA,Eye clinic:Dr S R Lakshmi,12.97939682006836,77.55276489257812,gmaps_v2,clinic,31,0.0188004246689115
ChIJH4XFz-AXrjsRkKbOGB3JBNA,Greenline Travels,13.035816192626951,77.5671615600586,gmaps_v2,hospital,43,0.0187686232247435
ChIJx4r3sJE9rjsRe8UPyMyzeCY,Shishira Maternity Clinic | Dr. Bhanu BT,12.995475769042969,77.54851531982422,gmaps_v2,clinic,32,0.0187293401365836
ChIJ35MkHIs9rjsRkM8LgEFVJ8Q,"Dental Experts , A Super Speciality Dental Clinic",12.990274429321287,77.55847930908203,gmaps_v2,clinic,53,0.0187025089490088
ChIJNWsxjps9rjsRUzgAi66iuks,Agadi Dr J B,12.999611854553224,77.54900360107422,gmaps_v2,clinic,47,0.0186959459815336
ChIJB8AApJw9rjsR1MAre9qEiOw,Kriti Dental,13.004661560058594,77.54964447021484,gmaps_v2,clinic,47,0.0186003836109257
ChIJVTZfbL49rjsRslHSj_g89VM,Bangalore Ear Hearing and Speech Therapy Foundation,12.991888999938965,77.53746795654297,gmaps_v2,clinic,55,0.0184747583928675
ChIJ9Qd5I449rjsRE0sAVlvJUTY,Kottakal Arya Vaidya Sala(Shree Sukhayu Ayurveda Kendra),12.994845390319824,77.5511474609375,gmaps_v2,hospital,47,0.0184480673298488
ChIJi_2pEL49rjsRcgbZM5_wpxU,Rudrappa Orthopedic & ENT Clinic,12.991649627685549,77.53829193115234,gmaps_v2,clinic,39,0.0184165883440616
ChIJV6tyVpYXrjsR-fHr6U2unj8,Dr Nadeem’s Bangalore ENT care centre,12.986722946166992,77.57510375976562,gmaps_v2,clinic,28,0.0181935543753426
ChIJE8o2q4QXrjsR7XaR6yB7XSQ,Dr Raghu Nagaraju ophthalmologist Apollo hospital,12.988780975341797,77.5726547241211,gmaps_v2,hospital,22,0.0181280075952994
ChIJw5-eClwWrjsRegg4pc-_Gmw,Varun Eye Clinic,12.989466667175291,77.53776550292969,gmaps_v2,clinic,49,0.0181068254973767
ChIJ6503ijM9rjsRy9xR7FM5-5o,Basics Academy,13.002821922302246,77.5606918334961,gmaps_v2,clinic,20,0.0180202156786221
ChIJaUbhhCUWrjsRocm71iUdMTM,Shree Skin Clinic,12.99931526184082,77.57002258300781,gmaps_v2,clinic,43,0.0179406953105957
ChIJgbXX2t09rjsRo0SPauEy85g,"Sameeksha Clinic, Children and mother care",13.00728988647461,77.55686950683594,gmaps_v2,clinic,20,0.0179027184925778
ChIJ98y8DpQ9rjsRLtUDRX2gBVU,Honey diabetez care centre,12.986247062683104,77.53749084472656,gmaps_v2,clinic,15,0.0178620065720606
ChIJv0DNGgw9rjsRkAz8rPuhADs,Dr.Shivashankar's specialist Dental clinic,13.009965896606444,77.5385971069336,gmaps_v2,clinic,48,0.0176650665807357
ChIJrUk93uAXrjsRPzErZO2AEkw,Devasandra Chikkamaranahalli,13.036216735839844,77.56629180908203,gmaps_v2,hospital,49,0.0176353700540344
ChIJAQAAQDAWrjsRFEkJb95LZzc,Ramani Orthopaedic Hospital,13.004837989807127,77.57888793945312,gmaps_v2,hospital,38,0.017560429898921
ChIJdxlIOSkWrjsRILuPrHUvq7E,Sagar Health Seva Foundation,13.003744125366213,77.56663513183594,gmaps_v2,hospital,32,0.0174962505955167
ChIJo-_7MsI9rjsRGNPQ-Tmu5Dg,The Bangalore Dermatology Centre,13.000137329101562,77.55145263671875,gmaps_v2,clinic,29,0.0174076556209918
ChIJPdabm-Y9rjsRazKuQqlxL2c,Vijayanagar Dental Clinic,12.970894813537598,77.54341888427734,gmaps_v2,clinic,33,0.0172266507331425
ChIJtTK7Kzc9rjsRjPc4I6b8cRI,Shree Ganesh Skin and Hair Clinic,13.003406524658203,77.55753326416016,gmaps_v2,clinic,17,0.0172239344722167
ChIJKXuJ7PI9rjsR1GVWXQyBwwQ,The Bangalore Dental Clinic,12.98598575592041,77.55198669433594,gmaps_v2,clinic,35,0.0171640371170713
ChIJfbQgvec9rjsRFXF9PPMh4u4,CGHS Wellness Center KA Vijayanagar,12.973843574523926,77.54064178466797,gmaps_v2,clinic,39,0.0171557559916093
ChIJSfFmVJ49rjsR-oSpRV0fj7k,Sai Pragati Home Nursing,13.00732135772705,77.5420913696289,gmaps_v2,hospital,14,0.0171199022557749
ChIJk1UAoNwXrjsR2FoGBuKAhRo,Khadi Nation,13.02804946899414,77.57190704345703,gmaps_v2,hospital,52,0.0170957744875565
ChIJichUMaUVrjsRXb4QEM176n8,Dr. Raghavendra Babu,12.996675491333008,77.57228088378906,gmaps_v2,clinic,24,0.0170806605777439
ChIJ_1MTrCM9rjsR7uYVTkeNZYk,Acupunture & Acupressure Multiple Therapy Center,12.967265129089355,77.54489135742188,gmaps_v2,clinic,28,0.0170621971534059
ChIJt6QoKoI9rjsRrFEyf8uojrA,Dental Esthetic Surgery Center,12.998723983764648,77.54338836669922,gmaps_v2,clinic,53,0.0170319154335643
ChIJUWP_hh4WrjsRJF7vd4L0k2s,Sapna clinic and diabetes centre,12.983243942260742,77.56502532958984,gmaps_v2,clinic,33,0.0170035183602425
ChIJz2V-_6EVrjsRggaRxcHBSQk,Hire Page Solutions Pvt Ltd | Recruitment agency Bangalore | Manpower Supplier & consultancy| Permanent Staffing | resourcing,13.005473136901855,77.55686950683594,gmaps_v2,clinic,15,0.0169909637702046
ChIJ____D2M9rjsR4XPJzsDtLFQ,Suprith Diagnostic Centre,13.022685050964355,77.5567855834961,gmaps_v2,clinic,36,0.0168790216796609
ChIJuaN1QYgXrjsR9WqVUAuw1fk,UNIVERSAL SCIENTIFIC COMPANY,12.986648559570312,77.57632446289062,gmaps_v2,clinic,12,0.0166719184496196
ChIJM5SVmvo9rjsRLRIvlc3QR84,Sri Krishna Child Care Center,12.976000785827637,77.55219268798828,gmaps_v2,clinic,36,0.016667355781235
ChIJITx0QZ49rjsRVeoP239Fohk,Nandini medical clinic,13.008265495300291,77.54313659667969,gmaps_v2,clinic,45,0.0165910880304952
ChIJKWsoFzoWrjsRKAeRnM01BjY,Anugraha Nursing Home,12.99900722503662,77.57772064208984,gmaps_v2,clinic,51,0.0165854624273952
ChIJ_YFPwGQ9rjsRgOK8mz_IwCM,Curls & Curves Cosmetic Surgery Centre,12.980266571044922,77.54228973388672,gmaps_v2,hospital,25,0.0165381262497435
ChIJVbvgW489rjsR2kun6LLNdi4,Veena Medical Centre,12.998828887939451,77.55522155761719,gmaps_v2,clinic,44,0.0164998376513369
ChIJr6YcQpA9rjsRqpYTz1DudTY,Poornashashi Clinic,12.99736213684082,77.54866027832031,gmaps_v2,clinic,36,0.016482854365736
ChIJYTPkBSs9rjsRXKudzDlkGE0,Prashanthi Ayurvedic Centre,13.034822463989258,77.55375671386719,gmaps_v2,hospital,35,0.0162767648562686
ChIJreA0cWM9rjsRd4hJd5WkITE,Amar Dental Clinic,13.024371147155762,77.55718231201172,gmaps_v2,clinic,37,0.0162628047267072
ChIJxbyF_3U9rjsRaccmXqBcqRo,Dr. H. S. Mrutyunjaya,13.010019302368164,77.54460144042969,gmaps_v2,clinic,44,0.0162379778855023
ChIJcfz6zPI9rjsRtLUF23u_qf4,Skin Care Clinic (Remedial Rays),12.98772430419922,77.55113220214844,gmaps_v2,clinic,63,0.0162265141240787
ChIJVVVVVSoWrjsRtr4NEPDzQvQ,Eye care Center,13.000007629394531,77.56959533691406,gmaps_v2,clinic,70,0.0162036543436133
ChIJ50_kzL89rjsRkTTdTfcyEp8,Vijai Opticians,12.989775657653809,77.5380859375,gmaps_v2,clinic,21,0.0161757007756392
ChIJdVuQPAg9rjsRv5sP95xQaPU,Spandana Healthcare Center,13.009960174560549,77.52911376953125,gmaps_v2,clinic,37,0.016084250560262
ChIJS-JcCZA9rjsR3S2vxfzWafw,Dr.Satelur's Dental Care,13.000669479370115,77.53929138183594,gmaps_v2,clinic,27,0.0160829504089794
ChIJDfpvhyYWrjsR5gRfycX2ysQ,Sudeep Diabetes Care Centre,12.997061729431152,77.57211303710938,gmaps_v2,clinic,28,0.0160823902340802
ChIJy2SiTiQWrjsRQ_g0lCeF7z0,Malleshwaram Traffic Police Station,12.99666690826416,77.5697250366211,gmaps_v2,hospital,45,0.0160090434625354
ChIJt09xiX4XrjsRcTz_TcIhy2Y,Dr. Ravi Mohan Rao - Best Neurosurgeon in Bangalore,12.986583709716797,77.57243347167969,gmaps_v2,clinic,26,0.0159971600483318
ChIJVe5utPM9rjsRSnVT2Xs8UP8,"Skinxperts, Bangalore Global Medical Foundation(BGMF)",12.983351707458496,77.55461883544922,gmaps_v2,hospital,35,0.0159745890774676
ChIJN3pK-mE9rjsRLS7rUk-4w2o,Kasturba Clinic,13.028078079223633,77.56129455566406,gmaps_v2,clinic,39,0.015917574701649
ChIJPecvg9wXrjsR0mIXP-iqp7o,Shinde Eye Care Centre,13.03567886352539,77.56700134277344,gmaps_v2,clinic,56,0.0158958278173024
ChIJf_AZPoU9rjsRvs0rnJSBC4M,Prabhu Orthopaedic Centre,12.999731063842772,77.55205535888672,gmaps_v2,clinic,22,0.0158764280672896
ChIJA6H_S7w9rjsRiVkd3U1CsB0,BINDIG MINDCARE,12.99436855316162,77.53579711914062,gmaps_v2,clinic,31,0.0158474928735539
ChIJ98C5te49rjsRWrFRFP0vqFs,PEAK Diagnostics,13.01924991607666,77.54014587402344,gmaps_v2,clinic,13,0.0157229770465952
ChIJIQSU2-g9rjsRxz0ilFr9wi0,Holla Dentist Clinic,12.977346420288086,77.54215240478516,gmaps_v2,clinic,35,0.0156318487877506
ChIJryKKEAcXrjsR2evPsopfoDg,THE HOME BAKERY,13.02814769744873,77.5715103149414,gmaps_v2,hospital,15,0.0155649072304506
ChIJJxboifs9rjsRRC1FeP-AOy4,Kiran Provision Stores,12.970952987670898,77.55433654785156,gmaps_v2,clinic,34,0.0155479469154688
ChIJUf6cjxE9rjsR4xkguOmiA_U,Kanteerava Studio,13.023306846618652,77.53292846679688,gmaps_v2,hospital,37,0.0155299720274443
ChIJuwazNcMXrjsRYjyZD37kxSg,Aspire Physiotherapy & Sports Rehab Center,13.028228759765623,77.57328796386719,gmaps_v2,clinic,41,0.0155188230500766
ChIJwZOHumU9rjsRYjQh6eegCVM,SAHANA WOMEN'S CARE,13.026440620422363,77.56062316894531,gmaps_v2,clinic,14,0.0153989843621251
ChIJ59bS3WQ9rjsRyDVyydRO8lY,Manjunatha Children's Clinic (Dr.S.VISWANATH),13.0017728805542,77.57635498046875,gmaps_v2,clinic,40,0.0153595580543162
ChIJ3ZPlwcUXrjsRkZA35C0L-xI,Divine Nature Care,12.988481521606444,77.57335662841797,gmaps_v2,clinic,25,0.0153251979330905
ChIJGRBbLiYWrjsRPUZNvE_QxCI,Ayushya Ayurcare Clinic,12.999123573303224,77.56668853759766,gmaps_v2,clinic,20,0.015233946204334
ChIJ9cEVADkWrjsRsWipcFv7Pqc,Koushik Dental Care orthodontic and implantology center,12.99758243560791,77.5819320678711,gmaps_v2,clinic,34,0.015199772620177
ChIJ_a0cxu4XrjsRmnO9S08FDNc,Shweta Dental Clinic,13.03182888031006,77.56990051269531,gmaps_v2,clinic,33,0.0151931054250288
ChIJ5XarvyUWrjsRi5j6OwrYw58,Sudharshana Nethralaya,13.003024101257324,77.57202911376953,gmaps_v2,clinic,31,0.0151229326903301
ChIJUW-VGr49rjsRpE5ryia1iSw,Geetha Clinic - Dr. Geetha M- Obstetrician & Gynecologist in Bengaluru,13.0003662109375,77.53690338134766,gmaps_v2,clinic,31,0.014959955309591
ChIJt7nRx5E9rjsRqgwr706oNkw,All Smiles Dental Care,13.001602172851562,77.54928588867188,gmaps_v2,clinic,23,0.0148871771548535
ChIJF5qCXF8XrjsRmJbGIsPks8o,"Dr.Veni Nekkilady, obstetrician and gynecologist at VR chest and women care clinic, Hennur main road",13.00540542602539,77.56212615966797,gmaps_v2,clinic,23,0.014790426863464
ChIJE8R9PncWrjsRT_wmJhsjM2c,Sai Shrimathi Hospital ಸಾಯಿ ಶ್ರೀಮತಿ ಆಸ್ಪತ್ರೆ,12.999923706054688,77.55699157714844,gmaps_v2,clinic,30,0.0145896326408177
ChIJd8pw9jAWrjsRIxsPxko2GNg,Sukruthi Eye Care Microsurgical Centre,13.001811027526855,77.57632446289062,gmaps_v2,clinic,28,0.0145672615573309
ChIJfSUnVOQ9rjsRqP9yqqZQ5XY,Tanmay Hospital,12.973321914672852,77.54739379882812,gmaps_v2,hospital,34,0.0145560948518666
ChIJqUUpubA9rjsRcRQp-liUGBk,Ashok Hospital,12.994853019714355,77.53479766845703,gmaps_v2,hospital,38,0.0145095697157314
ChIJXwomhVg9rjsReI2r2zYBk04,Sandesh Dental Clinic,12.980703353881836,77.53619384765625,gmaps_v2,clinic,23,0.0144937569629767
ChIJG3wBE5Q9rjsRxAvvNwesYdQ,Janani Clinic || Dr. Aparna Kadithota,12.99179458618164,77.54387664794922,gmaps_v2,clinic,32,0.0144403191007592
ChIJxZvBrgc9rjsR_zjOyw-ciJQ,Sai Medical & General Stores,13.01389980316162,77.53367614746094,gmaps_v2,clinic,19,0.0143690973654449
ChIJ812dhDMXrjsRciAoELxb7UE,Nirvana Speech And Hearing Center,12.992478370666504,77.57291412353516,gmaps_v2,clinic,26,0.0143421132084848
ChIJw6VocVk9rjsRGGBeUFDEPxc,Gokula,13.041227340698242,77.5572738647461,gmaps_v2,hospital,41,0.0143370786414989
ChIJnWyZFlk9rjsR6kwx_MEn5MU,Chaitanya Health Care,13.040565490722656,77.55802917480469,gmaps_v2,clinic,33,0.0142867025523861
ChIJTTwjT5s9rjsRU3quPX0A2HQ,Ankur Hospital,13.00087070465088,77.5499267578125,gmaps_v2,clinic,26,0.0142712477304116
ChIJgd2zk8E9rjsRdhIViinlvLY,Rao's Ortho Clinic.,12.986733436584473,77.53748321533203,gmaps_v2,clinic,26,0.0142235072456371
ChIJqyIAeNwXrjsRGcpbwYWpBJM,Dr. V S Prakash,13.02817440032959,77.56982421875,gmaps_v2,clinic,30,0.0141099363935825
ChIJr1Q_zZQ9rjsRjuO0cMIBfKk,Dr. Nagamani Natarajan Obstetrician Gynaecologist Maternity Clinic,12.972101211547852,77.54010772705078,gmaps_v2,hospital,20,0.0140505618248869
ChIJnfcMdIs9rjsRFvOEQElPySY,Dr.Kishore Baindur,12.990585327148438,77.55750274658203,gmaps_v2,clinic,33,0.013989389034679
ChIJr5QWQ5c9rjsRRsqt4JsVlR8,Cauvery Diagnostics,12.997865676879885,77.54358673095703,gmaps_v2,clinic,29,0.0139672846125392
ChIJR_F7iXo9rjsRu92qQk1liWs,ProHealth Plus - Multispeciality Clinic,12.98904514312744,77.5426025390625,gmaps_v2,hospital,24,0.0138690872005012
ChIJRxpi12Y9rjsR4IuStsW9WTw,PHC,13.030058860778809,77.5555191040039,gmaps_v2,hospital,12,0.0137801559534061
ChIJc3rENYE9rjsRn3vqYXN6hCs,Sri Vinayaka Dental Clinic and Orthodontic Centre,13.005234718322754,77.55779266357422,gmaps_v2,clinic,32,0.0137471145876496
ChIJF8K6kd09rjsRfIXAqy8yxF4,Vijayanagaram Ayurved Bhandar,12.97195053100586,77.5384521484375,gmaps_v2,clinic,37,0.0137391042183988
ChIJbf4G6zIXrjsRgrFAlLT1Wno,illwell Diet Therapy,12.994203567504885,77.53952026367188,gmaps_v2,clinic,23,0.0136981246686922
ChIJ_YHJk5w9rjsRrnjlksoEL9U,Centre for Diagnosis and Cure,13.005678176879885,77.54853057861328,gmaps_v2,clinic,39,0.0136368019826394
ChIJ58bMv5A9rjsRD5kpY_88WbY,Modi Hospital,12.997557640075684,77.54613494873047,gmaps_v2,hospital,35,0.0135415980966531
ChIJX1oguy8WrjsReC0P-CyuBaE,RespiCare - Malleshwaram,13.004409790039062,77.57110595703125,gmaps_v2,clinic,34,0.0134437850229855
ChIJEwsTnpA9rjsRDm5YevK9tmA,Pragathi Nursing Home,12.998607635498049,77.54679107666016,gmaps_v2,clinic,34,0.0134264357809065
ChIJHd5Ol349rjsRZ7tV001W9H4,Mahaveer Dental Clinic,12.985340118408203,77.5525894165039,gmaps_v2,clinic,21,0.0134183396192111
