id,name,lat,lng,cid,brand_id,brand_name,number_of_votes,rating,place_url,source,category,top_category,type,created_at,date,number_of_reviews,url,reviews_per_day
ChIJr4Akq1gVrjsRcHPlpNJSyQU,Texs Mart Unit 5,12.880269050598145,77.58399200439453,0x3bae1558ab2480af:0x5c952d2a4e57370,premtextiles,Prem Textiles,24673,4.5,https://www.google.com/maps/place/?q=place_id:ChIJr4Akq1gVrjsRcHPlpNJSyQU,gmaps_v2,clothing_store,retail,N_A,1687847039,1683381738.0,37769,https://www.google.com/maps/preview/review/listentitiesreviews?authuser=0&hl=en&gl=in&pb=!1m2!1y4300398164758003887!2y416955505171592048!2m2!2i10!3sCAESCEVnUUlyb1VC!3e2!4m5!3b1!4b1!6b1!7b1!20b1!5m2!1sPsrQZPb9H5adseMPzOi5IA!7e81,477.4027999456252
ChIJZVC6uYgVrjsRD0iXstrLsbs,Platform65 - Bannerghatta Road - Train Theme Restaurant,12.87925624847412,77.5953369140625,0x3bae1588b9ba5065:0xbbb1cbdab297480f,platform65,Platform 65,11781,4.300000190734863,https://www.google.com/maps/place/?q=place_id:ChIJZVC6uYgVrjsRD0iXstrLsbs,gmaps_v2,restaurant,food,N_A,1699615207,1653463099.0,13060,https://www.google.com/maps/preview/review/listentitiesreviews?authuser=0&hl=en&gl=in&pb=!1m2!1y4300398371161133157!2y13524815296129878031!2m2!2i10!3sCAESB0VnTUktbVU=!3e2!4m5!3b1!4b1!6b1!7b1!20b1!5m2!1sPsrQZPb9H5adseMPzOi5IA!7e81,22.054862586124994
ChIJGzjadqcVrjsRChTAxBu2SFk,Taaza Thindi,12.922821044921877,77.59326171875,0x3bae15a776da381b:0x5948b61bc4c0140a,N_A,N_A,33968,4.599999904632568,https://www.google.com/maps/place/?q=place_id:ChIJGzjadqcVrjsRChTAxBu2SFk,gmaps_v2,restaurant,food,N_A,1699615207,1564919315.0,34236,https://www.google.com/maps/preview/review/listentitiesreviews?authuser=0&hl=en&gl=in&pb=!1m2!1y4300398503183136795!2y6433592298080048138!2m2!2i10!3sCAESCEVnUUlyb1VC!3e2!4m5!3b1!4b1!6b1!7b1!20b1!5m2!1sPsrQZPb9H5adseMPzOi5IA!7e81,21.788602134948555
ChIJl0f2-mkVrjsRJsQNgJcyFE4,The Rameshwaram Cafe @ JP Nagar,12.906506538391112,77.59054565429688,0x3bae1569faf64797:0x4e143297800dc426,N_A,N_A,14614,4.199999809265137,https://www.google.com/maps/place/?q=place_id:ChIJl0f2-mkVrjsRJsQNgJcyFE4,gmaps_v2,restaurant,food,N_A,1699615207,1636743967.0,15919,https://www.google.com/maps/preview/review/listentitiesreviews?authuser=0&hl=en&gl=in&pb=!1m2!1y4300398239111595927!2y5626177460762428454!2m2!2i10!3sCAESB0VnTUlwbnc=!3e2!4m5!3b1!4b1!6b1!7b1!20b1!5m2!1sPsrQZPb9H5adseMPzOi5IA!7e81,20.083103180404905
ChIJhYA8bsMUrjsR3Mjk8cuBsbg,DMart Hongasandra,12.895896911621094,77.62127685546875,0x3bae14c36e3c8085:0xb8b181cbf1e4c8dc,dmartindia,Dmart,31315,4.199999809265137,https://www.google.com/maps/place/?q=place_id:ChIJhYA8bsMUrjsR3Mjk8cuBsbg,gmaps_v2,supermarket,retail,N_A,1700469324,1564233051.0,31653,https://www.google.com/maps/preview/review/listentitiesreviews?authuser=0&hl=en&gl=in&pb=!1m2!1y4300397523786039429!2y13308561086793173212!2m2!2i10!3sCAESCEVnUUlyb1VC!3e2!4m5!3b1!4b1!6b1!7b1!20b1!5m2!1sPsrQZPb9H5adseMPzOi5IA!7e81,19.859732950856635
ChIJRVGwzyAVrjsRlbxyR5AVHfM,The Pump House,12.90649700164795,77.58216094970703,0x3bae1520cfb05145:0xf31d15904772bc95,N_A,N_A,21590,4.5,https://www.google.com/maps/place/?q=place_id:ChIJRVGwzyAVrjsRlbxyR5AVHfM,gmaps_v2,restaurant,food,N_A,1699615207,1564169946.0,22607,https://www.google.com/maps/preview/review/listentitiesreviews?authuser=0&hl=en&gl=in&pb=!1m2!1y4300397924852977989!2y17518181834959273109!2m2!2i10!3sCAESCEVnUUlyb1VC!3e2!4m5!3b1!4b1!6b1!7b1!20b1!5m2!1sPsrQZPb9H5adseMPzOi5IA!7e81,13.772176200391389
ChIJhbEYrYYVrjsRronHeInPk54,The Big Barbeque - Bengaluru - Bannerghatta Road,12.882232666015623,77.5958023071289,0x3bae1586ad18b185:0x9e93cf8978c789ae,thebigbarbeque,The Big Barbeque,1815,4.699999809265137,https://www.google.com/maps/place/?q=place_id:ChIJhbEYrYYVrjsRronHeInPk54,gmaps_v2,restaurant,food,N_A,1699615207,1687852535.0,3835,https://www.google.com/maps/preview/review/listentitiesreviews?authuser=0&hl=en&gl=in&pb=!1m2!1y4300398362359280005!2y11426704868912892334!2m2!2i10!3sCAESB0VnTUk5aDA=!3e2!4m5!3b1!4b1!6b1!7b1!20b1!5m2!1sPsrQZPb9H5adseMPzOi5IA!7e81,13.331664778206857
18592791,Empire Restaurant,12.9020387679,77.5858260691,18592791,zomato_empire_restaurant,Empire Restaurant,51500,4.1,,zomato,restaurant,food,N_A,1688639100,1508697000.0,10320,,12.36397707929384
ChIJq6f21AMVrjsRO1dHggLeXYQ,"AB's - Absolute Barbecues | BTM Layout, Bangalore",12.916390419006348,77.60467529296875,0x3bae1503d4f6a7ab:0x845dde028247573b,absolutebarbecues,Absolute Barbecues,22787,4.300000190734863,https://www.google.com/maps/place/?q=place_id:ChIJq6f21AMVrjsRO1dHggLeXYQ,gmaps_v2,restaurant,food,N_A,1699615207,1521252826.0,23072,https://www.google.com/maps/preview/review/listentitiesreviews?authuser=0&hl=en&gl=in&pb=!1m2!1y4300397800387422123!2y9538023688197592891!2m2!2i10!3sCAESCEVnUUlyb1VC!3e2!4m5!3b1!4b1!6b1!7b1!20b1!5m2!1sPsrQZPb9H5adseMPzOi5IA!7e81,11.038184111256061
ChIJf9OY78VqrjsRH4v0viYYWfI,Decathlon Bannerghatta Road,12.863746643066406,77.59059143066406,0x3bae6ac5ef98d37f:0xf2591826bef48b1f,decathlon,Decathlon,23215,4.400000095367432,https://www.google.com/maps/place/?q=place_id:ChIJf9OY78VqrjsRH4v0viYYWfI,gmaps_v2,clothing_store,retail,N_A,1706767070,1523609318.0,23228,https://www.google.com/maps/preview/review/listentitiesreviews?authuser=0&hl=en&gl=in&pb=!1m2!1y4300492092546274175!2y17463015584797330207!2m2!2i10!3sCAESCEVnUUlyb1VC!3e2!4m5!3b1!4b1!6b1!7b1!20b1!5m2!1sPsrQZPb9H5adseMPzOi5IA!7e81,10.951084396362322
18745430,Kundana,12.9045898455,77.6014891639,18745430,N_A,N_A,36400,3.8,,zomato,restaurant,food,N_A,1688639100,1532457000.0,2316,,10.068247257528231
ChIJT0wEXXMVrjsRMdt4ISU-Ug0,The Scene - Craft Kitchen & Bar,12.906569480895996,77.58026885986328,0x3bae15735d044c4f:0xd523e252178db31,N_A,N_A,1352,4.400000095367432,https://www.google.com/maps/place/?q=place_id:ChIJT0wEXXMVrjsRMdt4ISU-Ug0,gmaps_v2,restaurant,food,N_A,1699615207,1687001223.0,1730,https://www.google.com/maps/preview/review/listentitiesreviews?authuser=0&hl=en&gl=in&pb=!1m2!1y4300398279411387471!2y959897999779617585!2m2!2i10!3sCAESB0VnTUl1QTA=!3e2!4m5!3b1!4b1!6b1!7b1!20b1!5m2!1sPsrQZPb9H5adseMPzOi5IA!7e81,9.26057936969002
ChIJyfPQjiQVrjsREe05h8Eb9fE,Adyar Ananda Bhavan - A2B,12.893210411071776,77.5987548828125,0x3bae15248ed0f3c9:0xf1f51bc18739ed11,aabsweets,Adyar Ananda Bhavan,19796,4.099999904632568,https://www.google.com/maps/place/?q=place_id:ChIJyfPQjiQVrjsREe05h8Eb9fE,gmaps_v2,restaurant,food,N_A,1699615207,1513763328.0,20505,https://www.google.com/maps/preview/review/listentitiesreviews?authuser=0&hl=en&gl=in&pb=!1m2!1y4300397940944466889!2y17434872050446101777!2m2!2i10!3sCAESCEVnUUlyb1VC!3e2!4m5!3b1!4b1!6b1!7b1!20b1!5m2!1sPsrQZPb9H5adseMPzOi5IA!7e81,9.202890006831732
ChIJUUry_CQVrjsRZE69OKKCSCk,Empire Restaurant - Arekere,12.891217231750488,77.59861755371094,0x3bae1524fcf24a51:0x294882a238bd4e64,hotelempire,Hotel Empire,18378,4.199999809265137,https://www.google.com/maps/place/?q=place_id:ChIJUUry_CQVrjsRZE69OKKCSCk,gmaps_v2,restaurant,food,N_A,1699615207,1526636115.0,19391,https://www.google.com/maps/preview/review/listentitiesreviews?authuser=0&hl=en&gl=in&pb=!1m2!1y4300397942792145489!2y2974771187126455908!2m2!2i10!3sCAESCEVnUUlyb1VC!3e2!4m5!3b1!4b1!6b1!7b1!20b1!5m2!1sPsrQZPb9H5adseMPzOi5IA!7e81,9.179486269936023
58049,Shanmukha,12.917688627,77.5925352797,58049,N_A,N_A,58400,4.3,,zomato,restaurant,food,N_A,1688639100,1399487400.0,6263,,8.725108654038694
18724948,Jaganath Hotel And Restaurant,12.9069052705,77.594945915,18724948,zomato_jaganath_hotel_and_restaurant,Jaganath Hotel And Restaurant,28700,3.8,,zomato,restaurant,food,N_A,1688639100,1539714600.0,1684,,8.325292346121692
19284805,Leon's Burgers & Wings,12.9022560975,77.5858723372,19284805,zomato_leon's_burgers_&_wings,Leon's Burgers & Wings,20200,4.0,,zomato,restaurant,food,N_A,1688639100,1575829800.0,3976,,7.735532442803918
ChIJh9QLmu8VrjsRkHI2nzN_oZY,Sri Venkateswara Garments Unit 5,12.876323699951172,77.61370086669922,0x3bae15ef9a0bd487:0x96a17f339f367290,premtextiles,Prem Textiles,5572,4.699999809265137,https://www.google.com/maps/place/?q=place_id:ChIJh9QLmu8VrjsRkHI2nzN_oZY,gmaps_v2,clothing_store,retail,N_A,1695212099,1631780735.0,7060,https://www.google.com/maps/preview/review/listentitiesreviews?authuser=0&hl=en&gl=in&pb=!1m2!1y4300398813011235975!2y10854096436630811280!2m2!2i10!3sCAESB0VnTUlpamM=!3e2!4m5!3b1!4b1!6b1!7b1!20b1!5m2!1sPsrQZPb9H5adseMPzOi5IA!7e81,7.589633418571923
ChIJvZg5yGkVrjsRPySf0Hz7DKs,Empire Restaurant - JP Nagar,12.90203857421875,77.58570098876953,0x3bae1569c83998bd:0xab0cfb7cd09f243f,hotelempire,Hotel Empire,16491,4.199999809265137,https://www.google.com/maps/place/?q=place_id:ChIJvZg5yGkVrjsRPySf0Hz7DKs,gmaps_v2,restaurant,food,N_A,1699615207,1511653920.0,17174,https://www.google.com/maps/preview/review/listentitiesreviews?authuser=0&hl=en&gl=in&pb=!1m2!1y4300398238260369597!2y12325502793700811839!2m2!2i10!3sCAESCEVnUUlyb1VC!3e2!4m5!3b1!4b1!6b1!7b1!20b1!5m2!1sPsrQZPb9H5adseMPzOi5IA!7e81,7.580403511495429
ChIJwYmGDBoVrjsRj8ADSu3ctpY,Barbeque Nation - JP Nagar,12.906471252441406,77.59683227539062,0x3bae151a0c8689c1:0x96b6dced4a03c08f,barbequenation,Barbeque Nation,18216,4.199999809265137,https://www.google.com/maps/place/?q=place_id:ChIJwYmGDBoVrjsRj8ADSu3ctpY,gmaps_v2,restaurant,food,N_A,1699615207,1488856494.0,18460,https://www.google.com/maps/preview/review/listentitiesreviews?authuser=0&hl=en&gl=in&pb=!1m2!1y4300397895808879041!2y10860110463157649551!2m2!2i10!3sCAESCEVnUUlyb1VC!3e2!4m5!3b1!4b1!6b1!7b1!20b1!5m2!1sPsrQZPb9H5adseMPzOi5IA!7e81,7.467603011980814
54521,Swadista Aahar,12.9139628546,77.6101966202,54521,zomato_swadista_aahar,Swadista Aahar,54100,4.0,,zomato,restaurant,food,N_A,1688639100,1375554600.0,2754,,7.464821797310311
18775254,RB Food Point,12.9163967,77.6164586,18775254,zomato_rb_food_point,RB Food Point,22900,3.8,,zomato,restaurant,food,N_A,1688639100,1540837800.0,1369,,6.693310545983019
ChIJJVB38lgVrjsRRgP8S0LxNdw,ButterFly - Brew Bite & Fly,12.907699584960938,77.59943389892578,0x3bae1558f2775025:0xdc35f1424bfc0346,N_A,N_A,1499,4.5,https://www.google.com/maps/place/?q=place_id:ChIJJVB38lgVrjsRRgP8S0LxNdw,gmaps_v2,restaurant,food,N_A,1699615207,1680260220.0,1714,https://www.google.com/maps/preview/review/listentitiesreviews?authuser=0&hl=en&gl=in&pb=!1m2!1y4300398165954613285!2y15867854129154753350!2m2!2i10!3sCAESB0VnTUlyZzA=!3e2!4m5!3b1!4b1!6b1!7b1!20b1!5m2!1sPsrQZPb9H5adseMPzOi5IA!7e81,6.6914847320744775
ChIJTXf4zPQVrjsR1ByzpbQiQwY,Olive Street Food Cafe,12.91391658782959,77.61046600341797,0x3bae15f4ccf8774d:0x64322b4a5b31cd4,N_A,N_A,2105,4.5,https://www.google.com/maps/place/?q=place_id:ChIJTXf4zPQVrjsR1ByzpbQiQwY,gmaps_v2,coffee_shop,food,N_A,1687847039,1660603354.0,8053,https://www.google.com/maps/preview/review/listentitiesreviews?authuser=0&hl=en&gl=in&pb=!1m2!1y4300398835340441421!2y451242546936618196!2m2!2i10!3sCAESB0VnTUk4ajQ=!3e2!4m5!3b1!4b1!6b1!7b1!20b1!5m2!1sPsrQZPb9H5adseMPzOi5IA!7e81,6.675748893734457
ChIJTTQvLiQVrjsRFEhwVO4siiU,STORIES BREWERY & KITCHEN,12.905696868896484,77.6085205078125,0x3bae15242e2f344d:0x258a2cee54704814,N_A,N_A,5279,4.300000190734863,https://www.google.com/maps/place/?q=place_id:ChIJTTQvLiQVrjsRFEhwVO4siiU,gmaps_v2,restaurant,food,N_A,1699615207,1630405781.0,5679,https://www.google.com/maps/preview/review/listentitiesreviews?authuser=0&hl=en&gl=in&pb=!1m2!1y4300397939323253837!2y2705023928319887380!2m2!2i10!3sCAESB0VnTUlwaXc=!3e2!4m5!3b1!4b1!6b1!7b1!20b1!5m2!1sPsrQZPb9H5adseMPzOi5IA!7e81,6.590223707389222
18728780,New Mahesh Friends Food Corner,12.9091654446,77.6134015247,18728780,N_A,N_A,23200,3.4,,zomato,restaurant,food,N_A,1688639100,1532716200.0,4172,,6.42779219729751
ChIJo7KdpjBrrjsRCwAR9Uo49yM,DMart Bannerghatta Road,12.853996276855469,77.5882568359375,0x3bae6b30a69db2a3:0x23f7384af511000b,dmartindia,Dmart,12184,4.300000190734863,https://www.google.com/maps/place/?q=place_id:ChIJo7KdpjBrrjsRCwAR9Uo49yM,gmaps_v2,supermarket,retail,N_A,1700469324,1526972178.0,12430,https://www.google.com/maps/preview/review/listentitiesreviews?authuser=0&hl=en&gl=in&pb=!1m2!1y4300492550883357347!2y2591602005165277195!2m2!2i10!3sCAESB0VnTUloR0U=!3e2!4m5!3b1!4b1!6b1!7b1!20b1!5m2!1sPsrQZPb9H5adseMPzOi5IA!7e81,6.067521133748217
ChIJI1xm2AUVrjsR-fnwFcWCcMg,AL-BEK,12.916553497314451,77.59839630126953,0x3bae1505d8665c23:0xc87082c515f0f9f9,al-bek,Al Baik,16053,4.0,https://www.google.com/maps/place/?q=place_id:ChIJI1xm2AUVrjsR-fnwFcWCcMg,gmaps_v2,restaurant,food,N_A,1699615207,1460340979.0,16287,https://www.google.com/maps/preview/review/listentitiesreviews?authuser=0&hl=en&gl=in&pb=!1m2!1y4300397809035009059!2y14443187787965463033!2m2!2i10!3sCAESB0VnTUltSDg=!3e2!4m5!3b1!4b1!6b1!7b1!20b1!5m2!1sPsrQZPb9H5adseMPzOi5IA!7e81,5.796609236160611
18570972,Fattoush,12.9157451931,77.6101828739,18570972,zomato_fattoush,Fattoush,24200,4.0,,zomato,restaurant,food,N_A,1688639100,1508178600.0,1632,,5.793179116759624
18237931,Fattoush,12.8929960573,77.5985990837,18237931,N_A,N_A,31300,4.1,,zomato,restaurant,food,N_A,1688639100,1453919400.0,4267,,5.760743559232566
18604159,Sri Vishnu Park,12.9166579259,77.6150326431,18604159,zomato_sri_vishnu_park,Sri Vishnu Park,22200,4.0,,zomato,restaurant,food,N_A,1688639100,1510857000.0,1777,,5.3944688469761575
ChIJQ3ye-eMVrjsRHsdc6kNbbZw,Jalsa - Let's Celebrate,12.916143417358398,77.59262084960938,0x3bae15e3f99e7c43:0x9c6d5b43ea5cc71e,N_A,N_A,3364,4.699999809265137,https://www.google.com/maps/place/?q=place_id:ChIJQ3ye-eMVrjsRHsdc6kNbbZw,gmaps_v2,restaurant,food,N_A,1699615207,1644111658.0,3361,https://www.google.com/maps/preview/review/listentitiesreviews?authuser=0&hl=en&gl=in&pb=!1m2!1y4300398763075075139!2y11271765789631104798!2m2!2i10!3sCAESB0VnTUlvQm8=!3e2!4m5!3b1!4b1!6b1!7b1!20b1!5m2!1sPsrQZPb9H5adseMPzOi5IA!7e81,5.236594870717186
ChIJAWNPNz8VrjsRmm4btDLh1Sw,Hakuna Matata,12.894024848937988,77.58663177490234,0x3bae153f374f6301:0x2cd5e132b41b6e9a,N_A,N_A,16443,4.300000190734863,https://www.google.com/maps/place/?q=place_id:ChIJAWNPNz8VrjsRmm4btDLh1Sw,gmaps_v2,restaurant,food,N_A,1699615207,1423367605.0,16675,https://www.google.com/maps/preview/review/listentitiesreviews?authuser=0&hl=en&gl=in&pb=!1m2!1y4300398055440474881!2y3230735915594509978!2m2!2i10!3sCAESCEVnUUlub0lC!3e2!4m5!3b1!4b1!6b1!7b1!20b1!5m2!1sPsrQZPb9H5adseMPzOi5IA!7e81,5.142760298060433
56488,Swad Punjab Da,12.9143121992,77.6129180565,56488,zomato_swad_punjab_da,Swad Punjab Da,35800,4.2,,zomato,restaurant,food,N_A,1688639100,1387045800.0,3035,,5.127965375888655
51983,Kabab Magic,12.9162252524,77.5968522951,51983,zomato_kabab_magic,Kabab Magic,44800,4.1,,zomato,restaurant,food,N_A,1688639100,1310668200.0,3903,,5.12039418907646
ChIJY6gaURkVrjsRHgIKwU5cOUY,Nagarjuna Restaurant - Bannerghatta Road,12.904902458190918,77.6015625,0x3bae1519511aa863:0x46395c4ec10a021e,nagarjunarestaurants,Nagarjuna Restaurants,15870,4.099999904632568,https://www.google.com/maps/place/?q=place_id:ChIJY6gaURkVrjsRHgIKwU5cOUY,gmaps_v2,restaurant,food,N_A,1699615207,1424668295.0,16179,https://www.google.com/maps/preview/review/listentitiesreviews?authuser=0&hl=en&gl=in&pb=!1m2!1y4300397892664469603!2y5060177149643325982!2m2!2i10!3sCAESB0VnTUlxbjQ=!3e2!4m5!3b1!4b1!6b1!7b1!20b1!5m2!1sPsrQZPb9H5adseMPzOi5IA!7e81,4.987028186735918
ChIJ1xHIjiIVrjsRjQCG3pHNy2c,Vindhu Restaurant,12.88846206665039,77.61962890625,0x3bae15228ec811d7:0x67cbcd91de86008d,N_A,N_A,68,4.599999904632568,https://www.google.com/maps/place/?q=place_id:ChIJ1xHIjiIVrjsRjQCG3pHNy2c,gmaps_v2,restaurant,food,N_A,1699615207,1698391193.0,251,https://www.google.com/maps/preview/review/listentitiesreviews?authuser=0&hl=en&gl=in&pb=!1m2!1y4300397932353950167!2y7479297632566116493!2m2!2i10!3sCAESB0VnTUktZ0U=!3e2!4m5!3b1!4b1!6b1!7b1!20b1!5m2!1sPsrQZPb9H5adseMPzOi5IA!7e81,4.799945098667172
ChIJxTxOPdUUrjsRGm-1vt6FfjU,Krishna Kuteera,12.879010200500488,77.61001586914062,0x3bae14d53d4e3cc5:0x357e85debeb56f1a,N_A,N_A,11368,4.099999904632568,https://www.google.com/maps/place/?q=place_id:ChIJxTxOPdUUrjsRGm-1vt6FfjU,gmaps_v2,restaurant,food,N_A,1699615207,1486364817.0,11564,https://www.google.com/maps/preview/review/listentitiesreviews?authuser=0&hl=en&gl=in&pb=!1m2!1y4300397600274529477!2y3854665522804518682!2m2!2i10!3sCAESB0VnTUlxRm8=!3e2!4m5!3b1!4b1!6b1!7b1!20b1!5m2!1sPsrQZPb9H5adseMPzOi5IA!7e81,4.605830732595612
18275021,Paradise Biryani,12.9101549997,77.5857583433,18275021,zomato_paradise_biryani,Paradise Biryani,23400,4.0,,zomato,restaurant,food,N_A,1688639100,1456857000.0,4934,,4.361337652907623
18548020,Aramane Donne Biriyani,12.9137233131,77.6092923805,18548020,zomato_aramane_donne_biriyani,Aramane Donne Biriyani,18100,4.0,,zomato,restaurant,food,N_A,1688639100,1502821800.0,745,,4.208004313914797
ChIJEecmoRIVrjsRraaW4ZTOSu8,Paradise Biryani | JP Nagar,12.910238265991213,77.58589935302734,0x3bae1512a126e711:0xef4ace94e196a6ad,paradisefoodcourt,Paradise food court,11313,3.900000095367432,https://www.google.com/maps/place/?q=place_id:ChIJEecmoRIVrjsRraaW4ZTOSu8,gmaps_v2,restaurant,food,N_A,1699615207,1457008982.0,11399,https://www.google.com/maps/preview/review/listentitiesreviews?authuser=0&hl=en&gl=in&pb=!1m2!1y4300397863942678289!2y17242821262176593581!2m2!2i10!3sCAESB0VnTUlfbGc=!3e2!4m5!3b1!4b1!6b1!7b1!20b1!5m2!1sPsrQZPb9H5adseMPzOi5IA!7e81,4.028928771304199
56028,Momoz,12.913867,77.608751,56028,zomato_momoz,Momoz,28600,4.0,,zomato,restaurant,food,N_A,1688639100,1379097000.0,2844,,3.991444136354958
ChIJ5X6fivEVrjsR23Y72lpUaiY,Tovo Jaya Nagar,12.916377067565918,77.58584594726562,0x3bae15f18a9f7ee5:0x266a545ada3b76db,N_A,N_A,652,4.5,https://www.google.com/maps/place/?q=place_id:ChIJ5X6fivEVrjsR23Y72lpUaiY,gmaps_v2,restaurant,food,N_A,1699615207,1685478654.0,936,https://www.google.com/maps/preview/review/listentitiesreviews?authuser=0&hl=en&gl=in&pb=!1m2!1y4300398821342412517!2y2768117670157711067!2m2!2i10!3sCAESB0VnTUlvZ2M=!3e2!4m5!3b1!4b1!6b1!7b1!20b1!5m2!1sPsrQZPb9H5adseMPzOi5IA!7e81,3.9849035334144043
19635915,Sharief Bhai,12.8988065814,77.5858049467,19635915,zomato_sharief_bhai,Sharief Bhai,6533,4.0,,zomato,restaurant,food,N_A,1688639100,1616437800.0,2395,,3.9088714469130057
ChIJeSyEEh4VrjsRvGRnu0EP0vY,Wakefit Furniture Store - JP Nagar,12.906548500061035,77.5868148803711,0x3bae151e12842c79:0xf6d20f41bb6764bc,wakefit,Wakefit,974,4.599999904632568,https://www.google.com/maps/place/?q=place_id:ChIJeSyEEh4VrjsRvGRnu0EP0vY,gmaps_v2,home_decor,retail,mattress_store,1695212099,1673328614.0,1093,https://www.google.com/maps/preview/review/listentitiesreviews?authuser=0&hl=en&gl=in&pb=!1m2!1y4300397913089256569!2y17785294653430916284!2m2!2i10!3sCAESB0VnTUl3Z2c=!3e2!4m5!3b1!4b1!6b1!7b1!20b1!5m2!1sPsrQZPb9H5adseMPzOi5IA!7e81,3.845530088100684
18788883,Davanagere Benne Dose,12.9196581888,77.5927961245,18788883,N_A,N_A,12900,4.1,,zomato,restaurant,food,N_A,1688639100,1539628200.0,2613,,3.7398606410671973
ChIJS0ewDxoVrjsRxUaYkGuhlNU,Onesta,12.906002044677734,77.59686279296875,0x3bae151a0fb0474b:0xd594a16b909846c5,N_A,N_A,9570,4.099999904632568,https://www.google.com/maps/place/?q=place_id:ChIJS0ewDxoVrjsRxUaYkGuhlNU,gmaps_v2,restaurant,food,N_A,1699615207,1475844737.0,9641,https://www.google.com/maps/preview/review/listentitiesreviews?authuser=0&hl=en&gl=in&pb=!1m2!1y4300397895861946187!2y15390103309991298757!2m2!2i10!3sCAESB0VnTUlxRXM=!3e2!4m5!3b1!4b1!6b1!7b1!20b1!5m2!1sPsrQZPb9H5adseMPzOi5IA!7e81,3.6950720083843054
18723386,Madeena Hotel,12.9208957336,77.6007404923,18723386,zomato_madeena_hotel,Madeena Hotel,13500,4.0,,zomato,restaurant,food,N_A,1688639100,1530469800.0,1391,,3.6871883481813477
ChIJuwE_xZYVrjsRyyLyNHIufKY,Pasta Street - JP Nagar,12.907038688659668,77.59881591796875,0x3bae1596c53f01bb:0xa67c2e7234f222cb,pastastreet,Pasta Street,2897,4.400000095367432,https://www.google.com/maps/place/?q=place_id:ChIJuwE_xZYVrjsRyyLyNHIufKY,gmaps_v2,restaurant,food,N_A,1699615207,1630232613.0,3093,https://www.google.com/maps/preview/review/listentitiesreviews?authuser=0&hl=en&gl=in&pb=!1m2!1y4300398431483920827!2y11996514575457592011!2m2!2i10!3sCAESB0VnTUlraGc=!3e2!4m5!3b1!4b1!6b1!7b1!20b1!5m2!1sPsrQZPb9H5adseMPzOi5IA!7e81,3.607544566581065
19206030,La Pino'z Pizza,12.9140004361,77.6091317832,19206030,zomato_la_pino'z_pizza,La Pino'z Pizza,10000,4.0,,zomato,restaurant,food,N_A,1688639100,1568313000.0,2954,,3.5902435132527355
18432980,Donne Biriyani House,12.9200483739,77.5952054188,18432980,zomato_donne_biriyani_house,Donne Biriyani House,16800,3.9,,zomato,restaurant,food,N_A,1688639100,1485455400.0,1286,,3.571940071964434
ChIJTWSZkm4VrjsRzai9pAecN7E,Skyline Pizzeria Bakery And cafe,12.906211853027344,77.57785034179688,0x3bae156e9299644d:0xb1379c07a4bda8cd,N_A,N_A,8004,4.300000190734863,https://www.google.com/maps/place/?q=place_id:ChIJTWSZkm4VrjsRzai9pAecN7E,gmaps_v2,coffee_shop,food,N_A,1687847039,1490928268.0,8341,https://www.google.com/maps/preview/review/listentitiesreviews?authuser=0&hl=en&gl=in&pb=!1m2!1y4300398258835514445!2y12769846825074927821!2m2!2i10!3sCAESB0VnTUlsRUU=!3e2!4m5!3b1!4b1!6b1!7b1!20b1!5m2!1sPsrQZPb9H5adseMPzOi5IA!7e81,3.5118317897687876
ChIJ068fyv0UrjsRB7DVSDPdYhY,McDonald's,12.9158296585083,77.61029052734375,0x3bae14fdca1fafd3:0x1662dd3348d5b007,mcdelivery,McDonald's,10820,4.099999904632568,https://www.google.com/maps/place/?q=place_id:ChIJ068fyv0UrjsRB7DVSDPdYhY,gmaps_v2,restaurant,food,N_A,1699615207,1431777730.0,11219,https://www.google.com/maps/preview/review/listentitiesreviews?authuser=0&hl=en&gl=in&pb=!1m2!1y4300397774435758035!2y1613094828887093255!2m2!2i10!3sCAESB0VnTUl5bGM=!3e2!4m5!3b1!4b1!6b1!7b1!20b1!5m2!1sPsrQZPb9H5adseMPzOi5IA!7e81,3.490355459105523
ChIJiQzmY0gVrjsRJhfA-dYIzGM,Dakshin Cafe,12.886484146118164,77.5822982788086,0x3bae154863e60c89:0x63cc08d6f9c01726,N_A,N_A,8461,4.199999809265137,https://www.google.com/maps/place/?q=place_id:ChIJiQzmY0gVrjsRJhfA-dYIzGM,gmaps_v2,restaurant,food,N_A,1699615207,1489299416.0,8755,https://www.google.com/maps/preview/review/listentitiesreviews?authuser=0&hl=en&gl=in&pb=!1m2!1y4300398094843251849!2y7191132424409978662!2m2!2i10!3sCAESB0VnTUlya1E=!3e2!4m5!3b1!4b1!6b1!7b1!20b1!5m2!1sPsrQZPb9H5adseMPzOi5IA!7e81,3.4758702450449857
ChIJB6Wvex9rrjsRoR2zQJj1vHI,Udupi Gardenia,12.866473197937012,77.57801818847656,0x3bae6b1f7bafa507:0x72bcf59840b31da1,N_A,N_A,56,4.300000190734863,https://www.google.com/maps/place/?q=place_id:ChIJB6Wvex9rrjsRoR2zQJj1vHI,gmaps_v2,restaurant,food,N_A,1699615207,1698222861.0,232,https://www.google.com/maps/preview/review/listentitiesreviews?authuser=0&hl=en&gl=in&pb=!1m2!1y4300492477148669191!2y8267753050214702497!2m2!2i10!3sCAESB0VnTUk1Z0U=!3e2!4m5!3b1!4b1!6b1!7b1!20b1!5m2!1sPsrQZPb9H5adseMPzOi5IA!7e81,3.474998312201134
ChIJ9aEJxxQVrjsRc3mHMsXeLak,Zaitoon Restaurant,12.90295124053955,77.58561706542969,0x3bae1514c709a1f5:0xa92ddec532877973,thezaitoon,Zaitoon,10314,4.099999904632568,https://www.google.com/maps/place/?q=place_id:ChIJ9aEJxxQVrjsRc3mHMsXeLak,gmaps_v2,restaurant,food,N_A,1699615207,1443013990.0,10486,https://www.google.com/maps/preview/review/listentitiesreviews?authuser=0&hl=en&gl=in&pb=!1m2!1y4300397873168228853!2y12190644704899463539!2m2!2i10!3sCAESB0VnTUk4RkU=!3e2!4m5!3b1!4b1!6b1!7b1!20b1!5m2!1sPsrQZPb9H5adseMPzOi5IA!7e81,3.4728190708464175
18648385,XO Belgian Waffle,12.913928541,77.6101969555,18648385,zomato_xo_belgian_waffle,XO Belgian Waffle,13500,4.3,,zomato,restaurant,food,N_A,1688639100,1520101800.0,1251,,3.4603615935463545
ChIJgxVxQ5IVrjsRJCAs2BV0RZc,Chulha Chauki Da Dhaba | JP Nagar Restaurant,12.91218090057373,77.58601379394531,0x3bae159243711583:0x97457415d82c2024,chulhachaukidadhaba,Chulha Chauki Da Dhaba,14114,4.199999809265137,https://www.google.com/maps/place/?q=place_id:ChIJgxVxQ5IVrjsRJCAs2BV0RZc,gmaps_v2,restaurant,food,N_A,1699615207,1345389928.0,14446,https://www.google.com/maps/preview/review/listentitiesreviews?authuser=0&hl=en&gl=in&pb=!1m2!1y4300398412126295427!2y10900246110290059300!2m2!2i10!3sCAESB0VnTUk2SEE=!3e2!4m5!3b1!4b1!6b1!7b1!20b1!5m2!1sPsrQZPb9H5adseMPzOi5IA!7e81,3.4425820862999448
18877951,Sri Punjabi Dhaba,12.9166991018,77.6051272452,18877951,N_A,N_A,11500,3.0,,zomato,restaurant,food,N_A,1688639100,1544121000.0,882,,3.437631687657117
18298238,Mysuru Coffee Thindi,12.9224048306,77.5894745439,18298238,zomato_mysuru_coffee_thindi,Mysuru Coffee Thindi,18000,4.0,,zomato,restaurant,food,N_A,1688639100,1462041000.0,500,,3.4316263022505487
ChIJAQAAAKQVrjsRtCKS_YzJQ6E,Reliance Smart Bazaar,12.917147636413574,77.59242248535156,0x3bae15a400000001:0xa143c98cfd9222b4,N_A,N_A,15297,3.900000095367432,https://www.google.com/maps/place/?q=place_id:ChIJAQAAAKQVrjsRtCKS_YzJQ6E,gmaps_v2,supermarket,retail,N_A,1699615207,1309688882.0,15429,https://www.google.com/maps/preview/review/listentitiesreviews?authuser=0&hl=en&gl=in&pb=!1m2!1y4300398488304222209!2y11620353070932828852!2m2!2i10!3sCAESB0VnTUl2SGc=!3e2!4m5!3b1!4b1!6b1!7b1!20b1!5m2!1sPsrQZPb9H5adseMPzOi5IA!7e81,3.389514160142945
ChIJzUJ8y_sUrjsRBrlyaKsHL3M,Sri Vishnu Park Restaurant And Banquet Hall,12.916726112365724,77.61510467529297,0x3bae14fbcb7c42cd:0x732f07ab6872b906,N_A,N_A,7478,4.099999904632568,https://www.google.com/maps/place/?q=place_id:ChIJzUJ8y_sUrjsRBrlyaKsHL3M,gmaps_v2,restaurant,food,N_A,1699615207,1508376849.0,7625,https://www.google.com/maps/preview/review/listentitiesreviews?authuser=0&hl=en&gl=in&pb=!1m2!1y4300397765868667597!2y8299861071040264454!2m2!2i10!3sCAESB0VnTUl4RHM=!3e2!4m5!3b1!4b1!6b1!7b1!20b1!5m2!1sPsrQZPb9H5adseMPzOi5IA!7e81,3.378502130832979
ChIJEyYcX8gVrjsRjGZteTJ9aM4,Grand Wedding Biryani,12.91639518737793,77.61063385009766,0x3bae15c85f1c2613:0xce687d32796d668c,N_A,N_A,849,4.0,https://www.google.com/maps/place/?q=place_id:ChIJEyYcX8gVrjsRjGZteTJ9aM4,gmaps_v2,restaurant,food,N_A,1699615207,1677851203.0,989,https://www.google.com/maps/preview/review/listentitiesreviews?authuser=0&hl=en&gl=in&pb=!1m2!1y4300398644518725139!2y14873275425130112652!2m2!2i10!3sCAESB0VnTUkxQWM=!3e2!4m5!3b1!4b1!6b1!7b1!20b1!5m2!1sPsrQZPb9H5adseMPzOi5IA!7e81,3.3704092316836554
ChIJLfLPbBMVrjsRY_kr6lc9Frs,Sattvam JP Nagar,12.906092643737791,77.58689880371094,0x3bae15136ccff22d:0xbb163d57ea2bf963,sattvam,Sattvam,6880,4.199999809265137,https://www.google.com/maps/place/?q=place_id:ChIJLfLPbBMVrjsRY_kr6lc9Frs,gmaps_v2,restaurant,food,N_A,1699615207,1523206092.0,7086,https://www.google.com/maps/preview/review/listentitiesreviews?authuser=0&hl=en&gl=in&pb=!1m2!1y4300397867359531565!2y13481029982380357987!2m2!2i10!3sCAESB0VnTUlxRGM=!3e2!4m5!3b1!4b1!6b1!7b1!20b1!5m2!1sPsrQZPb9H5adseMPzOi5IA!7e81,3.3696218021387385
18304733,Pallavi North Indian Veg Restaurant,12.9061238783,77.5902195275,18304733,N_A,N_A,17500,3.9,,zomato,restaurant,food,N_A,1688639100,1462300200.0,3176,,3.3401240352409594
ChIJ8V_PFK4VrjsR4vHQvoXM0fI,SPAR India,12.932226181030272,77.60086822509766,0x3bae15ae14cf5ff1:0xf2d1cc85bed0f1e2,sparindia,Spar India,10999,4.099999904632568,https://www.google.com/maps/place/?q=place_id:ChIJ8V_PFK4VrjsR4vHQvoXM0fI,gmaps_v2,supermarket,retail,N_A,1699615207,1413971567.0,11038,https://www.google.com/maps/preview/review/listentitiesreviews?authuser=0&hl=en&gl=in&pb=!1m2!1y4300398531603030001!2y17496990902115168738!2m2!2i10!3sCAESB0VnTUlsbFk=!3e2!4m5!3b1!4b1!6b1!7b1!20b1!5m2!1sPsrQZPb9H5adseMPzOi5IA!7e81,3.326920214292186
ChIJKUWuni4VrjsRvSAf1GOctOw,Namaste,12.91054630279541,77.60661315917969,0x3bae152e9eae4529:0xecb49c63d41f20bd,namastefoods,Namaste,5825,4.300000190734863,https://www.google.com/maps/place/?q=place_id:ChIJKUWuni4VrjsRvSAf1GOctOw,gmaps_v2,restaurant,food,N_A,1699615207,1547820606.0,6024,https://www.google.com/maps/preview/review/listentitiesreviews?authuser=0&hl=en&gl=in&pb=!1m2!1y4300397984160302377!2y17056429641333416125!2m2!2i10!3sCAESB0VnTUloQzg=!3e2!4m5!3b1!4b1!6b1!7b1!20b1!5m2!1sPsrQZPb9H5adseMPzOi5IA!7e81,3.3155329417809796
50307,Corner House Ice Creams,12.9174798074,77.5932608172,50307,zomato_corner_house_ice_creams,Corner House Ice Creams,25800,4.5,,zomato,restaurant,food,N_A,1688639100,1346437800.0,2907,,3.257030291819464
ChIJzxmh3qMVrjsRBpq0UAJ2cUk,Biggies Burger: BTM Layout,12.91371726989746,77.60584259033203,0x3bae15a3dea119cf:0x4971760250b49a06,biggiesburger,Biggies Burger,359,4.800000190734863,https://www.google.com/maps/place/?q=place_id:ChIJzxmh3qMVrjsRBpq0UAJ2cUk,gmaps_v2,restaurant,food,N_A,1699615207,1690017966.0,491,https://www.google.com/maps/preview/review/listentitiesreviews?authuser=0&hl=en&gl=in&pb=!1m2!1y4300398487744354767!2y5292140789453068806!2m2!2i10!3sCAESB0VnTUk2Z00=!3e2!4m5!3b1!4b1!6b1!7b1!20b1!5m2!1sPsrQZPb9H5adseMPzOi5IA!7e81,3.2319288428830744
ChIJR3dOsi0VrjsRR3WbzHLwRwM,Gilly's Restobar Bannerghatta,12.903881072998049,77.60124969482422,0x3bae152db24e7747:0x347f072cc9b7547,gillys,Gilly's,5444,4.099999904632568,https://www.google.com/maps/place/?q=place_id:ChIJR3dOsi0VrjsRR3WbzHLwRwM,gmaps_v2,restaurant,food,N_A,1699615207,1550980441.0,5534,https://www.google.com/maps/preview/review/listentitiesreviews?authuser=0&hl=en&gl=in&pb=!1m2!1y4300397980194600775!2y236421881309918535!2m2!2i10!3sCAESB0VnTUltaXM=!3e2!4m5!3b1!4b1!6b1!7b1!20b1!5m2!1sPsrQZPb9H5adseMPzOi5IA!7e81,3.1645463080959133
ChIJTwIB1kgVrjsR7GcKF2oAWWo,Apple Authorised Reseller iPlanet - JP Nagar,12.89126968383789,77.58184051513672,0x3bae1548d601024f:0x6a59006a170a67ec,iplanet,iPlanet,72,5.0,https://www.google.com/maps/place/?q=place_id:ChIJTwIB1kgVrjsR7GcKF2oAWWo,gmaps_v2,electronic_store,retail,N_A,1695212099,1693221355.0,265,https://www.google.com/maps/preview/review/listentitiesreviews?authuser=0&hl=en&gl=in&pb=!1m2!1y4300398096757621327!2y7663156696600700908!2m2!2i10!3sCAESB0VnTUloQUk=!3e2!4m5!3b1!4b1!6b1!7b1!20b1!5m2!1sPsrQZPb9H5adseMPzOi5IA!7e81,3.1248618606912792
ChIJmRx8CxNrrjsRlReNRKrhO-4,Godavari Cafe,12.859651565551758,77.58025360107422,0x3bae6b130b7c1c99:0xee3be1aa448d1795,N_A,N_A,1246,4.199999809265137,https://www.google.com/maps/place/?q=place_id:ChIJmRx8CxNrrjsRlReNRKrhO-4,gmaps_v2,restaurant,food,N_A,1699615207,1664957594.0,1440,https://www.google.com/maps/preview/review/listentitiesreviews?authuser=0&hl=en&gl=in&pb=!1m2!1y4300492423726636185!2y17166562526063564693!2m2!2i10!3sCAESB0VnTUlsZ3M=!3e2!4m5!3b1!4b1!6b1!7b1!20b1!5m2!1sPsrQZPb9H5adseMPzOi5IA!7e81,3.106226617511137
ChIJ8X2ye44VrjsRFgYHepf3ajs,Paakashala @ J P Nagar,12.910748481750488,77.58460235595703,0x3bae158e7bb27df1:0x3b6af7977a070616,N_A,N_A,4840,4.199999809265137,https://www.google.com/maps/place/?q=place_id:ChIJ8X2ye44VrjsRFgYHepf3ajs,gmaps_v2,restaurant,food,N_A,1699615207,1564938368.0,5031,https://www.google.com/maps/preview/review/listentitiesreviews?authuser=0&hl=en&gl=in&pb=!1m2!1y4300398395890236913!2y4281506625728480790!2m2!2i10!3sCAESB0VnTUlwaWM=!3e2!4m5!3b1!4b1!6b1!7b1!20b1!5m2!1sPsrQZPb9H5adseMPzOi5IA!7e81,3.1050327814718015
ChIJXXzi1VxrrjsRQPdFEZDDjF0,Inanna Taproom,12.87397003173828,77.60929870605469,0x3bae6b5cd5e27c5d:0x5d8cc3901145f740,N_A,N_A,1853,4.199999809265137,https://www.google.com/maps/place/?q=place_id:ChIJXXzi1VxrrjsRQPdFEZDDjF0,gmaps_v2,restaurant,food,N_A,1699615207,1647825489.0,1839,https://www.google.com/maps/preview/review/listentitiesreviews?authuser=0&hl=en&gl=in&pb=!1m2!1y4300492740654955613!2y6740977765799294784!2m2!2i10!3sCAESB0VnTUlwZzQ=!3e2!4m5!3b1!4b1!6b1!7b1!20b1!5m2!1sPsrQZPb9H5adseMPzOi5IA!7e81,3.0913317581686774
19338768,Biryani Trip - Destination Hyderabad,12.910180817,77.603706345,19338768,zomato_biryani_trip_-_destination_hyderabad,Biryani Trip - Destination Hyderabad,7543,4.1,,zomato,restaurant,food,N_A,1688639100,1583087400.0,1360,,3.0871847634855714
19616623,Chowman,12.8911583879,77.5943994074,19616623,N_A,N_A,5331,4.0,,zomato,restaurant,food,N_A,1688639100,1614018600.0,3297,,3.086272539047581
ChIJ6dNKGNwVrjsR-0nMw7PK6iw,Levitate Brewery & Kitchen,12.907705307006836,77.59947967529297,0x3bae15dc184ad3e9:0x2ceacab3c3cc49fb,N_A,N_A,5585,4.199999809265137,https://www.google.com/maps/place/?q=place_id:ChIJ6dNKGNwVrjsR-0nMw7PK6iw,gmaps_v2,restaurant,food,N_A,1699615207,1541500315.0,5587,https://www.google.com/maps/preview/review/listentitiesreviews?authuser=0&hl=en&gl=in&pb=!1m2!1y4300398729229947881!2y3236622155652024827!2m2!2i10!3sCAESB0VnTUl6Q3M=!3e2!4m5!3b1!4b1!6b1!7b1!20b1!5m2!1sPsrQZPb9H5adseMPzOi5IA!7e81,3.051856747307521
18570308,Mani's Dum Biryani,12.8892842975,77.5817722455,18570308,zomato_mani's_dum_biryani,Mani's Dum Biryani,13000,4.2,,zomato,restaurant,food,N_A,1688639100,1504377000.0,2352,,3.0478324082923183
60407,Alankrutha,12.9135733136,77.6127732173,60407,N_A,N_A,18200,3.9,,zomato,restaurant,food,N_A,1688639100,1427135400.0,404,,3.006611378730014
ChIJP_Cha98VrjsRdPgByOFgOEc,Puneri Chai,12.919832229614258,77.61107635498047,0x3bae15df6ba1f03f:0x473860e1c801f874,chaivenue,chaivenue,4712,4.5,https://www.google.com/maps/place/?q=place_id:ChIJP_Cha98VrjsRdPgByOFgOEc,gmaps_v2,coffee_shop,food,N_A,1687847039,1552222152.0,4864,https://www.google.com/maps/preview/review/listentitiesreviews?authuser=0&hl=en&gl=in&pb=!1m2!1y4300398743513067583!2y5131958298228160628!2m2!2i10!3sCAESB0VnTUlfQ1U=!3e2!4m5!3b1!4b1!6b1!7b1!20b1!5m2!1sPsrQZPb9H5adseMPzOi5IA!7e81,3.0017853581695517
ChIJD83aGqgVrjsRz5BcXtmBI3I,Kabab Magic - JP Nagar 3rd Phase,12.916240692138672,77.59700775146484,0x3bae15a81adacd0f:0x722381d95e5c90cf,N_A,N_A,13820,4.099999904632568,https://www.google.com/maps/place/?q=place_id:ChIJD83aGqgVrjsRz5BcXtmBI3I,gmaps_v2,restaurant,food,N_A,1699615207,1300273425.0,13990,https://www.google.com/maps/preview/review/listentitiesreviews?authuser=0&hl=en&gl=in&pb=!1m2!1y4300398505934638351!2y8224560115099668687!2m2!2i10!3sCAESB0VnTUluRzA=!3e2!4m5!3b1!4b1!6b1!7b1!20b1!5m2!1sPsrQZPb9H5adseMPzOi5IA!7e81,2.990040245776236
ChIJo7IYQoEVrjsR3hkEV4SPyno,Cafe Svarasya,12.892033576965332,77.57918548583984,0x3bae15814218b2a3:0x7aca8f84570419de,N_A,N_A,44,4.300000190734863,https://www.google.com/maps/place/?q=place_id:ChIJo7IYQoEVrjsR3hkEV4SPyno,gmaps_v2,restaurant,food,N_A,1699615207,1698331556.0,105,https://www.google.com/maps/preview/review/listentitiesreviews?authuser=0&hl=en&gl=in&pb=!1m2!1y4300398339089281699!2y8848042216481102302!2m2!2i10!3sCAESBkVnSUlaQQ==!3e2!4m5!3b1!4b1!6b1!7b1!20b1!5m2!1sPsrQZPb9H5adseMPzOi5IA!7e81,2.961552633854529
ChIJO89RSo8VrjsRaJh1NVkz09E,MARBELLA SKY LOUNGE,12.901618003845217,77.58580017089844,0x3bae158f4a51cf3b:0xd1d3335935759868,N_A,N_A,253,4.400000095367432,https://www.google.com/maps/place/?q=place_id:ChIJO89RSo8VrjsRaJh1NVkz09E,gmaps_v2,restaurant,food,N_A,1699615207,1692185365.0,475,https://www.google.com/maps/preview/review/listentitiesreviews?authuser=0&hl=en&gl=in&pb=!1m2!1y4300398399356784443!2y15119484832254892136!2m2!2i10!3sCAESB0VnTUkxZ00=!3e2!4m5!3b1!4b1!6b1!7b1!20b1!5m2!1sPsrQZPb9H5adseMPzOi5IA!7e81,2.94208140630716
ChIJ5wwElyxrrjsRje2b0osX-mY,Sstella Asian Kitchen And Bar,12.875991821289062,77.59578704833984,0x3bae6b2c97040ce7:0x66fa178bd29bed8d,N_A,N_A,344,4.5,https://www.google.com/maps/place/?q=place_id:ChIJ5wwElyxrrjsRje2b0osX-mY,gmaps_v2,restaurant,food,N_A,1699615207,1689441824.0,432,https://www.google.com/maps/preview/review/listentitiesreviews?authuser=0&hl=en&gl=in&pb=!1m2!1y4300492533441760487!2y7420269225347640717!2m2!2i10!3sCAESB0VnTUlyZ00=!3e2!4m5!3b1!4b1!6b1!7b1!20b1!5m2!1sPsrQZPb9H5adseMPzOi5IA!7e81,2.9215060516251086
ChIJqwN3X6sVrjsRImR7KZiwY0c,Savi Sagar Grand,12.879382133483888,77.60970306396484,0x3bae15ab5f7703ab:0x4763b098297b6422,N_A,N_A,1468,3.900000095367432,https://www.google.com/maps/place/?q=place_id:ChIJqwN3X6sVrjsRImR7KZiwY0c,gmaps_v2,restaurant,food,N_A,1699615207,1656057157.0,1619,https://www.google.com/maps/preview/review/listentitiesreviews?authuser=0&hl=en&gl=in&pb=!1m2!1y4300398519970628523!2y5144149366964708386!2m2!2i10!3sCAESB0VnTUl5Z3c=!3e2!4m5!3b1!4b1!6b1!7b1!20b1!5m2!1sPsrQZPb9H5adseMPzOi5IA!7e81,2.9118658893132268
53723,Savoury - Sea Shell Restaurant,12.9310621919,77.6008052006,53723,N_A,N_A,22900,4.1,,zomato,restaurant,food,N_A,1688639100,1348165800.0,2636,,2.9056022895187374
50031,Adithya,12.91198181,77.5869525969,50031,zomato_adithya,Adithya,23800,3.9,,zomato,restaurant,food,N_A,1688639100,1331663400.0,913,,2.8801960469578183
19206728,Chai Days,12.915729507,77.6101094484,19206728,zomato_chai_days,Chai Days,7962,4.1,,zomato,restaurant,food,N_A,1688639100,1568658600.0,891,,2.866785852701064
19539723,Falahaar & Kota Kachori,12.9169693589,77.594711557,19539723,N_A,N_A,5293,3.5,,zomato,restaurant,food,N_A,1688639100,1608057000.0,1977,,2.837573108668054
ChIJM5837HgWrjsR_XGq95yp1ZY,Livspace,12.906137466430664,77.59114837646484,0x3bae1678ec379f33:0x96d5a99cf7aa71fd,livspace,Livspace,7352,4.5,https://www.google.com/maps/place/?q=place_id:ChIJM5837HgWrjsR_XGq95yp1ZY,gmaps_v2,home_decor,retail,furniture_store,1695212099,1468169683.0,7906,https://www.google.com/maps/preview/review/listentitiesreviews?authuser=0&hl=en&gl=in&pb=!1m2!1y4300399402800357171!2y10868779767363695101!2m2!2i10!3sCAESB0VnTUkzRDA=!3e2!4m5!3b1!4b1!6b1!7b1!20b1!5m2!1sPsrQZPb9H5adseMPzOi5IA!7e81,2.797771496582383
18552146,Bathinda Junction,12.905399348,77.609199509,18552146,zomato_bathinda_junction,Bathinda Junction,11800,3.9,,zomato,restaurant,food,N_A,1688639100,1506191400.0,1326,,2.7940061727278556
ChIJQZjnCRsVrjsRfKpdESMgOXk,H&M,12.907809257507324,77.60098266601562,0x3bae151b09e79841:0x79392023115daa7c,hm,H&M,5891,4.199999809265137,https://www.google.com/maps/place/?q=place_id:ChIJQZjnCRsVrjsRfKpdESMgOXk,gmaps_v2,clothing_store,retail,N_A,1695212099,1512653369.0,6114,https://www.google.com/maps/preview/review/listentitiesreviews?authuser=0&hl=en&gl=in&pb=!1m2!1y4300397900059875393!2y8735048287249083004!2m2!2i10!3sCAESB0VnTUkzaTg=!3e2!4m5!3b1!4b1!6b1!7b1!20b1!5m2!1sPsrQZPb9H5adseMPzOi5IA!7e81,2.7880474409522895
ChIJ96qrVtoVrjsRhND9ZkxHEVw,Narmada Restaurant Bannerghatta,12.91148853302002,77.60014343261719,0x3bae15da56abaaf7:0x5c11474c66fdd084,narmadagroupofhotels,narmadagroupofhotels,409,4.699999809265137,https://www.google.com/maps/place/?q=place_id:ChIJ96qrVtoVrjsRhND9ZkxHEVw,gmaps_v2,restaurant,food,N_A,1699615207,1686899348.0,494,https://www.google.com/maps/preview/review/listentitiesreviews?authuser=0&hl=en&gl=in&pb=!1m2!1y4300398721686547191!2y6634162119564447876!2m2!2i10!3sCAESB0VnTUk2Z00=!3e2!4m5!3b1!4b1!6b1!7b1!20b1!5m2!1sPsrQZPb9H5adseMPzOi5IA!7e81,2.7790179177041834
18948896,Aramane Donne Biryani,12.9129961904,77.5860205293,18948896,zomato_aramane_donne_biryani,Aramane Donne Biryani,8870,3.8,,zomato,restaurant,food,N_A,1688639100,1550341800.0,314,,2.7707265434683106
ChIJz2eDjgwVrjsRngsvOiZellE,MTR,12.911707878112791,77.59904479980469,0x3bae150c8e8367cf:0x51965e263a2f0b9e,mavallitiffinrooms,Mavalli Tiffin Rooms,12766,4.199999809265137,https://www.google.com/maps/place/?q=place_id:ChIJz2eDjgwVrjsRngsvOiZellE,gmaps_v2,restaurant,food,N_A,1699615207,1296375783.0,12948,https://www.google.com/maps/preview/review/listentitiesreviews?authuser=0&hl=en&gl=in&pb=!1m2!1y4300397837860169679!2y5878989881856691102!2m2!2i10!3sCAESB0VnTUlqR1U=!3e2!4m5!3b1!4b1!6b1!7b1!20b1!5m2!1sPsrQZPb9H5adseMPzOi5IA!7e81,2.7353039766270473
18528143,Amontron,12.9119412869,77.6064130291,18528143,N_A,N_A,11900,3.8,,zomato,restaurant,food,N_A,1688639100,1498501800.0,1458,,2.7037304095514134
ChIJz014dBQVrjsRkEWGTX1fN8g,Burger King,12.907827377319336,77.60140991210938,0x3bae151474784dcf:0xc8375f7d4d864590,burgerking,Burger King,464,4.900000095367432,https://www.google.com/maps/place/?q=place_id:ChIJz014dBQVrjsRkEWGTX1fN8g,gmaps_v2,restaurant,food,N_A,1699615207,1684766102.0,503,https://www.google.com/maps/preview/review/listentitiesreviews?authuser=0&hl=en&gl=in&pb=!1m2!1y4300397871782972879!2y14427104923080869264!2m2!2i10!3sCAESB0VnTUk5QU0=!3e2!4m5!3b1!4b1!6b1!7b1!20b1!5m2!1sPsrQZPb9H5adseMPzOi5IA!7e81,2.699799078799699
18975675,Potful - Claypot Biryanis,12.9060212611,77.5958390906,18975675,zomato_potful_-_claypot_biryanis,Potful - Claypot Biryanis,8538,4.2,,zomato,restaurant,food,N_A,1688639100,1551897000.0,1698,,2.6973521687907382
18889301,Hari Super Sandwich,12.912438347,77.606386207,18889301,zomato_hari_super_sandwich,Hari Super Sandwich,8730,3.9,,zomato,restaurant,food,N_A,1688639100,1546713000.0,973,,2.65727022725207
18535015,Gorbandh Sweets & Snacks,12.9078559449,77.6108742133,18535015,zomato_gorbandh_sweets_&_snacks,Gorbandh Sweets & Snacks,10600,3.9,,zomato,restaurant,food,N_A,1688639100,1516041000.0,918,,2.653099889280357
ChIJzUsPmo0VrjsRCdxqEglYxDE,Khmer kitchen,12.906538009643556,77.58661651611328,0x3bae158d9a0f4bcd:0x31c45809126adc09,N_A,N_A,2861,4.400000095367432,https://www.google.com/maps/place/?q=place_id:ChIJzUsPmo0VrjsRCdxqEglYxDE,gmaps_v2,restaurant,food,N_A,1699615207,1605975011.0,3092,https://www.google.com/maps/preview/review/listentitiesreviews?authuser=0&hl=en&gl=in&pb=!1m2!1y4300398392104668109!2y3586087999280700425!2m2!2i10!3sCAESB0VnTUlraGc=!3e2!4m5!3b1!4b1!6b1!7b1!20b1!5m2!1sPsrQZPb9H5adseMPzOi5IA!7e81,2.6397894340161354
ChIJ46BiitMVrjsRk9Gtys0154k,"IBO Wholesale Bannerghatta (Tiles, Modular Kitchen Accessories, Hardware, Plywood, Lighting & Sanitary Ware)",12.914714813232422,77.5995101928711,0x3bae15d38a62a0e3:0x89e735cdcaadd193,ibo,IBO,786,4.800000190734863,https://www.google.com/maps/place/?q=place_id:ChIJ46BiitMVrjsRk9Gtys0154k,gmaps_v2,home_decor,retail,furnishing,1699615207,1673332629.0,1239,https://www.google.com/maps/preview/review/listentitiesreviews?authuser=0&hl=en&gl=in&pb=!1m2!1y4300398692489404643!2y9936970260801245587!2m2!2i10!3sCAESB0VnTUl6Z2s=!3e2!4m5!3b1!4b1!6b1!7b1!20b1!5m2!1sPsrQZPb9H5adseMPzOi5IA!7e81,2.5838561194415557
18926744,Sardarji Londonwaley,12.876435046,77.6165484264,18926744,zomato_sardarji_londonwaley,Sardarji Londonwaley,7811,3.6,,zomato,restaurant,food,N_A,1688639100,1556130600.0,1264,,2.546517393223831
ChIJNzFzNhMVrjsRrFGDtPQmzjA,Taproom By Sherlock's,12.906052589416504,77.58525848388672,0x3bae151336733137:0x30ce26f4b48351ac,N_A,N_A,4782,4.099999904632568,https://www.google.com/maps/place/?q=place_id:ChIJNzFzNhMVrjsRrFGDtPQmzjA,gmaps_v2,restaurant,food,N_A,1699615207,1535209730.0,4991,https://www.google.com/maps/preview/review/listentitiesreviews?authuser=0&hl=en&gl=in&pb=!1m2!1y4300397866447483191!2y3516791191465316780!2m2!2i10!3sCAESB0VnTUlfaVk=!3e2!4m5!3b1!4b1!6b1!7b1!20b1!5m2!1sPsrQZPb9H5adseMPzOi5IA!7e81,2.513084159598892
18546351,Andhra Ruchulu,12.9169059612,77.5899962336,18546351,N_A,N_A,10800,4.3,,zomato,restaurant,food,N_A,1688639100,1499884200.0,2513,,2.471776891619767
ChIJNwm5ffcVrjsRf0PyM2geGeY,Haldiram's,12.907164573669434,77.6011734008789,0x3bae15f77db90937:0xe6191e6833f2437f,haldirams,Haldiram's,658,4.599999904632568,https://www.google.com/maps/place/?q=place_id:ChIJNwm5ffcVrjsRf0PyM2geGeY,gmaps_v2,restaurant,food,N_A,1699615207,1676533916.0,1199,https://www.google.com/maps/preview/review/listentitiesreviews?authuser=0&hl=en&gl=in&pb=!1m2!1y4300398846895786295!2y16580316936038138751!2m2!2i10!3sCAESB0VnTUlwZ2s=!3e2!4m5!3b1!4b1!6b1!7b1!20b1!5m2!1sPsrQZPb9H5adseMPzOi5IA!7e81,2.463085795330946
ChIJtXhkWiIVrjsRn3FkYu7Q8iw,Yellow Submarine Beer Deck & Dining,12.897588729858398,77.59969329833984,0x3bae15225a6478b5:0x2cf2d0ee6264719f,N_A,N_A,5892,4.099999904632568,https://www.google.com/maps/place/?q=place_id:ChIJtXhkWiIVrjsRn3FkYu7Q8iw,gmaps_v2,restaurant,food,N_A,1699615207,1492796049.0,5891,https://www.google.com/maps/preview/review/listentitiesreviews?authuser=0&hl=en&gl=in&pb=!1m2!1y4300397931475007669!2y3238880804304351647!2m2!2i10!3sCAESB0VnTUlnaTQ=!3e2!4m5!3b1!4b1!6b1!7b1!20b1!5m2!1sPsrQZPb9H5adseMPzOi5IA!7e81,2.4614199425374315
ChIJ4zRflxsVrjsRGlYux7GH0c4,Domino's Pizza - Vega city Mall,12.907464981079102,77.60091400146484,0x3bae151b975f34e3:0xced187b1c72e561a,dominos,Domino's Pizza,5304,4.099999904632568,https://www.google.com/maps/place/?q=place_id:ChIJ4zRflxsVrjsRGlYux7GH0c4,gmaps_v2,restaurant,food,N_A,1699615207,1512653287.0,5327,https://www.google.com/maps/preview/review/listentitiesreviews?authuser=0&hl=en&gl=in&pb=!1m2!1y4300397902433301731!2y14902841839566345754!2m2!2i10!3sCAESB0VnTUl5Q2s=!3e2!4m5!3b1!4b1!6b1!7b1!20b1!5m2!1sPsrQZPb9H5adseMPzOi5IA!7e81,2.451117318435754
ChIJyV9q2gwVrjsR6e4ycBY5iBc,Stories Bar & Kitchen - J.P Nagar,12.91352653503418,77.58556365966797,0x3bae150cda6a5fc9:0x178839167032eee9,N_A,N_A,6059,4.099999904632568,https://www.google.com/maps/place/?q=place_id:ChIJyV9q2gwVrjsR6e4ycBY5iBc,gmaps_v2,restaurant,food,N_A,1699615207,1484386418.0,7016,https://www.google.com/maps/preview/review/listentitiesreviews?authuser=0&hl=en&gl=in&pb=!1m2!1y4300397839133597641!2y1695668028239441641!2m2!2i10!3sCAESB0VnTUk0alk=!3e2!4m5!3b1!4b1!6b1!7b1!20b1!5m2!1sPsrQZPb9H5adseMPzOi5IA!7e81,2.4322842795904966
ChIJB5IRc0QVrjsRLI4rEbfInd0,Societe Rangoon,12.906639099121094,77.58963775634766,0x3bae154473119207:0xdd9dc8b7112b8e2c,N_A,N_A,58,4.800000190734863,https://www.google.com/maps/place/?q=place_id:ChIJB5IRc0QVrjsRLI4rEbfInd0,gmaps_v2,restaurant,food,N_A,1699615207,1697542829.0,211,https://www.google.com/maps/preview/review/listentitiesreviews?authuser=0&hl=en&gl=in&pb=!1m2!1y4300398077917893127!2y15969140542318284332!2m2!2i10!3sCAESB0VnTUkwZ0U=!3e2!4m5!3b1!4b1!6b1!7b1!20b1!5m2!1sPsrQZPb9H5adseMPzOi5IA!7e81,2.4180916801857575
ChIJU3FtAKgVrjsRORbo3zZpWF8,Leon's Burgers & Wings - BTM Layout,12.87921905517578,77.60966491699219,0x3bae15a8006d7153:0x5f586936dfe81639,leons,Leon's Garage,2065,4.699999809265137,https://www.google.com/maps/place/?q=place_id:ChIJU3FtAKgVrjsRORbo3zZpWF8,gmaps_v2,restaurant,food,N_A,1699615207,1625829972.0,2079,https://www.google.com/maps/preview/review/listentitiesreviews?authuser=0&hl=en&gl=in&pb=!1m2!1y4300398505491263827!2y6870356915959371321!2m2!2i10!3sCAESB0VnTUlsaEE=!3e2!4m5!3b1!4b1!6b1!7b1!20b1!5m2!1sPsrQZPb9H5adseMPzOi5IA!7e81,2.4180447483836027
18608785,Donne Biriyani House,12.8881770013,77.5819747522,18608785,zomato_donne_biriyani_house,Donne Biriyani House,9680,3.6,,zomato,restaurant,food,N_A,1688639100,1515263400.0,881,,2.411964306416643
ChIJsesgXqcVrjsRXq0Qci8J1-I,Dindigul Thalappakatti Restaurant,12.916827201843262,77.58560943603516,0x3bae15a75e20ebb1:0xe2d7092f7210ad5e,thalappakatti,Dindigul Thalappakatti Restaurant,3929,3.900000095367432,https://www.google.com/maps/place/?q=place_id:ChIJsesgXqcVrjsRXq0Qci8J1-I,gmaps_v2,restaurant,food,N_A,1699615207,1557748117.0,4010,https://www.google.com/maps/preview/review/listentitiesreviews?authuser=0&hl=en&gl=in&pb=!1m2!1y4300398502768339889!2y16345543471946313054!2m2!2i10!3sCAESB0VnTUlvQjg=!3e2!4m5!3b1!4b1!6b1!7b1!20b1!5m2!1sPsrQZPb9H5adseMPzOi5IA!7e81,2.392842483764205
ChIJD-SXNxMVrjsRXyUKk1KyRiQ,McDonald's,12.90602970123291,77.58543395996094,0x3bae15133797e40f:0x2446b252930a255f,mcdelivery,McDonald's,7825,4.099999904632568,https://www.google.com/maps/place/?q=place_id:ChIJD-SXNxMVrjsRXyUKk1KyRiQ,gmaps_v2,restaurant,food,N_A,1699615207,1415505997.0,8021,https://www.google.com/maps/preview/review/listentitiesreviews?authuser=0&hl=en&gl=in&pb=!1m2!1y4300397866466665487!2y2613972701459129695!2m2!2i10!3sCAESB0VnTUkxRDQ=!3e2!4m5!3b1!4b1!6b1!7b1!20b1!5m2!1sPsrQZPb9H5adseMPzOi5IA!7e81,2.3796483049599133
ChIJF6el5CUVrjsRyZNDr5kewHQ,JAMMING GOAT 3.0,12.906132698059082,77.58973693847656,0x3bae1525e4a5a717:0x74c01e99af4393c9,N_A,N_A,895,4.099999904632568,https://www.google.com/maps/place/?q=place_id:ChIJF6el5CUVrjsRyZNDr5kewHQ,gmaps_v2,restaurant,food,N_A,1699615207,1666952619.0,1002,https://www.google.com/maps/preview/review/listentitiesreviews?authuser=0&hl=en&gl=in&pb=!1m2!1y4300397946679437079!2y8412757749347357641!2m2!2i10!3sCAESB0VnTUk2QWM=!3e2!4m5!3b1!4b1!6b1!7b1!20b1!5m2!1sPsrQZPb9H5adseMPzOi5IA!7e81,2.367479270166834
ChIJOz-_AfsVrjsRzqKaym7yxzY,LE ARABIA RESTAURANT J P NAGAR,12.911835670471191,77.59968566894531,0x3bae15fb01bf3f3b:0x36c7f26eca9aa2ce,N_A,N_A,4239,4.0,https://www.google.com/maps/place/?q=place_id:ChIJOz-_AfsVrjsRzqKaym7yxzY,gmaps_v2,restaurant,food,N_A,1699615207,1544885356.0,4241,https://www.google.com/maps/preview/review/listentitiesreviews?authuser=0&hl=en&gl=in&pb=!1m2!1y4300398861995687739!2y3947390156072985294!2m2!2i10!3sCAESB0VnTUlrQ0U=!3e2!4m5!3b1!4b1!6b1!7b1!20b1!5m2!1sPsrQZPb9H5adseMPzOi5IA!7e81,2.3670261273631032
19606715,Ambur Star Briyani ® Since 1890,12.9033532003,77.5857100636,19606715,N_A,N_A,4176,3.7,,zomato,restaurant,food,N_A,1688639100,1612031400.0,1813,,2.3548964399140035
60681,Zaitoon,12.9029884803,77.5857898593,60681,zomato_zaitoon,Zaitoon,13300,4.2,,zomato,restaurant,food,N_A,1688639100,1439922600.0,1705,,2.3101000536755705
ChIJJWqTO5xrrjsRWvhqSgvfzec,Rajhi Garden,12.86297607421875,77.59101104736328,0x3bae6b9c3b936a25:0xe7cddf0b4a6af85a,N_A,N_A,194,4.5,https://www.google.com/maps/place/?q=place_id:ChIJJWqTO5xrrjsRWvhqSgvfzec,gmaps_v2,restaurant,food,N_A,1699615207,1692334400.0,394,https://www.google.com/maps/preview/review/listentitiesreviews?authuser=0&hl=en&gl=in&pb=!1m2!1y4300493012943989285!2y16703251832573196378!2m2!2i10!3sCAESB0VnTUloZ00=!3e2!4m5!3b1!4b1!6b1!7b1!20b1!5m2!1sPsrQZPb9H5adseMPzOi5IA!7e81,2.3021623839225516
18651845,Nellore Bhojanam,12.8936905558,77.5991911814,18651845,N_A,N_A,9046,3.7,,zomato,restaurant,food,N_A,1688639100,1518719400.0,301,,2.299834568916965
ChIJL-6onhsVrjsR0jnp8me8pT8,Spar Hypermarket,12.907769203186035,77.60110473632812,0x3bae151b9ea8ee2f:0x3fa5bc67f2e939d2,sparindia,Spar India,4896,4.199999809265137,https://www.google.com/maps/place/?q=place_id:ChIJL-6onhsVrjsR0jnp8me8pT8,gmaps_v2,supermarket,retail,N_A,1700469324,1515943170.0,4933,https://www.google.com/maps/preview/review/listentitiesreviews?authuser=0&hl=en&gl=in&pb=!1m2!1y4300397902555573807!2y4586278950189742546!2m2!2i10!3sCAESB0VnTUl3aVk=!3e2!4m5!3b1!4b1!6b1!7b1!20b1!5m2!1sPsrQZPb9H5adseMPzOi5IA!7e81,2.2924360088272366
ChIJ4xTM8fEVrjsRrHHXP699lk4,Bangalore Central,12.891508102416992,77.59801483154297,0x3bae15f1f1cc14e3:0x4e967daf3fd771ac,N_A,N_A,4091,4.199999809265137,https://www.google.com/maps/place/?q=place_id:ChIJ4xTM8fEVrjsRrHHXP699lk4,gmaps_v2,supermarket,retail,N_A,1699615207,1545241611.0,4270,https://www.google.com/maps/preview/review/listentitiesreviews?authuser=0&hl=en&gl=in&pb=!1m2!1y4300398823073387747!2y5662851773108810156!2m2!2i10!3sCAESB0VnTUlwQ0U=!3e2!4m5!3b1!4b1!6b1!7b1!20b1!5m2!1sPsrQZPb9H5adseMPzOi5IA!7e81,2.2896558035740777
ChIJ_1emfJ8VrjsRlA1C2tIHeDg,"Iris Café & Kitchen, JP Nagar",12.90567398071289,77.58318328857422,0x3bae159f7ca657ff:0x387807d2da420d94,N_A,N_A,417,4.400000095367432,https://www.google.com/maps/place/?q=place_id:ChIJ_1emfJ8VrjsRlA1C2tIHeDg,gmaps_v2,restaurant,food,N_A,1699615207,1683873106.0,559,https://www.google.com/maps/preview/review/listentitiesreviews?authuser=0&hl=en&gl=in&pb=!1m2!1y4300398468920662015!2y4069010865515531668!2m2!2i10!3sCAESB0VnTUlwZ1E=!3e2!4m5!3b1!4b1!6b1!7b1!20b1!5m2!1sPsrQZPb9H5adseMPzOi5IA!7e81,2.288690690016536
ChIJlbt7xcQUrjsRdEDFS65gWM8,OM Collections Unit 2,12.89294147491455,77.61993408203125,0x3bae14c4c57bbb95:0xcf5860ae4bc54074,premtextiles,Prem Textiles,4769,4.300000190734863,https://www.google.com/maps/place/?q=place_id:ChIJlbt7xcQUrjsRdEDFS65gWM8,gmaps_v2,clothing_store,retail,N_A,1687847039,1507273086.0,7343,https://www.google.com/maps/preview/review/listentitiesreviews?authuser=0&hl=en&gl=in&pb=!1m2!1y4300397529544768405!2y14940798065513414772!2m2!2i10!3sCAESB0VnTUlyRGs=!3e2!4m5!3b1!4b1!6b1!7b1!20b1!5m2!1sPsrQZPb9H5adseMPzOi5IA!7e81,2.2818440486818163
ChIJP850SmZrrjsRs_PD38wMuD4,Kakal Kai Ruchi,12.87697410583496,77.61045837402344,0x3bae6b664a74ce3f:0x3eb80cccdfc3f3b3,kakalkairuchi,Kakal Kairuchi,2393,4.099999904632568,https://www.google.com/maps/place/?q=place_id:ChIJP850SmZrrjsRs_PD38wMuD4,gmaps_v2,restaurant,food,N_A,1699615207,1608276058.0,2493,https://www.google.com/maps/preview/review/listentitiesreviews?authuser=0&hl=en&gl=in&pb=!1m2!1y4300492781265407551!2y4519376300133315507!2m2!2i10!3sCAESB0VnTUl1aE0=!3e2!4m5!3b1!4b1!6b1!7b1!20b1!5m2!1sPsrQZPb9H5adseMPzOi5IA!7e81,2.263598930618458
19594392,Sharief Bhai,12.9019358223,77.6250074431,19594392,zomato_sharief_bhai,Sharief Bhai,3948,3.8,,zomato,restaurant,food,N_A,1688639100,1613241000.0,1613,,2.2620410859159583
18806841,New Kabab Zone,12.8889979959,77.6258224994,18806841,zomato_new_kabab_zone,New Kabab Zone,7678,3.5,,zomato,restaurant,food,N_A,1688639100,1541529000.0,844,,2.2547031101195634
ChIJk5b-BP0UrjsRb2ymfeFR-PI,Punjabi Swag,12.91362762451172,77.60992431640625,0x3bae14fd04fe9693:0xf2f851e17da66c6f,N_A,N_A,5078,4.099999904632568,https://www.google.com/maps/place/?q=place_id:ChIJk5b-BP0UrjsRb2ymfeFR-PI,gmaps_v2,restaurant,food,N_A,1699615207,1501690179.0,5348,https://www.google.com/maps/preview/review/listentitiesreviews?authuser=0&hl=en&gl=in&pb=!1m2!1y4300397771128477331!2y17507833580320353391!2m2!2i10!3sCAESB0VnTUkzQ2s=!3e2!4m5!3b1!4b1!6b1!7b1!20b1!5m2!1sPsrQZPb9H5adseMPzOi5IA!7e81,2.2166938887587273
ChIJYXfXVGkVrjsRNAcF0KdKQdY,Shri Bhagya Sagar Veg,12.885014533996582,77.62528228759766,0x3bae156954d77761:0xd6414aa7d0050734,N_A,N_A,4657,3.900000095367432,https://www.google.com/maps/place/?q=place_id:ChIJYXfXVGkVrjsRNAcF0KdKQdY,gmaps_v2,restaurant,food,N_A,1699615207,1517915733.0,4742,https://www.google.com/maps/preview/review/listentitiesreviews?authuser=0&hl=en&gl=in&pb=!1m2!1y4300398236324558689!2y15438703082212755252!2m2!2i10!3sCAESB0VnTUloQ1U=!3e2!4m5!3b1!4b1!6b1!7b1!20b1!5m2!1sPsrQZPb9H5adseMPzOi5IA!7e81,2.2144522003404368
ChIJX16aANoVrjsRQ3t2vOiWHwg,Nandhana Palace - Andhra Style Restaurant - Kanakapura Road,12.894455909729004,77.568359375,0x3bae15da009a5e5f:0x81f96e8bc767b43,nandhanarestaurants,Nandhana Palace,4199,4.300000190734863,https://www.google.com/maps/place/?q=place_id:ChIJX16aANoVrjsRQ3t2vOiWHwg,gmaps_v2,restaurant,food,N_A,1699615207,1534859182.0,4319,https://www.google.com/maps/preview/review/listentitiesreviews?authuser=0&hl=en&gl=in&pb=!1m2!1y4300398720242572895!2y585352402919914307!2m2!2i10!3sCAESB0VnTUkxaUU=!3e2!4m5!3b1!4b1!6b1!7b1!20b1!5m2!1sPsrQZPb9H5adseMPzOi5IA!7e81,2.2020050556572968
ChIJR6TNJ9kUrjsRHRfDaeKKoAY,Sri Bhagya Grand,12.89377498626709,77.6108169555664,0x3bae14d927cda447:0x6a08ae269c3171d,N_A,N_A,6351,3.900000095367432,https://www.google.com/maps/place/?q=place_id:ChIJR6TNJ9kUrjsRHRfDaeKKoAY,gmaps_v2,restaurant,food,N_A,1699615207,1449192678.0,6455,https://www.google.com/maps/preview/review/listentitiesreviews?authuser=0&hl=en&gl=in&pb=!1m2!1y4300397617093649479!2y477534265542907677!2m2!2i10!3sCAESB0VnTUlzakk=!3e2!4m5!3b1!4b1!6b1!7b1!20b1!5m2!1sPsrQZPb9H5adseMPzOi5IA!7e81,2.19120221407875
ChIJZ8oPuAwVrjsRJOe5JDuri5s,Nandhana Palace - Andhra Style Restaurant - JP Nagar,12.91459846496582,77.58557891845703,0x3bae150cb80fca67:0x9b8bab3b24b9e724,nandhanarestaurants,Nandhana Palace,5860,4.199999809265137,https://www.google.com/maps/place/?q=place_id:ChIJZ8oPuAwVrjsRJOe5JDuri5s,gmaps_v2,restaurant,food,N_A,1699615207,1467970496.0,6157,https://www.google.com/maps/preview/review/listentitiesreviews?authuser=0&hl=en&gl=in&pb=!1m2!1y4300397838557235815!2y11208240368149194532!2m2!2i10!3sCAESB0VnTUloakE=!3e2!4m5!3b1!4b1!6b1!7b1!20b1!5m2!1sPsrQZPb9H5adseMPzOi5IA!7e81,2.185692035938606
ChIJV0Cf9WsVrjsR_YE1z1pnlzc,Fattoush Multi-Cuisine Restaurant,12.893096923828123,77.59873962402344,0x3bae156bf59f4057:0x3797675acf3581fd,N_A,N_A,6100,4.300000190734863,https://www.google.com/maps/place/?q=place_id:ChIJV0Cf9WsVrjsR_YE1z1pnlzc,gmaps_v2,restaurant,food,N_A,1699615207,1453969419.0,6363,https://www.google.com/maps/preview/review/listentitiesreviews?authuser=0&hl=en&gl=in&pb=!1m2!1y4300398247611940951!2y4005784033290453501!2m2!2i10!3sCAESB0VnTUkyREU=!3e2!4m5!3b1!4b1!6b1!7b1!20b1!5m2!1sPsrQZPb9H5adseMPzOi5IA!7e81,2.1455283409947987
18663900,California Burrito,12.9061068843,77.5904793665,18663900,zomato_california_burrito,California Burrito,8241,4.2,,zomato,restaurant,food,N_A,1688639100,1521052200.0,2228,,2.1243378808248137
ChIJ23bBJw4VrjsRAqeLQus00bw,Checkpost,12.91073226928711,77.59920501708984,0x3bae150e27c176db:0xbcd134eb428ba702,N_A,N_A,4540,4.0,https://www.google.com/maps/place/?q=place_id:ChIJ23bBJw4VrjsRAqeLQus00bw,gmaps_v2,restaurant,food,N_A,1699615207,1513830980.0,4595,https://www.google.com/maps/preview/review/listentitiesreviews?authuser=0&hl=en&gl=in&pb=!1m2!1y4300397844726118107!2y13605714134301386498!2m2!2i10!3sCAESB0VnTUk3aU0=!3e2!4m5!3b1!4b1!6b1!7b1!20b1!5m2!1sPsrQZPb9H5adseMPzOi5IA!7e81,2.111352542323197
ChIJBdiIkdJqrjsRgNU6wtZGa8E,Croma - Royal Meenakshi Mall,12.876166343688965,77.59561157226562,0x3bae6ad29188d805:0xc16b46d6c23ad580,croma,Croma,6927,4.400000095367432,https://www.google.com/maps/place/?q=place_id:ChIJBdiIkdJqrjsRgNU6wtZGa8E,gmaps_v2,electronic_store,retail,N_A,1695212099,1409503110.0,8007,https://www.google.com/maps/preview/review/listentitiesreviews?authuser=0&hl=en&gl=in&pb=!1m2!1y4300492146802743301!2y13937311360023713152!2m2!2i10!3sCAESB0VnTUl3RDQ=!3e2!4m5!3b1!4b1!6b1!7b1!20b1!5m2!1sPsrQZPb9H5adseMPzOi5IA!7e81,2.094763633775625
ChIJG2bb3rgVrjsRID0rOOmIJ4A,NORTHEAST CHINESE FAST FOOD ROLLS & MOMOS,12.879383087158203,77.6126708984375,0x3bae15b8dedb661b:0x802788e9382b3d20,N_A,N_A,92,4.900000095367432,https://www.google.com/maps/place/?q=place_id:ChIJG2bb3rgVrjsRID0rOOmIJ4A,gmaps_v2,restaurant,food,N_A,1699615207,1695796189.0,127,https://www.google.com/maps/preview/review/listentitiesreviews?authuser=0&hl=en&gl=in&pb=!1m2!1y4300398577942488603!2y9234500096197606688!2m2!2i10!3sCAESBkVnSUllQQ==!3e2!4m5!3b1!4b1!6b1!7b1!20b1!5m2!1sPsrQZPb9H5adseMPzOi5IA!7e81,2.081372750796147
18863083,Waffle Head,12.917621,77.606969,18863083,zomato_waffle_head,Waffle Head,7031,4.0,,zomato,restaurant,food,N_A,1688639100,1542479400.0,313,,2.078132344278211
ChIJAQAAQKgVrjsRlmFpiRWC-qI,Moghul Durbar,12.928585052490234,77.596435546875,0x3bae15a840000001:0xa2fa821589696196,N_A,N_A,9099,3.900000095367432,https://www.google.com/maps/place/?q=place_id:ChIJAQAAQKgVrjsRlmFpiRWC-qI,gmaps_v2,restaurant,food,N_A,1699615207,1321101147.0,9254,https://www.google.com/maps/preview/review/listentitiesreviews?authuser=0&hl=en&gl=in&pb=!1m2!1y4300398506557833217!2y11743842007333298582!2m2!2i10!3sCAESB0VnTUlva2c=!3e2!4m5!3b1!4b1!6b1!7b1!20b1!5m2!1sPsrQZPb9H5adseMPzOi5IA!7e81,2.076946890691458
ChIJScyYJHQVrjsRakEyIOO7lVc,Glen's Bake House,12.885838508605955,77.59650421142578,0x3bae15742498cc49:0x5795bbe32032416a,N_A,N_A,1677,4.199999809265137,https://www.google.com/maps/place/?q=place_id:ChIJScyYJHQVrjsRakEyIOO7lVc,gmaps_v2,restaurant,food,N_A,1699615207,1629815980.0,1768,https://www.google.com/maps/preview/review/listentitiesreviews?authuser=0&hl=en&gl=in&pb=!1m2!1y4300398282759785545!2y6311157037001752938!2m2!2i10!3sCAESB0VnTUk0QTA=!3e2!4m5!3b1!4b1!6b1!7b1!20b1!5m2!1sPsrQZPb9H5adseMPzOi5IA!7e81,2.0758510692389187
ChIJ6W2s_6UVrjsRwOijjgrapKY,More Megastore,12.907041549682615,77.59798431396484,0x3bae15a5ffac6de9:0xa6a4da0a8ea3e8c0,moreretail,More Retail,3851,4.099999904632568,https://www.google.com/maps/place/?q=place_id:ChIJ6W2s_6UVrjsRwOijjgrapKY,gmaps_v2,supermarket,retail,N_A,1700469324,1539439239.0,3886,https://www.google.com/maps/preview/review/listentitiesreviews?authuser=0&hl=en&gl=in&pb=!1m2!1y4300398496888679913!2y12007962245354219712!2m2!2i10!3sCAESB0VnTUlxQjQ=!3e2!4m5!3b1!4b1!6b1!7b1!20b1!5m2!1sPsrQZPb9H5adseMPzOi5IA!7e81,2.0662374984152807
ChIJj7fO500VrjsRMwya8IG6rmI,Paakashala @ Kanakapura Road,12.896777153015137,77.57035064697266,0x3bae154de7ceb78f:0x62aeba81f09a0c33,paakashala,Paakashala,2935,4.099999904632568,https://www.google.com/maps/place/?q=place_id:ChIJj7fO500VrjsRMwya8IG6rmI,gmaps_v2,restaurant,food,N_A,1699615207,1576760992.0,3123,https://www.google.com/maps/preview/review/listentitiesreviews?authuser=0&hl=en&gl=in&pb=!1m2!1y4300398118531151759!2y7110825928914766899!2m2!2i10!3sCAESB0VnTUlzQmc=!3e2!4m5!3b1!4b1!6b1!7b1!20b1!5m2!1sPsrQZPb9H5adseMPzOi5IA!7e81,2.0641050044558913
ChIJC9monpcVrjsRSui0dFmBOrI,Paris Panini - Gourmet Sandwiches & Wraps,12.9065580368042,77.59178924560547,0x3bae15979ea8d90b:0xb23a815974b4e84a,parispanini,Paris Panini,29,4.300000190734863,https://www.google.com/maps/place/?q=place_id:ChIJC9monpcVrjsRSui0dFmBOrI,gmaps_v2,restaurant,food,N_A,1699615207,1698398155.0,52,https://www.google.com/maps/preview/review/listentitiesreviews?authuser=0&hl=en&gl=in&pb=!1m2!1y4300398435131513099!2y12842719508610476106!2m2!2i10!3sCAESBkVnSUlNZw==!3e2!4m5!3b1!4b1!6b1!7b1!20b1!5m2!1sPsrQZPb9H5adseMPzOi5IA!7e81,2.058745230277753
ChIJh93CWv0VrjsRXlkiHnbqMuY,Dindigul Thalappakatti Restaurant,12.8902006149292,77.59779357910156,0x3bae15fd5ac2dd87:0xe632ea761e22595e,thalappakatti,Dindigul Thalappakatti Restaurant,1330,4.099999904632568,https://www.google.com/maps/place/?q=place_id:ChIJh93CWv0VrjsRXlkiHnbqMuY,gmaps_v2,restaurant,food,N_A,1699615207,1643790988.0,1401,https://www.google.com/maps/preview/review/listentitiesreviews?authuser=0&hl=en&gl=in&pb=!1m2!1y4300398872079031687!2y16587578170591566174!2m2!2i10!3sCAESB0VnTUktQW8=!3e2!4m5!3b1!4b1!6b1!7b1!20b1!5m2!1sPsrQZPb9H5adseMPzOi5IA!7e81,2.0584614000600707
ChIJH0tijXYVrjsRSUS2dak8Efc,McDonald's,12.916619300842283,77.59227752685547,0x3bae15768d624b1f:0xf7113ca975b64449,mcdelivery,McDonald's,9344,4.099999904632568,https://www.google.com/maps/place/?q=place_id:ChIJH0tijXYVrjsRSUS2dak8Efc,gmaps_v2,restaurant,food,N_A,1699615207,1305463485.0,9429,https://www.google.com/maps/preview/review/listentitiesreviews?authuser=0&hl=en&gl=in&pb=!1m2!1y4300398293107755807!2y17803077500494300233!2m2!2i10!3sCAESB0VnTUl6RWs=!3e2!4m5!3b1!4b1!6b1!7b1!20b1!5m2!1sPsrQZPb9H5adseMPzOi5IA!7e81,2.0482508509756046
ChIJCX6MvmwVrjsRYJRBPVVJeyk,Yuki - Pan Asian Kitchen and Bar,12.906126976013184,77.58975982666016,0x3bae156cbe8c7e09:0x297b49553d419460,N_A,N_A,621,4.300000190734863,https://www.google.com/maps/place/?q=place_id:ChIJCX6MvmwVrjsRYJRBPVVJeyk,gmaps_v2,restaurant,food,N_A,1699615207,1673267888.0,756,https://www.google.com/maps/preview/review/listentitiesreviews?authuser=0&hl=en&gl=in&pb=!1m2!1y4300398250982931977!2y2989063408139211872!2m2!2i10!3sCAESB0VnTUk3Z1U=!3e2!4m5!3b1!4b1!6b1!7b1!20b1!5m2!1sPsrQZPb9H5adseMPzOi5IA!7e81,2.0364273116365275
ChIJi92M4lAVrjsRbfyHJRyCfWY,Aamchi Dilli,12.922320365905762,77.58938598632812,0x3bae1550e28cdd8b:0x667d821c2587fc6d,N_A,N_A,625,4.199999809265137,https://www.google.com/maps/place/?q=place_id:ChIJi92M4lAVrjsRbfyHJRyCfWY,gmaps_v2,restaurant,food,N_A,1699615207,1672913554.0,816,https://www.google.com/maps/preview/review/listentitiesreviews?authuser=0&hl=en&gl=in&pb=!1m2!1y4300398131327851915!2y7385202021357845613!2m2!2i10!3sCAESB0VnTUlxZ1k=!3e2!4m5!3b1!4b1!6b1!7b1!20b1!5m2!1sPsrQZPb9H5adseMPzOi5IA!7e81,2.0223467064005365
18722893,Sri Rajasthani Foods,12.8997759149,77.5856379792,18722893,N_A,N_A,6903,3.9,,zomato,restaurant,food,N_A,1688639100,1541097000.0,444,,2.021183106381162
18558508,Rajanna Military Hotel,12.9189026527,77.5930760801,18558508,zomato_rajanna_military_hotel,Rajanna Military Hotel,8735,4.1,,zomato,restaurant,food,N_A,1688639100,1501698600.0,810,,2.0185674051369284
ChIJxx8s29FqrjsR6axh03DDvXM,Krishna Kuteera,12.869433403015137,77.59700775146484,0x3bae6ad1db2c1fc7:0x73bdc370d361ace9,N_A,N_A,4102,4.099999904632568,https://www.google.com/maps/place/?q=place_id:ChIJxx8s29FqrjsR6axh03DDvXM,gmaps_v2,restaurant,food,N_A,1699615207,1522559975.0,4191,https://www.google.com/maps/preview/review/listentitiesreviews?authuser=0&hl=en&gl=in&pb=!1m2!1y4300492143743213511!2y8340036974310173929!2m2!2i10!3sCAESB0VnTUkzaUE=!3e2!4m5!3b1!4b1!6b1!7b1!20b1!5m2!1sPsrQZPb9H5adseMPzOi5IA!7e81,2.001707580152164
ChIJE7STwxgVrjsRUfPar-mEc2w,Royaloak Furniture Bannerghatta,12.901524543762209,77.6008071899414,0x3bae1518c393b413:0x6c7384e9afdaf351,royaloakindia,RoyalOak,5365,4.199999809265137,https://www.google.com/maps/place/?q=place_id:ChIJE7STwxgVrjsRUfPar-mEc2w,gmaps_v2,home_decor,retail,furniture_store,1695212099,1463217043.0,5668,https://www.google.com/maps/preview/review/listentitiesreviews?authuser=0&hl=en&gl=in&pb=!1m2!1y4300397890290037779!2y7814735917630550865!2m2!2i10!3sCAESB0VnTUluQ3c=!3e2!4m5!3b1!4b1!6b1!7b1!20b1!5m2!1sPsrQZPb9H5adseMPzOi5IA!7e81,1.998042578976338
19199207,Paakashala,12.910516768,77.5846868008,19199207,zomato_paakashala,Paakashala,5589,4.2,,zomato,restaurant,food,N_A,1688639100,1567621800.0,2584,,1.9951263166505946
ChIJYdeA2gwVrjsRTURe5RZqJoc,Dr. Sheesha - J.P Nagar,12.913718223571776,77.5855941772461,0x3bae150cda80d761:0x87266a16e55e444d,N_A,N_A,5539,4.0,https://www.google.com/maps/place/?q=place_id:ChIJYdeA2gwVrjsRTURe5RZqJoc,gmaps_v2,restaurant,food,N_A,1699615207,1459615483.0,5585,https://www.google.com/maps/preview/review/listentitiesreviews?authuser=0&hl=en&gl=in&pb=!1m2!1y4300397839135070049!2y9738587890805261389!2m2!2i10!3sCAESB0VnTUl6Q3M=!3e2!4m5!3b1!4b1!6b1!7b1!20b1!5m2!1sPsrQZPb9H5adseMPzOi5IA!7e81,1.994042293148637
ChIJPW7WkhAVrjsRVtsNWhT-_Rg,Max,12.9069185256958,77.59828186035156,0x3bae151092d66e3d:0x18fdfe145a0ddb56,maxfashion,Max Fashion,5516,4.0,https://www.google.com/maps/place/?q=place_id:ChIJPW7WkhAVrjsRVtsNWhT-_Rg,gmaps_v2,clothing_store,retail,N_A,1687847039,1447342156.0,5624,https://www.google.com/maps/preview/review/listentitiesreviews?authuser=0&hl=en&gl=in&pb=!1m2!1y4300397855112588861!2y1800874789381725014!2m2!2i10!3sCAESB0VnTUk5Q3M=!3e2!4m5!3b1!4b1!6b1!7b1!20b1!5m2!1sPsrQZPb9H5adseMPzOi5IA!7e81,1.9815913675232948
ChIJUTOl5XdrrjsRYpvV_p2tCyY,Mithai Factory,12.870417594909668,77.58391571044922,0x3bae6b77e5a53351:0x260bad9dfed59b62,N_A,N_A,1031,4.300000190734863,https://www.google.com/maps/place/?q=place_id:ChIJUTOl5XdrrjsRYpvV_p2tCyY,gmaps_v2,coffee_shop,food,N_A,1687847039,1642676465.0,1310,https://www.google.com/maps/preview/review/listentitiesreviews?authuser=0&hl=en&gl=in&pb=!1m2!1y4300492856883491665!2y2741475692281961314!2m2!2i10!3sCAESB0VnTUlsQW8=!3e2!4m5!3b1!4b1!6b1!7b1!20b1!5m2!1sPsrQZPb9H5adseMPzOi5IA!7e81,1.9720448980790015
ChIJPb-7osNrrjsRW0HMjzSch0g,CaratLane Royal Meenakshi Mall,12.87590789794922,77.59574127197266,0x3bae6bc3a2bbbf3d:0x48879c348fcc415b,caratlane,CaratLane,248,5.0,https://www.google.com/maps/place/?q=place_id:ChIJPb-7osNrrjsRW0HMjzSch0g,gmaps_v2,jewelry_store,retail,N_A,1687847039,1676895123.0,595,https://www.google.com/maps/preview/review/listentitiesreviews?authuser=0&hl=en&gl=in&pb=!1m2!1y4300493182178410301!2y5226317642151510363!2m2!2i10!3sCAESB0VnTUl6Z1E=!3e2!4m5!3b1!4b1!6b1!7b1!20b1!5m2!1sPsrQZPb9H5adseMPzOi5IA!7e81,1.9564795785504563
ChIJDaqwWeRrrjsRcC0yont0swU,Croma - Gottigere,12.861475944519045,77.59001159667969,0x3bae6be459b0aa0d:0x5b3747ba2322d70,croma,Croma,416,4.800000190734863,https://www.google.com/maps/place/?q=place_id:ChIJDaqwWeRrrjsRcC0yont0swU,gmaps_v2,electronic_store,retail,N_A,1695212099,1676732931.0,909,https://www.google.com/maps/preview/review/listentitiesreviews?authuser=0&hl=en&gl=in&pb=!1m2!1y4300493322686867981!2y410800065371843952!2m2!2i10!3sCAESB0VnTUloQWM=!3e2!4m5!3b1!4b1!6b1!7b1!20b1!5m2!1sPsrQZPb9H5adseMPzOi5IA!7e81,1.9450226330536093
19073994,Dindigul Thalappakatti,12.9167451795,77.5857680663,19073994,zomato_dindigul_thalappakatti,Dindigul Thalappakatti,5899,3.9,,zomato,restaurant,food,N_A,1688639100,1557426600.0,1324,,1.9421686196056016
18285162,Shanghai Court,12.8937448084,77.6107169688,18285162,N_A,N_A,9948,4.2,,zomato,restaurant,food,N_A,1688639100,1465324200.0,927,,1.9244286879200627
ChIJX6xjLIMVrjsR6N_eDecCAuk,Baba Punjabi,12.910572052001951,77.58807373046875,0x3bae15832c63ac5f:0xe90202e70ddedfe8,N_A,N_A,3379,4.099999904632568,https://www.google.com/maps/place/?q=place_id:ChIJX6xjLIMVrjsR6N_eDecCAuk,gmaps_v2,restaurant,food,N_A,1699615207,1546961861.0,3508,https://www.google.com/maps/preview/review/listentitiesreviews?authuser=0&hl=en&gl=in&pb=!1m2!1y4300398347315031135!2y16789985552184041448!2m2!2i10!3sCAESB0VnTUlyQnM=!3e2!4m5!3b1!4b1!6b1!7b1!20b1!5m2!1sPsrQZPb9H5adseMPzOi5IA!7e81,1.912474293226432
ChIJ2YLycnwVrjsRF6vt1Ti73jk,ZUDIO,12.907258987426758,77.58597564697266,0x3bae157c72f282d9:0x39debb38d5edab17,zudio,Zudio,850,4.099999904632568,https://www.google.com/maps/place/?q=place_id:ChIJ2YLycnwVrjsRF6vt1Ti73jk,gmaps_v2,clothing_store,retail,N_A,1687847039,1649426053.0,1460,https://www.google.com/maps/preview/review/listentitiesreviews?authuser=0&hl=en&gl=in&pb=!1m2!1y4300398318434026201!2y4169976157773343511!2m2!2i10!3sCAESB0VnTUlxZ3M=!3e2!4m5!3b1!4b1!6b1!7b1!20b1!5m2!1sPsrQZPb9H5adseMPzOi5IA!7e81,1.9114553697294494
ChIJL5rjzB4VrjsR27lMVnxWgbc,Kalpavruksha Veg Restaurant,12.903656959533691,77.60195922851562,0x3bae151ecce39a2f:0xb781567c564cb9db,N_A,N_A,4836,4.099999904632568,https://www.google.com/maps/place/?q=place_id:ChIJL5rjzB4VrjsR27lMVnxWgbc,gmaps_v2,restaurant,food,N_A,1699615207,1480664818.0,4944,https://www.google.com/maps/preview/review/listentitiesreviews?authuser=0&hl=en&gl=in&pb=!1m2!1y4300397916216072751!2y13222945072960289243!2m2!2i10!3sCAESB0VnTUl6Q1k=!3e2!4m5!3b1!4b1!6b1!7b1!20b1!5m2!1sPsrQZPb9H5adseMPzOi5IA!7e81,1.9083336727937943
19812983,Pasta Street,12.9070716143,77.5989165902,19812983,zomato_pasta_street,Pasta Street,2669,4.3,,zomato,restaurant,food,N_A,1688639100,1628188200.0,4141,,1.907346292611028
18764048,Nandhana Palace,12.8942487679,77.568654567,18764048,zomato_nandhana_palace,Nandhana Palace,6773,3.9,,zomato,restaurant,food,N_A,1688639100,1535049000.0,2534,,1.9050290350745263
ChIJwcMwvy0VrjsRhBr-JIPrC6Y,Cafe Arena,12.922118186950684,77.59365844726562,0x3bae152dbf30c3c1:0xa60beb8324fe1a84,N_A,N_A,183,4.599999904632568,https://www.google.com/maps/place/?q=place_id:ChIJwcMwvy0VrjsRhBr-JIPrC6Y,gmaps_v2,coffee_shop,food,N_A,1687847039,1679478484.0,272,https://www.google.com/maps/preview/review/listentitiesreviews?authuser=0&hl=en&gl=in&pb=!1m2!1y4300397980410758081!2y11964915783533730436!2m2!2i10!3sCAESB0VnTUlqZ0k=!3e2!4m5!3b1!4b1!6b1!7b1!20b1!5m2!1sPsrQZPb9H5adseMPzOi5IA!7e81,1.8893584376275234
ChIJhbNBO-0VrjsRPJA5E9_ZG2Q,Third Wave Coffee,12.889369010925291,77.61055755615234,0x3bae15ed3b41b385:0x641bd9df1339903c,thirdwavecoffee,Third Wave Coffee,406,4.599999904632568,https://www.google.com/maps/place/?q=place_id:ChIJhbNBO-0VrjsRPJA5E9_ZG2Q,gmaps_v2,coffee_shop,food,N_A,1687847039,1669200251.0,695,https://www.google.com/maps/preview/review/listentitiesreviews?authuser=0&hl=en&gl=in&pb=!1m2!1y4300398802830996357!2y7213598780287455292!2m2!2i10!3sCAESB0VnTUlzZ1U=!3e2!4m5!3b1!4b1!6b1!7b1!20b1!5m2!1sPsrQZPb9H5adseMPzOi5IA!7e81,1.881203347193093
18649401,Momo Junction,12.8950628793,77.6093121618,18649401,zomato_momo_junction,Momo Junction,7254,4.0,,zomato,restaurant,food,N_A,1688639100,1521657000.0,390,,1.8766849859955048
ChIJE3BgTxEVrjsR2v1NmmKKKq0,Raja Gobi JP Nagar,12.905519485473633,77.5915756225586,0x3bae15114f607013:0xad2a8a629a4dfdda,N_A,N_A,4060,4.099999904632568,https://www.google.com/maps/place/?q=place_id:ChIJE3BgTxEVrjsR2v1NmmKKKq0,gmaps_v2,restaurant,food,N_A,1699615207,1512493475.0,4153,https://www.google.com/maps/preview/review/listentitiesreviews?authuser=0&hl=en&gl=in&pb=!1m2!1y4300397858275749907!2y12477937873683611098!2m2!2i10!3sCAESB0VnTUl0aUE=!3e2!4m5!3b1!4b1!6b1!7b1!20b1!5m2!1sPsrQZPb9H5adseMPzOi5IA!7e81,1.8746299334168197
ChIJLw-5bEwVrjsRPsvm3QLJzUI,Decathlon JP Nagar Connect,12.91512966156006,77.58558654785156,0x3bae154c6cb90f2f:0x42cdc902dde6cb3e,decathlon,Decathlon,1041,3.900000095367432,https://www.google.com/maps/place/?q=place_id:ChIJLw-5bEwVrjsRPsvm3QLJzUI,gmaps_v2,clothing_store,retail,N_A,1687847039,1639812767.0,1344,https://www.google.com/maps/preview/review/listentitiesreviews?authuser=0&hl=en&gl=in&pb=!1m2!1y4300398112171167535!2y4813724590878935870!2m2!2i10!3sCAESB0VnTUl2QW8=!3e2!4m5!3b1!4b1!6b1!7b1!20b1!5m2!1sPsrQZPb9H5adseMPzOi5IA!7e81,1.8724630613741788
ChIJ45pC1QEVrjsRBq27PidShJY,1947 Restaurant,12.906085968017578,77.58660125732422,0x3bae1501d5429ae3:0x968452273ebbad06,N_A,N_A,8306,4.0,https://www.google.com/maps/place/?q=place_id:ChIJ45pC1QEVrjsRBq27PidShJY,gmaps_v2,restaurant,food,N_A,1699615207,1316278502.0,8381,https://www.google.com/maps/preview/review/listentitiesreviews?authuser=0&hl=en&gl=in&pb=!1m2!1y4300397791802464995!2y10845884131124686086!2m2!2i10!3sCAESB0VnTUl2RUU=!3e2!4m5!3b1!4b1!6b1!7b1!20b1!5m2!1sPsrQZPb9H5adseMPzOi5IA!7e81,1.87208370771591
19629715,SLV Reddy Military Hotel,12.8690247085,77.5819291547,19629715,N_A,N_A,3066,4.1,,zomato,restaurant,food,N_A,1688639100,1617474600.0,1476,,1.86119764770356
ChIJB_48idsVrjsRbhJxwsGW6vE,The Watering Hole | Pub | Restaurant BTM Layout,12.905470848083496,77.60964965820312,0x3bae15db893cfe07:0xf1ea96c1c271126e,N_A,N_A,297,4.400000095367432,https://www.google.com/maps/place/?q=place_id:ChIJB_48idsVrjsRbhJxwsGW6vE,gmaps_v2,restaurant,food,N_A,1699615207,1685809018.0,455,https://www.google.com/maps/preview/review/listentitiesreviews?authuser=0&hl=en&gl=in&pb=!1m2!1y4300398726829899271!2y17431911066625970798!2m2!2i10!3sCAESB0VnTUl3Z00=!3e2!4m5!3b1!4b1!6b1!7b1!20b1!5m2!1sPsrQZPb9H5adseMPzOi5IA!7e81,1.8586446991273262
ChIJb2sAgvYVrjsRiQxyTL9OxLg,Brahmin Tiffins & Coffee,12.891777992248535,77.60643005371094,0x3bae15f682006b6f:0xb8c44ebf4c720c89,N_A,N_A,2966,4.300000190734863,https://www.google.com/maps/place/?q=place_id:ChIJb2sAgvYVrjsRiQxyTL9OxLg,gmaps_v2,restaurant,food,N_A,1699615207,1561182621.0,3120,https://www.google.com/maps/preview/review/listentitiesreviews?authuser=0&hl=en&gl=in&pb=!1m2!1y4300398842672606063!2y13313852981942291593!2m2!2i10!3sCAESB0VnTUlwaGc=!3e2!4m5!3b1!4b1!6b1!7b1!20b1!5m2!1sPsrQZPb9H5adseMPzOi5IA!7e81,1.8511710819300884
ChIJT1toJoEVrjsRs_xa-nz7gvI,Shyamji's Chole Bhature,12.897538185119627,77.59481048583984,0x3bae158126685b4f:0xf282fb7cfa5afcb3,N_A,N_A,1499,4.199999809265137,https://www.google.com/maps/place/?q=place_id:ChIJT1toJoEVrjsRs_xa-nz7gvI,gmaps_v2,restaurant,food,N_A,1699615207,1629565220.0,1587,https://www.google.com/maps/preview/review/listentitiesreviews?authuser=0&hl=en&gl=in&pb=!1m2!1y4300398338624740175!2y17474806018345729203!2m2!2i10!3sCAESB0VnTUlyQXc=!3e2!4m5!3b1!4b1!6b1!7b1!20b1!5m2!1sPsrQZPb9H5adseMPzOi5IA!7e81,1.848874004787467
ChIJqVbqagcVrjsRDCkD75rFOWE,Hotel Madeena - Gurappanapalya,12.92098331451416,77.60074615478516,0x3bae15076aea56a9:0x6139c59aef03290c,N_A,N_A,5627,4.300000190734863,https://www.google.com/maps/place/?q=place_id:ChIJqVbqagcVrjsRDCkD75rFOWE,gmaps_v2,restaurant,food,N_A,1699615207,1435313953.0,5828,https://www.google.com/maps/preview/review/listentitiesreviews?authuser=0&hl=en&gl=in&pb=!1m2!1y4300397815788099241!2y7005847964577114380!2m2!2i10!3sCAESB0VnTUl2QzA=!3e2!4m5!3b1!4b1!6b1!7b1!20b1!5m2!1sPsrQZPb9H5adseMPzOi5IA!7e81,1.8394645982269915
54463,Domino's Pizza,12.8940177049,77.5680685043,54463,zomato_domino's_pizza,Domino's Pizza,13300,4.0,,zomato,restaurant,food,N_A,1688639100,1375381800.0,1772,,1.8341472010388904
18711827,Five Star Chicken,12.8991889555,77.585920617,18711827,zomato_five_star_chicken,Five Star Chicken,6726,3.8,,zomato,restaurant,food,N_A,1688639100,1530124200.0,411,,1.8330339923880972
ChIJf26naOgVrjsRawjA0enr0TQ,Champaran Hut,12.915996551513672,77.60594940185547,0x3bae15e868a76e7f:0x34d1ebe9d1c0086b,N_A,N_A,152,4.5,https://www.google.com/maps/place/?q=place_id:ChIJf26naOgVrjsRawjA0enr0TQ,gmaps_v2,restaurant,food,N_A,1699615207,1692439874.0,173,https://www.google.com/maps/preview/review/listentitiesreviews?authuser=0&hl=en&gl=in&pb=!1m2!1y4300398782117801599!2y3806082549583710315!2m2!2i10!3sCAESB0VnTUlxZ0U=!3e2!4m5!3b1!4b1!6b1!7b1!20b1!5m2!1sPsrQZPb9H5adseMPzOi5IA!7e81,1.830270455740521
ChIJWzYRcL0VrjsRz5xPtt7LxCk,Savi ruchi ಸವಿ ರುಚಿ,12.895206451416016,77.62024688720703,0x3bae15bd7011365b:0x29c4cbdeb64f9ccf,N_A,N_A,1520,4.099999904632568,https://www.google.com/maps/place/?q=place_id:ChIJWzYRcL0VrjsRz5xPtt7LxCk,gmaps_v2,restaurant,food,N_A,1699615207,1627794614.0,1580,https://www.google.com/maps/preview/review/listentitiesreviews?authuser=0&hl=en&gl=in&pb=!1m2!1y4300398597558580827!2y3009754608392182991!2m2!2i10!3sCAESB0VnTUlvZ3c=!3e2!4m5!3b1!4b1!6b1!7b1!20b1!5m2!1sPsrQZPb9H5adseMPzOi5IA!7e81,1.8285563306334716
ChIJl8FLw2IVrjsR-8w9-cE1Cjo,VYANA - World Cuisine | Mocktails | Al Fresco Rooftop Dining,12.910176277160645,77.59540557861328,0x3bae1562c34bc197:0x3a0a35c1f93dccfb,N_A,N_A,558,4.400000095367432,https://www.google.com/maps/place/?q=place_id:ChIJl8FLw2IVrjsR-8w9-cE1Cjo,gmaps_v2,restaurant,food,N_A,1699615207,1673198181.0,699,https://www.google.com/maps/preview/review/listentitiesreviews?authuser=0&hl=en&gl=in&pb=!1m2!1y4300398208112902551!2y4182214311193464059!2m2!2i10!3sCAESB0VnTUlzZ1U=!3e2!4m5!3b1!4b1!6b1!7b1!20b1!5m2!1sPsrQZPb9H5adseMPzOi5IA!7e81,1.8250048283254898
ChIJE8R9PncWrjsRujLL8th6zl0,PubliC The Rooftop Bar & Kitchen,12.899115562438965,77.60545349121094,0x3bae16773e7dc413:0x5dce7ad8f2cb32ba,N_A,N_A,3915,4.099999904632568,https://www.google.com/maps/place/?q=place_id:ChIJE8R9PncWrjsRujLL8th6zl0,gmaps_v2,restaurant,food,N_A,1699615207,1513609027.0,4018,https://www.google.com/maps/preview/review/listentitiesreviews?authuser=0&hl=en&gl=in&pb=!1m2!1y4300399395590751251!2y6759475162934620858!2m2!2i10!3sCAESB0VnTUlxaDg=!3e2!4m5!3b1!4b1!6b1!7b1!20b1!5m2!1sPsrQZPb9H5adseMPzOi5IA!7e81,1.8185202233603206
19229587,Pallavi Restaurant,12.876262145,77.6178080589,19229587,N_A,N_A,4834,3.6,,zomato,restaurant,food,N_A,1688639100,1572373800.0,1461,,1.7961403789436745
ChIJqTxvABEVrjsRrecY25Br06E,Shiv Sagar Signature - JP Nagar,12.916723251342772,77.59149169921875,0x3bae1511006f3ca9:0xa1d36b90db18e7ad,shivsagar,Shiv Sagar Restaurant,2574,4.099999904632568,https://www.google.com/maps/place/?q=place_id:ChIJqTxvABEVrjsRrecY25Br06E,gmaps_v2,restaurant,food,N_A,1699615207,1575601287.0,2658,https://www.google.com/maps/preview/review/listentitiesreviews?authuser=0&hl=en&gl=in&pb=!1m2!1y4300397856951319721!2y11660782130087651245!2m2!2i10!3sCAESB0VnTUkyaFE=!3e2!4m5!3b1!4b1!6b1!7b1!20b1!5m2!1sPsrQZPb9H5adseMPzOi5IA!7e81,1.7932954623158432
ChIJKWNIEzAVrjsRYN6Z7ZSJSdw,Vishal Mega Mart,12.897522926330566,77.59992218017578,0x3bae153013486329:0xdc498994ed99de60,vishalmegamart,Vishal Mega Mart,2624,4.0,https://www.google.com/maps/place/?q=place_id:ChIJKWNIEzAVrjsRYN6Z7ZSJSdw,gmaps_v2,supermarket,retail,N_A,1700469324,1573988539.0,2722,https://www.google.com/maps/preview/review/listentitiesreviews?authuser=0&hl=en&gl=in&pb=!1m2!1y4300397990411526953!2y15873369634378473056!2m2!2i10!3sCAESB0VnTUlvQlU=!3e2!4m5!3b1!4b1!6b1!7b1!20b1!5m2!1sPsrQZPb9H5adseMPzOi5IA!7e81,1.7924746434804306
ChIJF3FAQMsVrjsRgc-dAjaAzdU,Leon's Burgers & Wings - JP Nagar,12.902265548706056,77.58567810058594,0x3bae15cb40407117:0xd5cd8036029dcf81,leons,Leon's Garage,2594,4.5,https://www.google.com/maps/place/?q=place_id:ChIJF3FAQMsVrjsRgc-dAjaAzdU,gmaps_v2,restaurant,food,N_A,1699615207,1574512513.0,2600,https://www.google.com/maps/preview/review/listentitiesreviews?authuser=0&hl=en&gl=in&pb=!1m2!1y4300398656885911831!2y15406110869764820865!2m2!2i10!3sCAESB0VnTUluaFE=!3e2!4m5!3b1!4b1!6b1!7b1!20b1!5m2!1sPsrQZPb9H5adseMPzOi5IA!7e81,1.791500988779666
ChIJLW3Tx1QVrjsRMZQ7OnX7Gac,The Kind Roastery and Brew Room,12.91057014465332,77.58959197998047,0x3bae1554c7d36d2d:0xa719fb753a3b9431,N_A,N_A,433,4.199999809265137,https://www.google.com/maps/place/?q=place_id:ChIJLW3Tx1QVrjsRMZQ7OnX7Gac,gmaps_v2,restaurant,food,N_A,1699615207,1678590656.0,581,https://www.google.com/maps/preview/review/listentitiesreviews?authuser=0&hl=en&gl=in&pb=!1m2!1y4300398148059360557!2y12040931559658460209!2m2!2i10!3sCAESB0VnTUl4QVE=!3e2!4m5!3b1!4b1!6b1!7b1!20b1!5m2!1sPsrQZPb9H5adseMPzOi5IA!7e81,1.7794054198826885
ChIJgyAVVJFrrjsRK3JwWqaGzAQ,Konkan Kudla Karavali Mangalore Sea Food Restaurant,12.86963939666748,77.59720611572266,0x3bae6b9154152083:0x4cc86a65a70722b,N_A,N_A,269,4.900000095367432,https://www.google.com/maps/place/?q=place_id:ChIJgyAVVJFrrjsRK3JwWqaGzAQ,gmaps_v2,restaurant,food,N_A,1699615207,1686531663.0,283,https://www.google.com/maps/preview/review/listentitiesreviews?authuser=0&hl=en&gl=in&pb=!1m2!1y4300492966110503043!2y345799320440697387!2m2!2i10!3sCAESB0VnTUltQUk=!3e2!4m5!3b1!4b1!6b1!7b1!20b1!5m2!1sPsrQZPb9H5adseMPzOi5IA!7e81,1.7763994220526182
19309658,Paakashala,12.8966515493,77.5708335266,19309658,zomato_paakashala,Paakashala,4508,4.2,,zomato,restaurant,food,N_A,1688639100,1578940200.0,1991,,1.7752739544334537
ChIJQVZPiQwVrjsRghHUsJd6ARY,Arogya Ahaara Nammura JP Nagar,12.910775184631348,77.58212280273438,0x3bae150c894f5641:0x16017a97b0d41182,arogyaahaara,Arogya Ahaara,7160,4.400000095367432,https://www.google.com/maps/place/?q=place_id:ChIJQVZPiQwVrjsRghHUsJd6ARY,gmaps_v2,restaurant,food,N_A,1699615207,1346817235.0,7412,https://www.google.com/maps/preview/review/listentitiesreviews?authuser=0&hl=en&gl=in&pb=!1m2!1y4300397837772871233!2y1585683335736463746!2m2!2i10!3sCAESB0VnTUk4ams=!3e2!4m5!3b1!4b1!6b1!7b1!20b1!5m2!1sPsrQZPb9H5adseMPzOi5IA!7e81,1.753479467279931
ChIJ6U1yUs1qrjsR0eoZAuT6R78,Anand Sweets & Savouries,12.876684188842772,77.59561920166016,0x3bae6acd52724de9:0xbf47fae40219ead1,anandsweets,Anand Sweets & Savouries,5612,4.400000095367432,https://www.google.com/maps/place/?q=place_id:ChIJ6U1yUs1qrjsR0eoZAuT6R78,gmaps_v2,restaurant,food,N_A,1699615207,1423069277.0,5691,https://www.google.com/maps/preview/review/listentitiesreviews?authuser=0&hl=en&gl=in&pb=!1m2!1y4300492124269465065!2y13783261041785432785!2m2!2i10!3sCAESB0VnTUl1aXc=!3e2!4m5!3b1!4b1!6b1!7b1!20b1!5m2!1sPsrQZPb9H5adseMPzOi5IA!7e81,1.7533318968028204
ChIJAYpNnoRrrjsR_9FEjneJgDA,Q Oak Interiors,12.889297485351562,77.58173370361328,0x3bae6b849e4d8a01:0x308089778e44d1ff,N_A,N_A,44,4.699999809265137,https://www.google.com/maps/place/?q=place_id:ChIJAYpNnoRrrjsR_9FEjneJgDA,gmaps_v2,home_decor,retail,N_A,1695212099,1693042969.0,256,https://www.google.com/maps/preview/review/listentitiesreviews?authuser=0&hl=en&gl=in&pb=!1m2!1y4300492911521139201!2y3494944457420493311!2m2!2i10!3sCAESB0VnTUktZ0U=!3e2!4m5!3b1!4b1!6b1!7b1!20b1!5m2!1sPsrQZPb9H5adseMPzOi5IA!7e81,1.7525920530350878
ChIJa5zKPNEVrjsR_IaSXBWgrzc,Sri Udupi Food Hub Tilaknagar,12.925455093383787,77.59703063964844,0x3bae15d13cca9c6b:0x37afa0155c9286fc,N_A,N_A,1386,4.099999904632568,https://www.google.com/maps/place/?q=place_id:ChIJa5zKPNEVrjsR_IaSXBWgrzc,gmaps_v2,restaurant,food,N_A,1699615207,1631269873.0,1470,https://www.google.com/maps/preview/review/listentitiesreviews?authuser=0&hl=en&gl=in&pb=!1m2!1y4300398682597661803!2y4012601806618265340!2m2!2i10!3sCAESB0VnTUl0QXM=!3e2!4m5!3b1!4b1!6b1!7b1!20b1!5m2!1sPsrQZPb9H5adseMPzOi5IA!7e81,1.7521371685739366
ChIJ-X6k2b8VrjsRGGj36a2hrgU,Swada Fine Dine Restaurant,12.894309997558594,77.58184814453125,0x3bae15bfd9a47ef9:0x5aea1ade9f76818,N_A,N_A,257,4.800000190734863,https://www.google.com/maps/place/?q=place_id:ChIJ-X6k2b8VrjsRGGj36a2hrgU,gmaps_v2,restaurant,food,N_A,1699615207,1686802793.0,639,https://www.google.com/maps/preview/review/listentitiesreviews?authuser=0&hl=en&gl=in&pb=!1m2!1y4300398607919775481!2y409442384464013336!2m2!2i10!3sCAESB0VnTUk5Z1E=!3e2!4m5!3b1!4b1!6b1!7b1!20b1!5m2!1sPsrQZPb9H5adseMPzOi5IA!7e81,1.7330691936741975
ChIJJWOXAB0VrjsRhiBu0zBfhfM,Udupi Upahar/Party Hall @ JP Nagar,12.904375076293944,77.58587646484375,0x3bae151d00976325:0xf3855f30d36e2086,N_A,N_A,3054,3.900000095367432,https://www.google.com/maps/place/?q=place_id:ChIJJWOXAB0VrjsRhiBu0zBfhfM,gmaps_v2,restaurant,food,N_A,1699615207,1545649733.0,3075,https://www.google.com/maps/preview/review/listentitiesreviews?authuser=0&hl=en&gl=in&pb=!1m2!1y4300397908493558565!2y17547536186429284486!2m2!2i10!3sCAESB0VnTUlfaGM=!3e2!4m5!3b1!4b1!6b1!7b1!20b1!5m2!1sPsrQZPb9H5adseMPzOi5IA!7e81,1.7137972114449502
ChIJbZDy4d8VrjsR2ryRpKGog6M,Mayuri,12.91281509399414,77.58561706542969,0x3bae15dfe1f2906d:0xa383a8a1a491bcda,N_A,N_A,2428,4.199999809265137,https://www.google.com/maps/place/?q=place_id:ChIJbZDy4d8VrjsR2ryRpKGog6M,gmaps_v2,restaurant,food,N_A,1699615207,1576421143.0,2512,https://www.google.com/maps/preview/review/listentitiesreviews?authuser=0&hl=en&gl=in&pb=!1m2!1y4300398745498062957!2y11782446462335565018!2m2!2i10!3sCAESB0VnTUl6aE0=!3e2!4m5!3b1!4b1!6b1!7b1!20b1!5m2!1sPsrQZPb9H5adseMPzOi5IA!7e81,1.7028352924537014
ChIJD0Y6zv0UrjsRf9ZeniQ70d4,Adyar Ananda Bhavan - A2B,12.916848182678224,77.6095199584961,0x3bae14fdce3a460f:0xded13b249e5ed67f,aabsweets,Adyar Ananda Bhavan,8264,3.900000095367432,https://www.google.com/maps/place/?q=place_id:ChIJD0Y6zv0UrjsRf9ZeniQ70d4,gmaps_v2,restaurant,food,N_A,1699615207,1277063160.0,8678,https://www.google.com/maps/preview/review/listentitiesreviews?authuser=0&hl=en&gl=in&pb=!1m2!1y4300397774504609295!2y16055679175014405759!2m2!2i10!3sCAESB0VnTUkza00=!3e2!4m5!3b1!4b1!6b1!7b1!20b1!5m2!1sPsrQZPb9H5adseMPzOi5IA!7e81,1.689755392428616
19289309,Pie Square,12.9064686585,77.5850794092,19289309,zomato_pie_square,Pie Square,4268,3.5,,zomato,restaurant,food,N_A,1688639100,1578853800.0,962,,1.6794379575407636
ChIJLcl6gyoVrjsRMCnbIWdPYDw,Stone Street by BHIVE,12.916022300720217,77.61621856689453,0x3bae152a837ac92d:0x3c604f6721db2930,N_A,N_A,430,4.5,https://www.google.com/maps/place/?q=place_id:ChIJLcl6gyoVrjsRMCnbIWdPYDw,gmaps_v2,restaurant,food,N_A,1699615207,1677492561.0,499,https://www.google.com/maps/preview/review/listentitiesreviews?authuser=0&hl=en&gl=in&pb=!1m2!1y4300397966524074285!2y4350564544408135984!2m2!2i10!3sCAESB0VnTUk2Z00=!3e2!4m5!3b1!4b1!6b1!7b1!20b1!5m2!1sPsrQZPb9H5adseMPzOi5IA!7e81,1.679365117536121
ChIJXeQwdY4VrjsR1dxd2Q1_N9Q,Brahmin Tiffins - JP Nagar,12.891758918762209,77.57955932617188,0x3bae158e7530e45d:0xd4377f0dd95ddcd5,N_A,N_A,3183,4.199999809265137,https://www.google.com/maps/place/?q=place_id:ChIJXeQwdY4VrjsR1dxd2Q1_N9Q,gmaps_v2,restaurant,food,N_A,1699615207,1535296427.0,3290,https://www.google.com/maps/preview/review/listentitiesreviews?authuser=0&hl=en&gl=in&pb=!1m2!1y4300398395781080157!2y15291830757217918165!2m2!2i10!3sCAESB0VnTUkwQms=!3e2!4m5!3b1!4b1!6b1!7b1!20b1!5m2!1sPsrQZPb9H5adseMPzOi5IA!7e81,1.6736443637178904
18536513,California Burrito,12.8911916593,77.5985675678,18536513,zomato_california_burrito,California Burrito,7382,4.2,,zomato,restaurant,food,N_A,1688639100,1497983400.0,2120,,1.6726612422287925
ChIJAwvjUQkVrjsRrDxR9S-y93g,Croma - JP Nagar,12.91673183441162,77.59129333496094,0x3bae150951e30b03:0x78f7b22ff5513cac,croma,Croma,6686,4.0,https://www.google.com/maps/place/?q=place_id:ChIJAwvjUQkVrjsRrDxR9S-y93g,gmaps_v2,electronic_store,retail,N_A,1695212099,1346485681.0,7214,https://www.google.com/maps/preview/review/listentitiesreviews?authuser=0&hl=en&gl=in&pb=!1m2!1y4300397823958125315!2y8716631522847833260!2m2!2i10!3sCAESB0VnTUlxamc=!3e2!4m5!3b1!4b1!6b1!7b1!20b1!5m2!1sPsrQZPb9H5adseMPzOi5IA!7e81,1.6565145919056812
18148977,AB's - Absolute Barbecues,12.916451393,77.6041207463,18148977,zomato_ab's_-_absolute_barbecues,AB's - Absolute Barbecues,9340,4.2,,zomato,restaurant,food,N_A,1688639100,1443810600.0,9206,,1.6480434263167891
ChIJIfBSwxA_rjsRRzG7lfcaOic,Jagli Tindi,12.89187240600586,77.59097290039062,0x3bae3f10c352f021:0x273a1af795bb3147,N_A,N_A,2789,4.199999809265137,https://www.google.com/maps/place/?q=place_id:ChIJIfBSwxA_rjsRRzG7lfcaOic,gmaps_v2,restaurant,food,N_A,1699615207,1552758330.0,2959,https://www.google.com/maps/preview/review/listentitiesreviews?authuser=0&hl=en&gl=in&pb=!1m2!1y4300444035414421537!2y2826601366799724871!2m2!2i10!3sCAESB0VnTUloaGM=!3e2!4m5!3b1!4b1!6b1!7b1!20b1!5m2!1sPsrQZPb9H5adseMPzOi5IA!7e81,1.6408465502095622
19455300,Chinese BAE,12.9139543579,77.6088783145,19455300,zomato_chinese_bae,Chinese BAE,3438,3.7,,zomato,restaurant,food,N_A,1688639100,1596825000.0,1906,,1.6176338928334537
ChIJSzxTnTVrrjsRavDHvCdqovA,Sharief Bhai - Akshayanagar,12.873305320739746,77.61683654785156,0x3bae6b359d533c4b:0xf0a26a27bcc7f06a,N_A,N_A,67,4.699999809265137,https://www.google.com/maps/place/?q=place_id:ChIJSzxTnTVrrjsRavDHvCdqovA,gmaps_v2,restaurant,food,N_A,1699615207,1696004734.0,179,https://www.google.com/maps/preview/review/listentitiesreviews?authuser=0&hl=en&gl=in&pb=!1m2!1y4300492572202318923!2y17339538234233319530!2m2!2i10!3sCAESB0VnTUlxZ0U=!3e2!4m5!3b1!4b1!6b1!7b1!20b1!5m2!1sPsrQZPb9H5adseMPzOi5IA!7e81,1.6033356294313792
19794574,Biryani By Kilo,12.8760431586,77.616158165,19794574,N_A,N_A,2282,4.2,,zomato,restaurant,food,N_A,1688639100,1626633000.0,1848,,1.5898822857751091
ChIJ36zJYX4VrjsROChPryjytsY,HP World,12.902204513549805,77.58570098876953,0x3bae157e61c9acdf:0xc6b6f228af4f2838,hpworldstores,HP,716,4.900000095367432,https://www.google.com/maps/place/?q=place_id:ChIJ36zJYX4VrjsROChPryjytsY,gmaps_v2,electronic_store,retail,N_A,1695212099,1656057072.0,1123,https://www.google.com/maps/preview/review/listentitiesreviews?authuser=0&hl=en&gl=in&pb=!1m2!1y4300398326736071903!2y14318898321824884792!2m2!2i10!3sCAESB0VnTUk0QWc=!3e2!4m5!3b1!4b1!6b1!7b1!20b1!5m2!1sPsrQZPb9H5adseMPzOi5IA!7e81,1.579935061722726
ChIJE_o48BIVrjsRasTaAa8aDew,S N Refreshments,12.908302307128906,77.58711242675781,0x3bae1512f038fa13:0xec0d1aaf01dac46a,N_A,N_A,7463,4.400000095367432,https://www.google.com/maps/place/?q=place_id:ChIJE_o48BIVrjsRasTaAa8aDew,gmaps_v2,restaurant,food,N_A,1699615207,1289967844.0,7593,https://www.google.com/maps/preview/review/listentitiesreviews?authuser=0&hl=en&gl=in&pb=!1m2!1y4300397865269262867!2y17009280706600944746!2m2!2i10!3sCAESB0VnTUlwanM=!3e2!4m5!3b1!4b1!6b1!7b1!20b1!5m2!1sPsrQZPb9H5adseMPzOi5IA!7e81,1.5740445520700204
ChIJ_SQYxAoVrjsRNiQ__qst-i4,iSiri Cafe,12.883228302001951,77.60748291015625,0x3bae150ac41824fd:0x2efa2dabfe3f2436,N_A,N_A,1596,4.099999904632568,https://www.google.com/maps/place/?q=place_id:ChIJ_SQYxAoVrjsRNiQ__qst-i4,gmaps_v2,restaurant,food,N_A,1699615207,1611214668.0,1692,https://www.google.com/maps/preview/review/listentitiesreviews?authuser=0&hl=en&gl=in&pb=!1m2!1y4300397830169175293!2y3385068286650557494!2m2!2i10!3sCAESB0VnTUltZzA=!3e2!4m5!3b1!4b1!6b1!7b1!20b1!5m2!1sPsrQZPb9H5adseMPzOi5IA!7e81,1.5598818916703665
19578637,Just Delicious,12.8761905659,77.614569962,19578637,N_A,N_A,2894,3.7,,zomato,restaurant,food,N_A,1688639100,1608489000.0,1412,,1.5598333626533216
19300213,Figo Deli,12.9050748283,77.6082986221,19300213,zomato_figo_deli,Figo Deli,3946,4.1,,zomato,restaurant,food,N_A,1688639100,1579113000.0,663,,1.5564071029644988
ChIJ0yFaSkYVrjsRHVP8u9zm1Ro,Poorvika Mobiles JP Nagar - Opp to RBI Layout Bus Stop,12.888794898986816,77.58207702636719,0x3bae15464a5a21d3:0x1ad5e6dcbbfc531d,poorvika,Poorvika,3782,4.699999809265137,https://www.google.com/maps/place/?q=place_id:ChIJ0yFaSkYVrjsRHVP8u9zm1Ro,gmaps_v2,electronic_store,retail,N_A,1695212099,1484909166.0,3848,https://www.google.com/maps/preview/review/listentitiesreviews?authuser=0&hl=en&gl=in&pb=!1m2!1y4300398085824717267!2y1933705450746565405!2m2!2i10!3sCAESB0VnTUlnQjQ=!3e2!4m5!3b1!4b1!6b1!7b1!20b1!5m2!1sPsrQZPb9H5adseMPzOi5IA!7e81,1.5537814681833277
ChIJNwAG4Z8VrjsRZcSg9piE2PI,Fashion factory,12.904376983642578,77.60195922851562,0x3bae159fe1060037:0xf2d88498f6a0c465,N_A,N_A,226,4.599999904632568,https://www.google.com/maps/place/?q=place_id:ChIJNwAG4Z8VrjsRZcSg9piE2PI,gmaps_v2,clothing_store,retail,N_A,1687847039,1675222277.0,586,https://www.google.com/maps/preview/review/listentitiesreviews?authuser=0&hl=en&gl=in&pb=!1m2!1y4300398470604652599!2y17498882144655688805!2m2!2i10!3sCAESB0VnTUl4QVE=!3e2!4m5!3b1!4b1!6b1!7b1!20b1!5m2!1sPsrQZPb9H5adseMPzOi5IA!7e81,1.5466747016696236
ChIJF8RkFAkVrjsRwTB8JH-bPYk,Rajanna Military,12.918893814086914,77.59320068359375,0x3bae15091464c417:0x893d9b7f247c30c1,N_A,N_A,3745,4.199999809265137,https://www.google.com/maps/place/?q=place_id:ChIJF8RkFAkVrjsRwTB8JH-bPYk,gmaps_v2,restaurant,food,N_A,1699615207,1489137498.0,3784,https://www.google.com/maps/preview/review/listentitiesreviews?authuser=0&hl=en&gl=in&pb=!1m2!1y4300397822926439447!2y9889231327150747841!2m2!2i10!3sCAESB0VnTUl4QjA=!3e2!4m5!3b1!4b1!6b1!7b1!20b1!5m2!1sPsrQZPb9H5adseMPzOi5IA!7e81,1.5373029359607862
ChIJB2KNeY1rrjsRMRU5FLFK-hI,McDonald's,12.876333236694336,77.6139144897461,0x3bae6b8d798d6207:0x12fa4ab114391531,mcdelivery,McDonald's,2895,4.300000190734863,https://www.google.com/maps/place/?q=place_id:ChIJB2KNeY1rrjsRMRU5FLFK-hI,gmaps_v2,restaurant,food,N_A,1699615207,1536553680.0,2981,https://www.google.com/maps/preview/review/listentitiesreviews?authuser=0&hl=en&gl=in&pb=!1m2!1y4300492949559271943!2y1367487561269318961!2m2!2i10!3sCAESB0VnTUlwQmM=!3e2!4m5!3b1!4b1!6b1!7b1!20b1!5m2!1sPsrQZPb9H5adseMPzOi5IA!7e81,1.5339485935269084
ChIJQSieOA8VrjsRzHcF0tIXO_Y,S.L.V Ragigudda,12.915404319763184,77.59489440917969,0x3bae150f389e2841:0xf63b17d2d20577cc,N_A,N_A,7235,4.0,https://www.google.com/maps/place/?q=place_id:ChIJQSieOA8VrjsRzHcF0tIXO_Y,gmaps_v2,restaurant,food,N_A,1699615207,1291257793.0,7350,https://www.google.com/maps/preview/review/listentitiesreviews?authuser=0&hl=en&gl=in&pb=!1m2!1y4300397849303984193!2y17742801351190345676!2m2!2i10!3sCAESB0VnTUlyRGs=!3e2!4m5!3b1!4b1!6b1!7b1!20b1!5m2!1sPsrQZPb9H5adseMPzOi5IA!7e81,1.530776664189572
ChIJiYBt8-EUrjsRfQYU-JzpoT8,Bathinda Junction BTM,12.905303955078123,77.60928344726562,0x3bae14e1f36d8089:0x3fa1e99cf814067d,N_A,N_A,3413,3.900000095367432,https://www.google.com/maps/place/?q=place_id:ChIJiYBt8-EUrjsRfQYU-JzpoT8,gmaps_v2,restaurant,food,N_A,1699615207,1506682316.0,3467,https://www.google.com/maps/preview/review/listentitiesreviews?authuser=0&hl=en&gl=in&pb=!1m2!1y4300397654869639305!2y4585202756026107517!2m2!2i10!3sCAESB0VnTUloQnM=!3e2!4m5!3b1!4b1!6b1!7b1!20b1!5m2!1sPsrQZPb9H5adseMPzOi5IA!7e81,1.5284236838601044
ChIJ_fgLdKcVrjsRCZDO3u9qa3c,Eshanya Street Food Cafe - Jayanagar,12.923048973083496,77.59318542480469,0x3bae15a7740bf8fd:0x776b6aefdece9009,N_A,N_A,6072,4.099999904632568,https://www.google.com/maps/place/?q=place_id:ChIJ_fgLdKcVrjsRCZDO3u9qa3c,gmaps_v2,restaurant,food,N_A,1699615207,1354121890.0,6154,https://www.google.com/maps/preview/review/listentitiesreviews?authuser=0&hl=en&gl=in&pb=!1m2!1y4300398503136065789!2y8605089091489271817!2m2!2i10!3sCAESB0VnTUloakE=!3e2!4m5!3b1!4b1!6b1!7b1!20b1!5m2!1sPsrQZPb9H5adseMPzOi5IA!7e81,1.5184687349538515
ChIJxXietdEVrjsR97LTEj9LIAk,TOP STAR PACKERS AND MOVERS,12.888697624206545,77.62319946289062,0x3bae15d1b59e78c5:0x9204b3f12d3b2f7,N_A,N_A,50,4.900000095367432,https://www.google.com/maps/place/?q=place_id:ChIJxXietdEVrjsR97LTEj9LIAk,gmaps_v2,electronic_store,retail,N_A,1695212099,1692356829.0,134,https://www.google.com/maps/preview/review/listentitiesreviews?authuser=0&hl=en&gl=in&pb=!1m2!1y4300398684624812229!2y657608279866979063!2m2!2i10!3sCAESB0VnTUlnZ0U=!3e2!4m5!3b1!4b1!6b1!7b1!20b1!5m2!1sPsrQZPb9H5adseMPzOi5IA!7e81,1.5129917661026804
ChIJcw_xFosVrjsRmfAIYd4byac,Kota Kachori - Jayanagar,12.916986465454102,77.59475708007812,0x3bae158b16f10f73:0xa7c91bde6108f099,kotakachori,Kota Kachori,1165,4.199999809265137,https://www.google.com/maps/place/?q=place_id:ChIJcw_xFosVrjsRmfAIYd4byac,gmaps_v2,restaurant,food,N_A,1699615207,1632986042.0,1339,https://www.google.com/maps/preview/review/listentitiesreviews?authuser=0&hl=en&gl=in&pb=!1m2!1y4300398381314936691!2y12090225316577472665!2m2!2i10!3sCAESB0VnTUlzZ28=!3e2!4m5!3b1!4b1!6b1!7b1!20b1!5m2!1sPsrQZPb9H5adseMPzOi5IA!7e81,1.510689800780184
ChIJfdOHVAQVrjsRDk2UpeyZFWw,Deja Vu Buffet Bar,12.899271965026855,77.594482421875,0x3bae15045487d37d:0x6c1599eca5944d0e,N_A,N_A,5960,4.0,https://www.google.com/maps/place/?q=place_id:ChIJfdOHVAQVrjsRDk2UpeyZFWw,gmaps_v2,restaurant,food,N_A,1699615207,1358440240.0,5957,https://www.google.com/maps/preview/review/listentitiesreviews?authuser=0&hl=en&gl=in&pb=!1m2!1y4300397802527642493!2y7788300372276432142!2m2!2i10!3sCAESB0VnTUl2aTQ=!3e2!4m5!3b1!4b1!6b1!7b1!20b1!5m2!1sPsrQZPb9H5adseMPzOi5IA!7e81,1.509325272390222
19117295,Tasty Shawarma Rolls,12.9086863522,77.6038360968,19117295,N_A,N_A,4469,3.3,,zomato,restaurant,food,N_A,1688639100,1560709800.0,830,,1.5091210535819395
ChIJRbfmTgsVrjsRVQ1vDEw0SfI,Cable Car,12.916940689086914,77.58546447753906,0x3bae150b4ee6b745:0xf249344c0c6f0d55,N_A,N_A,6903,4.099999904632568,https://www.google.com/maps/place/?q=place_id:ChIJRbfmTgsVrjsRVQ1vDEw0SfI,gmaps_v2,restaurant,food,N_A,1699615207,1302763851.0,7269,https://www.google.com/maps/preview/review/listentitiesreviews?authuser=0&hl=en&gl=in&pb=!1m2!1y4300397832497968965!2y17458542931709201749!2m2!2i10!3sCAESB0VnTUkzRGc=!3e2!4m5!3b1!4b1!6b1!7b1!20b1!5m2!1sPsrQZPb9H5adseMPzOi5IA!7e81,1.5028780700449464
ChIJb-Cp9s5rrjsRXLzEojhmTlE,Apple Authorised Reseller - iPlanet,12.875991821289062,77.59578704833984,0x3bae6bcef6a9e06f:0x514e6638a2c4bc5c,iplanet,iPlanet,143,4.800000190734863,https://www.google.com/maps/place/?q=place_id:ChIJb-Cp9s5rrjsRXLzEojhmTlE,gmaps_v2,electronic_store,retail,N_A,1695212099,1686920809.0,450,https://www.google.com/maps/preview/review/listentitiesreviews?authuser=0&hl=en&gl=in&pb=!1m2!1y4300493230831165551!2y5858732558690597980!2m2!2i10!3sCAESB0VnTUl1QU0=!3e2!4m5!3b1!4b1!6b1!7b1!20b1!5m2!1sPsrQZPb9H5adseMPzOi5IA!7e81,1.4901420647450518
ChIJMbZv6egVrjsRiZYLVwW-HKE,"ZUDIO - BANERGHATTA, BENGALURU",12.90361213684082,77.60127258300781,0x3bae15e8e96fb631:0xa11cbe05570b9689,zudio,Zudio,2767,4.300000190734863,https://www.google.com/maps/place/?q=place_id:ChIJMbZv6egVrjsRiZYLVwW-HKE,gmaps_v2,clothing_store,retail,N_A,1687847039,1526304815.0,3247,https://www.google.com/maps/preview/review/listentitiesreviews?authuser=0&hl=en&gl=in&pb=!1m2!1y4300398784278410801!2y11609362869598787209!2m2!2i10!3sCAESB0VnTUlxQms=!3e2!4m5!3b1!4b1!6b1!7b1!20b1!5m2!1sPsrQZPb9H5adseMPzOi5IA!7e81,1.4799152449454949
ChIJMXmCW81qrjsRQTDqjs-eA3g,Shoppers Stop,12.912224769592283,77.60051727294922,0x3bae6acd5b827931:0x78039ecf8eea3041,shoppersstop,Shoppers Stop,6673,4.099999904632568,https://www.google.com/maps/place/?q=place_id:ChIJMXmCW81qrjsRQTDqjs-eA3g,gmaps_v2,clothing_store,retail,N_A,1695212099,1305467789.0,6746,https://www.google.com/maps/preview/review/listentitiesreviews?authuser=0&hl=en&gl=in&pb=!1m2!1y4300492124421519665!2y8647930323774615617!2m2!2i10!3sCAESB0VnTUkxRFE=!3e2!4m5!3b1!4b1!6b1!7b1!20b1!5m2!1sPsrQZPb9H5adseMPzOi5IA!7e81,1.4792960030641629
ChIJgRRVd_xrrjsR6cncMPTkcSo,Dilli Chowk,12.862871170043944,77.58051300048828,0x3bae6bfc77551481:0x2a71e4f430dcc9e9,N_A,N_A,1167,4.400000095367432,https://www.google.com/maps/place/?q=place_id:ChIJgRRVd_xrrjsR6cncMPTkcSo,gmaps_v2,restaurant,food,N_A,1699615207,1630949373.0,1238,https://www.google.com/maps/preview/review/listentitiesreviews?authuser=0&hl=en&gl=in&pb=!1m2!1y4300493426263397505!2y3058477359404206569!2m2!2i10!3sCAESB0VnTUl6Z2s=!3e2!4m5!3b1!4b1!6b1!7b1!20b1!5m2!1sPsrQZPb9H5adseMPzOi5IA!7e81,1.4683983886367709
ChIJuVjW3sFqrjsRiETya-gmo9s,Guru Greens Garden Family Restaurant,12.854060173034668,77.58879089355469,0x3bae6ac1ded658b9:0xdba326e86bf24488,N_A,N_A,4685,4.099999904632568,https://www.google.com/maps/place/?q=place_id:ChIJuVjW3sFqrjsRiETya-gmo9s,gmaps_v2,restaurant,food,N_A,1699615207,1421848937.0,4961,https://www.google.com/maps/preview/review/listentitiesreviews?authuser=0&hl=en&gl=in&pb=!1m2!1y4300492075085224121!2y15826536295195362440!2m2!2i10!3sCAESB0VnTUk0Q1k=!3e2!4m5!3b1!4b1!6b1!7b1!20b1!5m2!1sPsrQZPb9H5adseMPzOi5IA!7e81,1.4572827723106914
ChIJNxqzJMFrrjsR280iePQcgBs,Barrel House Bar And Kitchen,12.876808166503906,77.59527587890625,0x3bae6bc124b31a37:0x1b801cf47822cddb,N_A,N_A,354,4.5,https://www.google.com/maps/place/?q=place_id:ChIJNxqzJMFrrjsR280iePQcgBs,gmaps_v2,restaurant,food,N_A,1699615207,1678543952.0,495,https://www.google.com/maps/preview/review/listentitiesreviews?authuser=0&hl=en&gl=in&pb=!1m2!1y4300493171473979959!2y1981615672356163035!2m2!2i10!3sCAESB0VnTUk2Z00=!3e2!4m5!3b1!4b1!6b1!7b1!20b1!5m2!1sPsrQZPb9H5adseMPzOi5IA!7e81,1.4515319566869653
18655724,Agarwal Food Service,12.9009763015,77.6053220406,18655724,zomato_agarwal_food_service,Agarwal Food Service,5515,3.3,,zomato,restaurant,food,N_A,1688639100,1523125800.0,729,,1.4394492768859057
ChIJlU_1O2sVrjsRA1kIjOan2qw,Inchara Family Garden Restaurant,12.90270709991455,77.58381652832031,0x3bae156b3bf54f95:0xacdaa7e68c085903,N_A,N_A,6782,4.0,https://www.google.com/maps/place/?q=place_id:ChIJlU_1O2sVrjsRA1kIjOan2qw,gmaps_v2,restaurant,food,N_A,1699615207,1289967853.0,6847,https://www.google.com/maps/preview/review/listentitiesreviews?authuser=0&hl=en&gl=in&pb=!1m2!1y4300398244497018773!2y12455452328080201987!2m2!2i10!3sCAESB0VnTUl1RFU=!3e2!4m5!3b1!4b1!6b1!7b1!20b1!5m2!1sPsrQZPb9H5adseMPzOi5IA!7e81,1.4304127544785752
