"id","name","lat","lng","cid","number_of_votes","place_url","source","category","created_at"
"ChIJE7QLpr49rjsRQ1hdP5uaogQ","Yukta's buy n save And SHREE COLLECTIONS","12.992167472839355","77.53406524658203","0x3bae3dbea60bb413:0x4a29a9b3f5d5843","0","https://www.google.com/maps/place/?q=place_id:ChIJE7QLpr49rjsRQ1hdP5uaogQ","gmaps_v2","supermarket","1687847039"
"ChIJS1IfTx4WrjsRJkUYv127kY0","A.MUTHULAKSHMI ENTERPRISES","12.984916687011719","77.56372833251953","0x3bae161e4f1f524b:0x8d91bb5dbf184526","5","https://www.google.com/maps/place/?q=place_id:ChIJS1IfTx4WrjsRJkUYv127kY0","gmaps_v2","supermarket","1687847039"
"ChIJxcW_wk49rjsRlNFdkWhTh7k","Coastal Connect Enterprises","12.989842414855957","77.55390167236328","0x3bae3d4ec2bfc5c5:0xb9875368915dd194","16","https://www.google.com/maps/place/?q=place_id:ChIJxcW_wk49rjsRlNFdkWhTh7k","gmaps_v2","supermarket","1699615207"
"ChIJrS01IE09rjsRN1GMu3Pr4G0","Departmental Store","13.040319442749023","77.51718139648438","0x3bae3d4d20352dad:0x6de0eb73bb8c5137","0","https://www.google.com/maps/place/?q=place_id:ChIJrS01IE09rjsRN1GMu3Pr4G0","gmaps_v2","supermarket","1699615207"
"ChIJDe7_2dk9rjsRRfw-VfacHpo","YASHODHA ENTERPRISES","12.997001647949219","77.52914428710938","0x3bae3dd9d9ffee0d:0x9a1e9cf6553efc45","2","https://www.google.com/maps/place/?q=place_id:ChIJDe7_2dk9rjsRRfw-VfacHpo","gmaps_v2","supermarket","1687847039"
"ChIJQa501hgWrjsRDkd_oVpoxv0","Ranjan News Agency","12.9857816696167","77.56805419921875","0x3bae1618d674ae41:0xfdc6685aa17f470e","1","https://www.google.com/maps/place/?q=place_id:ChIJQa501hgWrjsRDkd_oVpoxv0","gmaps_v2","supermarket","1687847039"
"ChIJTRzluME9rjsR_3WGMMzNxK0","M V Traders","13.020917892456055","77.54885864257812","0x3bae3dc1b8e51c4d:0xadc4cdcc308675ff","27","https://www.google.com/maps/place/?q=place_id:ChIJTRzluME9rjsR_3WGMMzNxK0","gmaps_v2","supermarket","1699615207"
"ChIJUeXs9QU-rjsRWapeHgEMErA","Ecotex Fashions","12.981441497802734","77.56766510009766","0x3bae3e05f5ece551:0xb0120c011e5eaa59","3","https://www.google.com/maps/place/?q=place_id:ChIJUeXs9QU-rjsRWapeHgEMErA","gmaps_v2","supermarket","1687847039"
"ChIJ7QfOB5Y9rjsR9OY0L_PHSNU","allfreshstore","13.031920433044434","77.55433654785156","0x3bae3d9607ce07ed:0xd548c7f32f34e6f4","1","https://www.google.com/maps/place/?q=place_id:ChIJ7QfOB5Y9rjsR9OY0L_PHSNU","gmaps_v2","supermarket","1699615207"
"ChIJZxHhQuYXrjsR69wJEoGLZVk","Public Toilet","12.979113578796387","77.5641860961914","0x3bae17e642e11167:0x59658b811209dceb","0","https://www.google.com/maps/place/?q=place_id:ChIJZxHhQuYXrjsR69wJEoGLZVk","gmaps_v2","supermarket","1687847039"
"ChIJsSrWoPM9rjsRgEGjL-G0fPE","R V Badrayya Bale Yele Merchant","12.985180854797363","77.5541000366211","0x3bae3df3a0d62ab1:0xf17cb4e12fa34180","232","https://www.google.com/maps/place/?q=place_id:ChIJsSrWoPM9rjsRgEGjL-G0fPE","gmaps_v2","supermarket","1699615207"
"ChIJv2dIzwE9rjsRT2XwFj9YwBI","Behtar Supermarket","12.989073753356934","77.5425796508789","0x3bae3d01cf4867bf:0x12c0583f16f0654f","3","https://www.google.com/maps/place/?q=place_id:ChIJv2dIzwE9rjsRT2XwFj9YwBI","gmaps_v2","supermarket","1699615207"
"ChIJ_UCIJB4WrjsR_zd_C3pXogQ","Srinivas Eletrician","12.984391212463379","77.56248474121094","0x3bae161e248840fd:0x4a2577a0b7f37ff","0","https://www.google.com/maps/place/?q=place_id:ChIJ_UCIJB4WrjsR_zd_C3pXogQ","gmaps_v2","supermarket","1687847039"
"ChIJuRmApB4WrjsRIkaxIsGQhrk","Sri Adhishakthi Traders","12.98344612121582","77.56491088867188","0x3bae161ea48019b9:0xb98690c122b14622","5","https://www.google.com/maps/place/?q=place_id:ChIJuRmApB4WrjsRIkaxIsGQhrk","gmaps_v2","supermarket","1699615207"
"ChIJ86eyPKY9rjsR3itleihff3A","M.N. Provision Stores","13.005282402038574","77.52828216552734","0x3bae3da63cb2a7f3:0x707f5f287a652bde","2","https://www.google.com/maps/place/?q=place_id:ChIJ86eyPKY9rjsR3itleihff3A","gmaps_v2","supermarket","1687847039"
"ChIJGyB-ylIXrjsRosG9iIESOEA","Goconuts","12.980948448181152","77.56342315673828","0x3bae1752ca7e201b:0x4038128188bdc1a2","9","https://www.google.com/maps/place/?q=place_id:ChIJGyB-ylIXrjsRosG9iIESOEA","gmaps_v2","supermarket","1687847039"
"ChIJh6RdTfk9rjsRTUq4xVt2jCQ","Kumar swamy stores","12.971280097961426","77.5562973022461","0x3bae3df94d5da487:0x248c765bc5b84a4d","2","https://www.google.com/maps/place/?q=place_id:ChIJh6RdTfk9rjsRTUq4xVt2jCQ","gmaps_v2","supermarket","1687847039"
"ChIJY87ach0WrjsRK8SbNMgtZe0","Arasu Sheet","12.979240417480469","77.56332397460938","0x3bae161d72dace63:0xed652dc8349bc42b","1","https://www.google.com/maps/place/?q=place_id:ChIJY87ach0WrjsRK8SbNMgtZe0","gmaps_v2","supermarket","1687847039"
"ChIJy6zqoKA9rjsRjZNKqSv3ib0","The Johnson market","13.019927978515625","77.54608917236328","0x3bae3da0a0eaaccb:0xbd89f72ba94a938d","1","https://www.google.com/maps/place/?q=place_id:ChIJy6zqoKA9rjsRjZNKqSv3ib0","gmaps_v2","supermarket","1687847039"
"ChIJO4hLSQwXrjsRjcUE2IMNMeA","Hanshane Fish Mart","12.984566688537598","77.56261444091797","0x3bae170c494b883b:0xe0310d83d804c58d","0","https://www.google.com/maps/place/?q=place_id:ChIJO4hLSQwXrjsRjcUE2IMNMeA","gmaps_v2","supermarket","1687847039"
"ChIJ3bqc2Us9rjsR9gLjLVrD598","Smart Groceries (Wholesale & Retail Grocery Store)","13.020150184631348","77.54800415039062","0x3bae3d4bd99cbadd:0xdfe7c35a2de302f6","109","https://www.google.com/maps/place/?q=place_id:ChIJ3bqc2Us9rjsR9gLjLVrD598","gmaps_v2","supermarket","1699615207"
"ChIJj3TN_9gXrjsRHpuFdt6kpPo","B.M.MOTORS","12.994635581970215","77.57655334472656","0x3bae17d8ffcd748f:0xfaa4a4de76859b1e","1","https://www.google.com/maps/place/?q=place_id:ChIJj3TN_9gXrjsRHpuFdt6kpPo","gmaps_v2","supermarket","1687847039"
"ChIJKTeCOGA9rjsROw7Acp4hUaU","Sri Hanuman Fruits Stall","13.032057762145996","77.56131744384766","0x3bae3d6038823729:0xa551219e72c00e3b","7","https://www.google.com/maps/place/?q=place_id:ChIJKTeCOGA9rjsROw7Acp4hUaU","gmaps_v2","supermarket","1687847039"
"ChIJf-3Sg54XrjsRhX08WjKYKu4","MAKE IN MAAC","12.977137565612793","77.56538391113281","0x3bae179e83d2ed7f:0xee2a98325a3c7d85","0","https://www.google.com/maps/place/?q=place_id:ChIJf-3Sg54XrjsRhX08WjKYKu4","gmaps_v2","supermarket","1687847039"
"ChIJIeCJKoU9rjsRr_cMt6V5e98","Akshaya Mini Bazar","13.001673698425293","77.55061340332031","0x3bae3d852a89e021:0xdf7b79a5b70cf7af","135","https://www.google.com/maps/place/?q=place_id:ChIJIeCJKoU9rjsRr_cMt6V5e98","gmaps_v2","supermarket","1699615207"
"ChIJPYLzmoY9rjsRQhy7dNRzynQ","Home 1","13.001218795776367","77.54037475585938","0x3bae3d869af3823d:0x74ca73d474bb1c42","1","https://www.google.com/maps/place/?q=place_id:ChIJPYLzmoY9rjsRQhy7dNRzynQ","gmaps_v2","supermarket","1687847039"
"ChIJxyYConI9rjsRl7pCO0X96zA","Srs super market","13.014009475708008","77.53263092041016","0x3bae3d72a20226c7:0x30ebfd453b42ba97","0","https://www.google.com/maps/place/?q=place_id:ChIJxyYConI9rjsRl7pCO0X96zA","gmaps_v2","supermarket","1687847039"
"ChIJ00DujvU9rjsR84f4uGrslmM","Star Ceramics","12.983345985412598","77.56209564208984","0x3bae3df58eee40d3:0x6396ec6ab8f887f3","3","https://www.google.com/maps/place/?q=place_id:ChIJ00DujvU9rjsR84f4uGrslmM","gmaps_v2","supermarket","1687847039"
"ChIJ2xnByB8WrjsRGIsMkloLIds","Ganesh Traders","12.983722686767578","77.5627212524414","0x3bae161fc8c119db:0xdb210b5a920c8b18","0","https://www.google.com/maps/place/?q=place_id:ChIJ2xnByB8WrjsRGIsMkloLIds","gmaps_v2","supermarket","1687847039"
"ChIJpf2u1XE9rjsRTidHMI5RegU","RMC Yard","13.020758628845215","77.54691314697266","0x3bae3d71d5aefda5:0x57a518e3047274e","11378","https://www.google.com/maps/place/?q=place_id:ChIJpf2u1XE9rjsRTidHMI5RegU","gmaps_v2","supermarket","1699615207"
"ChIJE8oTp_M9rjsRtxHjPnUlMAs","Janatha Bazaar","12.984917640686035","77.55435180664062","0x3bae3df3a713ca13:0xb3025753ee311b7","22","https://www.google.com/maps/place/?q=place_id:ChIJE8oTp_M9rjsRtxHjPnUlMAs","gmaps_v2","supermarket","1699615207"
"ChIJw8oTLw89rjsRKgsfLTxxZ40","Sri Manjunatha Jewelery Works","13.015519142150879","77.52996826171875","0x3bae3d0f2f13cac3:0x8d67713c2d1f0b2a","0","https://www.google.com/maps/place/?q=place_id:ChIJw8oTLw89rjsRKgsfLTxxZ40","gmaps_v2","supermarket","1687847039"
"ChIJgRJSAR0WrjsRveROxcXombM","Minerva Mill","12.979647636413574","77.56449127197266","0x3bae161d01521281:0xb399e8c5c54ee4bd","4","https://www.google.com/maps/place/?q=place_id:ChIJgRJSAR0WrjsRveROxcXombM","gmaps_v2","supermarket","1687847039"
"ChIJoTv6y4s9rjsR49Hqatibq8I","Vijayalakshmi Traders","12.992634773254395","77.55875396728516","0x3bae3d8bcbfa3ba1:0xc2ab9bd86aead1e3","0","https://www.google.com/maps/place/?q=place_id:ChIJoTv6y4s9rjsR49Hqatibq8I","gmaps_v2","supermarket","1687847039"
"ChIJ675AKwo9rjsRqhTcJ35YtFA","Sri Maruthi Enterprises","13.012201309204102","77.53357696533203","0x3bae3d0a2b40beeb:0x50b4587e27dc14aa","3","https://www.google.com/maps/place/?q=place_id:ChIJ675AKwo9rjsRqhTcJ35YtFA","gmaps_v2","supermarket","1687847039"
"ChIJA9PcqHI9rjsRhR2du18QWA0","Narasimha","12.998285293579102","77.55404663085938","0x3bae3d72a8dcd303:0xd58105fbb9d1d85","1","https://www.google.com/maps/place/?q=place_id:ChIJA9PcqHI9rjsRhR2du18QWA0","gmaps_v2","supermarket","1687847039"
"ChIJ3aB1bwEWrjsR7HqA6UiMm9o","Kaveri Electricals","12.97066879272461","77.56571197509766","0x3bae16016f75a0dd:0xda9b8c48e9807aec","0","https://www.google.com/maps/place/?q=place_id:ChIJ3aB1bwEWrjsR7HqA6UiMm9o","gmaps_v2","supermarket","1687847039"
"ChIJXeJkHgMWrjsR6rPM60VDFP0","Hunasemara","12.97535228729248","77.56495666503906","0x3bae16031e64e25d:0xfd144345ebccb3ea","0","https://www.google.com/maps/place/?q=place_id:ChIJXeJkHgMWrjsR6rPM60VDFP0","gmaps_v2","supermarket","1687847039"
"ChIJDRV4Efg9rjsR1Pg2Lb1PVfo","Corporation Market","12.97585678100586","77.56104278564453","0x3bae3df81178150d:0xfa554fbd2d36f8d4","39","https://www.google.com/maps/place/?q=place_id:ChIJDRV4Efg9rjsR1Pg2Lb1PVfo","gmaps_v2","supermarket","1687847039"
"ChIJbSdDU3Y9rjsRGa0skkqehAw","Royalmart Supermarket","13.012556076049805","77.54753112792969","0x3bae3d765343276d:0xc849e4a922cad19","0","https://www.google.com/maps/place/?q=place_id:ChIJbSdDU3Y9rjsRGa0skkqehAw","gmaps_v2","supermarket","1687847039"
"ChIJSxQwTYo9rjsRMNIGFRqatDU","City Rice Shop","12.991745948791504","77.55911254882812","0x3bae3d8a4d30144b:0x35b49a1a1506d230","2","https://www.google.com/maps/place/?q=place_id:ChIJSxQwTYo9rjsRMNIGFRqatDU","gmaps_v2","supermarket","1699615207"
"ChIJT0eqezAXrjsRzNJv2U_z--g","Reliance Smart Point","13.038775444030762","77.56441497802734","0x3bae17307baa474f:0xe8fbf34fd96fd2cc","147","https://www.google.com/maps/place/?q=place_id:ChIJT0eqezAXrjsRzNJv2U_z--g","gmaps_v2","supermarket","1699615207"
"ChIJwe1tLP0XrjsR7OadOGle850","FIVESTAR BRASS INDIA LIMITED","12.982558250427246","77.56302642822266","0x3bae17fd2c6dedc1:0x9df35e69389de6ec","0","https://www.google.com/maps/place/?q=place_id:ChIJwe1tLP0XrjsR7OadOGle850","gmaps_v2","supermarket","1687847039"
"ChIJnaJzYeUXrjsRCH2xTD_Szhs","LuLu Forex","12.981579780578613","77.56343078613281","0x3bae17e56173a29d:0x1bced23f4cb17d08","1","https://www.google.com/maps/place/?q=place_id:ChIJnaJzYeUXrjsRCH2xTD_Szhs","gmaps_v2","supermarket","1687847039"
"ChIJjWWmXiUWrjsR4Rd-xX51IZc","Kiran Agencies","12.999553680419922","77.57223510742188","0x3bae16255ea6658d:0x9721757ec57e17e1","506","https://www.google.com/maps/place/?q=place_id:ChIJjWWmXiUWrjsR4Rd-xX51IZc","gmaps_v2","supermarket","1699615207"
"ChIJjfCcuL89rjsRZsI4Q7c_PgA","SHOPPERS' CITY","12.988883018493652","77.53751373291016","0x3bae3dbfb89cf08d:0x3e3fb74338c266","103","https://www.google.com/maps/place/?q=place_id:ChIJjfCcuL89rjsRZsI4Q7c_PgA","gmaps_v2","supermarket","1699615207"
"ChIJe2fRNyM9rjsRhysE-7I4V9A","SLV PROVISON STORE","13.035959243774414","77.52696990966797","0x3bae3d2337d1677b:0xd05738b2fb042b87","1","https://www.google.com/maps/place/?q=place_id:ChIJe2fRNyM9rjsRhysE-7I4V9A","gmaps_v2","supermarket","1699615207"
"ChIJ3eTgZvY9rjsR_OWbrzpM6p8","Karthik Travel Solutions","12.981232643127441","77.55953216552734","0x3bae3df666e0e4dd:0x9fea4c3aaf9be5fc","0","https://www.google.com/maps/place/?q=place_id:ChIJ3eTgZvY9rjsR_OWbrzpM6p8","gmaps_v2","supermarket","1687847039"
"ChIJ_zKTYLQ9rjsRmFxypZVpbSI","Tower-6","13.008529663085938","77.55316925048828","0x3bae3db4609332ff:0x226d6995a5725c98","0","https://www.google.com/maps/place/?q=place_id:ChIJ_zKTYLQ9rjsRmFxypZVpbSI","gmaps_v2","supermarket","1687847039"
"ChIJy8y1aB8XrjsRJm8NHZUArtQ","Helios Watch Store & Titan World","12.981101989746094","77.56382751464844","0x3bae171f68b5cccb:0xd4ae00951d0d6f26","27","https://www.google.com/maps/place/?q=place_id:ChIJy8y1aB8XrjsRJm8NHZUArtQ","gmaps_v2","supermarket","1687847039"
"ChIJH7NnZgk9rjsRaWtl7gAeuvA","Sri Vasavi Provision Stores","13.013386726379395","77.53265380859375","0x3bae3d096667b31f:0xf0ba1e00ee656b69","158","https://www.google.com/maps/place/?q=place_id:ChIJH7NnZgk9rjsRaWtl7gAeuvA","gmaps_v2","supermarket","1699615207"
"ChIJkY3prho9rjsRZUFNKfRwCYk","Dinasi (wholesale buy n save)","13.011649131774902","77.5443115234375","0x3bae3d1aaee98d91:0x890970f4294d4165","2","https://www.google.com/maps/place/?q=place_id:ChIJkY3prho9rjsRZUFNKfRwCYk","gmaps_v2","supermarket","1699615207"
"ChIJGydcU409rjsREbCFSSzczdo","M.R.V Enterprises","12.987772941589355","77.5509262084961","0x3bae3d8d535c271b:0xdacddc2c4985b011","0","https://www.google.com/maps/place/?q=place_id:ChIJGydcU409rjsREbCFSSzczdo","gmaps_v2","supermarket","1687847039"
"ChIJLzKwZXA9rjsRowKI1GgtEEI","R K MART","13.005809783935547","77.52626037597656","0x3bae3d7065b0322f:0x42102d68d48802a3","75","https://www.google.com/maps/place/?q=place_id:ChIJLzKwZXA9rjsRowKI1GgtEEI","gmaps_v2","supermarket","1699615207"
"ChIJuzR9Jl49rjsR-GLzvqAzZ9k","MATHIKERE Boy's Group's","13.03357219696045","77.55818939208984","0x3bae3d5e267d34bb:0xd96733a0bef362f8","1","https://www.google.com/maps/place/?q=place_id:ChIJuzR9Jl49rjsR-GLzvqAzZ9k","gmaps_v2","supermarket","1699615207"
"ChIJtffXKeg9rjsRynId3oTBy5M","Pawan Super Market","12.97815227508545","77.53901672363281","0x3bae3de829d7f7b5:0x93cbc184de1d72ca","78","https://www.google.com/maps/place/?q=place_id:ChIJtffXKeg9rjsRynId3oTBy5M","gmaps_v2","supermarket","1699615207"
"ChIJZfW34AcXrjsRJHZa18s9JWg","Railway magistrates","12.974411010742188","77.56570434570312","0x3bae1707e0b7f565:0x68253dcbd75a7624","1","https://www.google.com/maps/place/?q=place_id:ChIJZfW34AcXrjsRJHZa18s9JWg","gmaps_v2","supermarket","1687847039"
"ChIJudtAjiAWrjsR76eul7CHDAE","The Chanakya","12.976232528686523","77.56139373779297","0x3bae16208e40dbb9:0x10c87b097aea7ef","0","https://www.google.com/maps/place/?q=place_id:ChIJudtAjiAWrjsR76eul7CHDAE","gmaps_v2","supermarket","1687847039"
"ChIJX8PQCuA9rjsRFiSq8tX9Akk","Raju Tiffin Center","12.99173641204834","77.53561401367188","0x3bae3de00ad0c35f:0x4902fdd5f2aa2416","0","https://www.google.com/maps/place/?q=place_id:ChIJX8PQCuA9rjsRFiSq8tX9Akk","gmaps_v2","supermarket","1687847039"
"ChIJeyLM4fE9rjsRndRD_R8-s0w","Bindu Sundher Residency","12.980814933776855","77.550537109375","0x3bae3df1e1cc227b:0x4cb33e1ffd43d49d","0","https://www.google.com/maps/place/?q=place_id:ChIJeyLM4fE9rjsRndRD_R8-s0w","gmaps_v2","supermarket","1687847039"
"ChIJTYgkHh09rjsRUW5Y7Es-nSo","S A super mart","13.008784294128418","77.5278549194336","0x3bae3d1d1e24884d:0x2a9d3e4bec586e51","0","https://www.google.com/maps/place/?q=place_id:ChIJTYgkHh09rjsRUW5Y7Es-nSo","gmaps_v2","supermarket","1699615207"
"ChIJP6sh38oXrjsR9rTk4UTkfGw","Cookie Man - Global Malls","12.98147201538086","77.56353759765625","0x3bae17cadf21ab3f:0x6c7ce444e1e4b4f6","15","https://www.google.com/maps/place/?q=place_id:ChIJP6sh38oXrjsR9rTk4UTkfGw","gmaps_v2","supermarket","1687847039"
"ChIJz8HD_BsWrjsRwaW9B17h1bo","Mahesh Furnitures","12.982674598693848","77.56831359863281","0x3bae161bfcc3c1cf:0xbad5e15e07bda5c1","0","https://www.google.com/maps/place/?q=place_id:ChIJz8HD_BsWrjsRwaW9B17h1bo","gmaps_v2","supermarket","1687847039"
"ChIJKaYTAcQXrjsR0Dd_jiExVlo","Hopcoms Stall 156","13.02807903289795","77.57386779785156","0x3bae17c40113a629:0x5a5631218e7f37d0","35","https://www.google.com/maps/place/?q=place_id:ChIJKaYTAcQXrjsR0Dd_jiExVlo","gmaps_v2","supermarket","1687847039"
"ChIJF0PpwGM9rjsR5Fu0is9w9YY","super market","13.026290893554688","77.55780029296875","0x3bae3d63c0e94317:0x86f570cf8ab45be4","5","https://www.google.com/maps/place/?q=place_id:ChIJF0PpwGM9rjsR5Fu0is9w9YY","gmaps_v2","supermarket","1687847039"
"ChIJXdHzSowXrjsRmaZyh5XpZF0","RAILWAY NEW PARK","12.977325439453125","77.56558227539062","0x3bae178c4af3d15d:0x5d64e9958772a699","2","https://www.google.com/maps/place/?q=place_id:ChIJXdHzSowXrjsRmaZyh5XpZF0","gmaps_v2","supermarket","1687847039"
"ChIJk8n_ZPo9rjsRcIoHaWBff3o","G.H.Kumar Automobiles & Engineering Works","12.97565746307373","77.55387878417969","0x3bae3dfa64ffc993:0x7a7f5f6069078a70","1","https://www.google.com/maps/place/?q=place_id:ChIJk8n_ZPo9rjsRcIoHaWBff3o","gmaps_v2","shoe_store","1687847039"
"ChIJ_eJGHWI9rjsRzHOXxuUstOU","R.G. Plastics","13.027689933776855","77.56114196777344","0x3bae3d621d46e2fd:0xe5b42ce5c69773cc","0","https://www.google.com/maps/place/?q=place_id:ChIJ_eJGHWI9rjsRzHOXxuUstOU","gmaps_v2","shoe_store","1687847039"
"ChIJKynCdSEWrjsR3GxjNXbI8IM","Lakshmi Foot Wear","12.99134349822998","77.56640625","0x3bae162175c2292b:0x83f0c87635636cdc","2","https://www.google.com/maps/place/?q=place_id:ChIJKynCdSEWrjsR3GxjNXbI8IM","gmaps_v2","shoe_store","1687847039"
"ChIJ37ExUfEXrjsRUF2otaQjMRo","Bhojaraj Shop","13.028219223022461","77.5730972290039","0x3bae17f15131b1df:0x1a3123a4b5a85d50","0","https://www.google.com/maps/place/?q=place_id:ChIJ37ExUfEXrjsRUF2otaQjMRo","gmaps_v2","shoe_store","1687847039"
"ChIJ1dBBp3g9rjsRaQN4aWJKrVQ","NIKE","13.010873794555664","77.55462646484375","0x3bae3d78a741d0d5:0x54ad4a6269780369","205","https://www.google.com/maps/place/?q=place_id:ChIJ1dBBp3g9rjsRaQN4aWJKrVQ","gmaps_v2","shoe_store","1687847039"
"ChIJK8_elLk9rjsRtCAYwybvLsE","Sri Guru Raghavendra enterprises","13.002606391906738","77.5449447631836","0x3bae3db994decf2b:0xc12eef26c31820b4","2","https://www.google.com/maps/place/?q=place_id:ChIJK8_elLk9rjsRtCAYwybvLsE","gmaps_v2","shoe_store","1687847039"
"ChIJtbPag3w9rjsRdtSxUykUFGM","Smf Footweear","13.019437789916992","77.55643463134766","0x3bae3d7c83dab3b5:0x6314142953b1d476","0","https://www.google.com/maps/place/?q=place_id:ChIJtbPag3w9rjsRdtSxUykUFGM","gmaps_v2","shoe_store","1687847039"
"ChIJw7YWKiEWrjsRAAAA0MVX6hc","Htms Footwear","12.993383407592773","77.5652084350586","0x3bae16212a16b6c3:0x17ea57c5d0000000","0","https://www.google.com/maps/place/?q=place_id:ChIJw7YWKiEWrjsRAAAA0MVX6hc","gmaps_v2","shoe_store","1687847039"
"ChIJe2nl8-89rjsR0_zfpN8fFRQ","FASHION FOOT WEAR Mr IRFAN PASHA","13.006621360778809","77.53253936767578","0x3bae3deff3e5697b:0x14151fdfa4dffcd3","0","https://www.google.com/maps/place/?q=place_id:ChIJe2nl8-89rjsR0_zfpN8fFRQ","gmaps_v2","shoe_store","1687847039"
"ChIJQVK0vNo9rjsRyKlk2C8jJ4k","Pari Cycle House","12.988262176513672","77.54859161376953","0x3bae3ddabcb45241:0x8927232fd864a9c8","54","https://www.google.com/maps/place/?q=place_id:ChIJQVK0vNo9rjsRyKlk2C8jJ4k","gmaps_v2","shoe_store","1687847039"
"ChIJuUO6UK89rjsRuMnCf2B2-ao","Ramdev Gift & Footwear","13.002884864807129","77.52716064453125","0x3bae3daf50ba43b9:0xaaf976607fc2c9b8","1","https://www.google.com/maps/place/?q=place_id:ChIJuUO6UK89rjsRuMnCf2B2-ao","gmaps_v2","shoe_store","1687847039"
"ChIJH6mmBKA9rjsRxzOrZ8jw_DI","Sri Durga Footwear Centre","13.009033203125","77.53900146484375","0x3bae3da004a6a91f:0x32fcf0c867ab33c7","2","https://www.google.com/maps/place/?q=place_id:ChIJH6mmBKA9rjsRxzOrZ8jw_DI","gmaps_v2","shoe_store","1687847039"
"ChIJCUJRIIw9rjsRuSoy1OA4jxs","Hima Enterprises","12.993369102478027","77.55462646484375","0x3bae3d8c20514209:0x1b8f38e0d4322ab9","2","https://www.google.com/maps/place/?q=place_id:ChIJCUJRIIw9rjsRuSoy1OA4jxs","gmaps_v2","shoe_store","1687847039"
"ChIJN6aqiCAWrjsRMsZWG7jm1b4","Sri Ganesh Footwear","12.991695404052734","77.5623550415039","0x3bae162088aaa637:0xbed5e6b81b56c632","0","https://www.google.com/maps/place/?q=place_id:ChIJN6aqiCAWrjsRMsZWG7jm1b4","gmaps_v2","shoe_store","1687847039"
"ChIJYWGuWbA9rjsRH9zyl6ox5n8","M G A Foot Wear. Fairoz Pasha","12.981329917907715","77.54362487792969","0x3bae3db059ae6161:0x7fe631aa97f2dc1f","0","https://www.google.com/maps/place/?q=place_id:ChIJYWGuWbA9rjsRH9zyl6ox5n8","gmaps_v2","shoe_store","1687847039"
"ChIJTerAQ3U9rjsRuxbCRCs1mY0","Shoecare","13.010734558105469","77.54021453857422","0x3bae3d7543c0ea4d:0x8d99352b44c216bb","1","https://www.google.com/maps/place/?q=place_id:ChIJTerAQ3U9rjsRuxbCRCs1mY0","gmaps_v2","shoe_store","1687847039"
"ChIJg_L-8jkWrjsRa2wkbA9h75M","A N A Hardware & Paints","12.999130249023438","77.5796890258789","0x3bae1639f2fef283:0x93ef610f6c246c6b","23","https://www.google.com/maps/place/?q=place_id:ChIJg_L-8jkWrjsRa2wkbA9h75M","gmaps_v2","shoe_store","1687847039"
"ChIJEdhUAycWrjsRmWIWSk0A15U","Variety Footwear","12.99611759185791","77.56446075439453","0x3bae16270354d811:0x95d7004d4a166299","4","https://www.google.com/maps/place/?q=place_id:ChIJEdhUAycWrjsRmWIWSk0A15U","gmaps_v2","shoe_store","1687847039"
"ChIJ_4TSbZk9rjsRzgQf1h3CX-M","Shiva Fancy Store","12.987343788146973","77.54666900634766","0x3bae3d996dd284ff:0xe35fc21dd61f04ce","5","https://www.google.com/maps/place/?q=place_id:ChIJ_4TSbZk9rjsRzgQf1h3CX-M","gmaps_v2","shoe_store","1687847039"
"ChIJRfUZMfg9rjsRQAkOrnHqrsA","M T Footwear","12.975884437561035","77.55941772460938","0x3bae3df83119f545:0xc0aeea71ae0e0940","1","https://www.google.com/maps/place/?q=place_id:ChIJRfUZMfg9rjsRQAkOrnHqrsA","gmaps_v2","shoe_store","1687847039"
"ChIJK4inPCAWrjsRpJDaN2rVUMs","Sri Hari Hara Enterprises","12.989043235778809","77.563720703125","0x3bae16203ca7882b:0xcb50d56a37da90a4","1","https://www.google.com/maps/place/?q=place_id:ChIJK4inPCAWrjsRpJDaN2rVUMs","gmaps_v2","shoe_store","1687847039"
"ChIJC5hMoN89rjsRZxG8ClUrzYI","Bulbul Footwear","12.980119705200195","77.53846740722656","0x3bae3ddfa04c980b:0x82cd2b550abc1167","0","https://www.google.com/maps/place/?q=place_id:ChIJC5hMoN89rjsRZxG8ClUrzYI","gmaps_v2","shoe_store","1687847039"
"ChIJ4_b0xYc9rjsR6jy77I1Jq6U","Golden Goal Sports","13.043952941894531","77.5111312866211","0x3bae3d87c5f4f6e3:0xa5ab498decbb3cea","30","https://www.google.com/maps/place/?q=place_id:ChIJ4_b0xYc9rjsR6jy77I1Jq6U","gmaps_v2","shoe_store","1687847039"
"ChIJiaI5i4g9rjsR4Xe0dXmb26k","Bismilla Cycle Mart","12.998332023620605","77.55799102783203","0x3bae3d888b39a289:0xa9db9b7975b477e1","41","https://www.google.com/maps/place/?q=place_id:ChIJiaI5i4g9rjsR4Xe0dXmb26k","gmaps_v2","shoe_store","1687847039"
"ChIJaxdi2mM9rjsRzUNpzaYZIk8","P G Branded Bags","13.02710247039795","77.55824279785156","0x3bae3d63da62176b:0x4f2219a6cd6943cd","0","https://www.google.com/maps/place/?q=place_id:ChIJaxdi2mM9rjsRzUNpzaYZIk8","gmaps_v2","shoe_store","1687847039"
"ChIJXY5dei4WrjsRiQX9bSQrv-g","Avighna Collections","13.002374649047852","77.57794952392578","0x3bae162e7a5d8e5d:0xe8bf2b246dfd0589","7","https://www.google.com/maps/place/?q=place_id:ChIJXY5dei4WrjsRiQX9bSQrv-g","gmaps_v2","shoe_store","1687847039"
"ChIJpQu7ZHs9rjsRRjF_Wz8t8w8","City Bags N Footwear","13.019730567932129","77.5558090209961","0x3bae3d7b64bb0ba5:0xff32d3f5b7f3146","3","https://www.google.com/maps/place/?q=place_id:ChIJpQu7ZHs9rjsRRjF_Wz8t8w8","gmaps_v2","shoe_store","1687847039"
"ChIJoee72uM9rjsR-5gexqKyObY","Balaji Auto Consultants","12.96843147277832","77.54541778564453","0x3bae3de3dabbe7a1:0xb639b2a2c61e98fb","0","https://www.google.com/maps/place/?q=place_id:ChIJoee72uM9rjsR-5gexqKyObY","gmaps_v2","shoe_store","1687847039"
"ChIJ27aaFic9rjsRN8KikP4ouIM","A.G. Marketing Co.","13.038591384887695","77.51791381835938","0x3bae3d27169ab6db:0x83b828fe90a2c237","0","https://www.google.com/maps/place/?q=place_id:ChIJ27aaFic9rjsRN8KikP4ouIM","gmaps_v2","shoe_store","1687847039"
"ChIJHXnd8tc8rjsRb38kTHN_mEU","King Footwear","13.042068481445312","77.51470947265625","0x3bae3cd7f2dd791d:0x45987f734c247f6f","2","https://www.google.com/maps/place/?q=place_id:ChIJHXnd8tc8rjsRb38kTHN_mEU","gmaps_v2","shoe_store","1687847039"
"ChIJE7Gygag9rjsRTp-Gn4d6XaU","Fancy Footwear","13.006393432617188","77.52723693847656","0x3bae3da881b2b113:0xa55d7a879f869f4e","4","https://www.google.com/maps/place/?q=place_id:ChIJE7Gygag9rjsRTp-Gn4d6XaU","gmaps_v2","shoe_store","1687847039"
"ChIJa437WQk9rjsR33_loWlycxQ","Srs Shoe Centre","13.014345169067383","77.53295135498047","0x3bae3d0959fb8d6b:0x14737269a1e57fdf","0","https://www.google.com/maps/place/?q=place_id:ChIJa437WQk9rjsR33_loWlycxQ","gmaps_v2","shoe_store","1687847039"
"ChIJi7Ckdtc8rjsRdh3so3q_qXI","Anish Footwear","13.043475151062012","77.51315307617188","0x3bae3cd776a4b08b:0x72a9bf7aa3ec1d76","2","https://www.google.com/maps/place/?q=place_id:ChIJi7Ckdtc8rjsRdh3so3q_qXI","gmaps_v2","shoe_store","1687847039"
"ChIJL6SGEPA9rjsRlGG4JO7xFXA","MANJU NAIK Shop","13.0241060256958","77.55042266845703","0x3bae3df01086a42f:0x7015f1ee24b86194","0","https://www.google.com/maps/place/?q=place_id:ChIJL6SGEPA9rjsRlGG4JO7xFXA","gmaps_v2","shoe_store","1687847039"
"ChIJezSPBAw9rjsRL_hK5Dz2O8Y","Manjula Cycle works","13.015665054321289","77.53369140625","0x3bae3d0c048f347b:0xc63bf63ce44af82f","0","https://www.google.com/maps/place/?q=place_id:ChIJezSPBAw9rjsRL_hK5Dz2O8Y","gmaps_v2","shoe_store","1687847039"
"ChIJJchgyhgWrjsR2E3F6XV4qtM","Anjana Stores","12.986469268798828","77.5678939819336","0x3bae1618ca60c825:0xd3aa7875e9c54dd8","0","https://www.google.com/maps/place/?q=place_id:ChIJJchgyhgWrjsR2E3F6XV4qtM","gmaps_v2","shoe_store","1687847039"
"ChIJ-cG78CI9rjsRLh0Ny827vUI","Steps Footwear","12.985001564025879","77.55333709716797","0x3bae3d22f0bbc1f9:0x42bdbbcdcb0d1d2e","0","https://www.google.com/maps/place/?q=place_id:ChIJ-cG78CI9rjsRLh0Ny827vUI","gmaps_v2","shoe_store","1687847039"
"ChIJAYJNzI49rjsRsE7UI04vojY","Magik Sip","13.019716262817383","77.55533599853516","0x3bae3d8ecc4d8201:0x36a22f4e23d44eb0","4","https://www.google.com/maps/place/?q=place_id:ChIJAYJNzI49rjsRsE7UI04vojY","gmaps_v2","shoe_store","1687847039"
"ChIJc_GGGPE9rjsRx1RHBJ6EuoA","Auto Electricals Works","12.979913711547852","77.55474853515625","0x3bae3df11886f173:0x80ba849e044754c7","0","https://www.google.com/maps/place/?q=place_id:ChIJc_GGGPE9rjsRx1RHBJ6EuoA","gmaps_v2","shoe_store","1687847039"
"ChIJ1RXsiwc9rjsRKLlMnOI-il0","sri banashankari foot wear","13.009370803833008","77.52582550048828","0x3bae3d078bec15d5:0x5d8a3ee29c4cb928","0","https://www.google.com/maps/place/?q=place_id:ChIJ1RXsiwc9rjsRKLlMnOI-il0","gmaps_v2","shoe_store","1687847039"
"ChIJddsZik0XrjsRg4QjQTFw4hY","Sri Om Traders","12.989827156066895","77.57342529296875","0x3bae174d8a19db75:0x16e2703141238483","0","https://www.google.com/maps/place/?q=place_id:ChIJddsZik0XrjsRg4QjQTFw4hY","gmaps_v2","shoe_store","1687847039"
"ChIJVfax_3Q9rjsRoMJnWuHaVcM","Super King Earth Movers","13.012826919555664","77.54171752929688","0x3bae3d74ffb1f655:0xc355dae15a67c2a0","1","https://www.google.com/maps/place/?q=place_id:ChIJVfax_3Q9rjsRoMJnWuHaVcM","gmaps_v2","shoe_store","1687847039"
"ChIJJaI8PWs9rjsRyjuRqJFMqss","Komorebi Bikes","13.028769493103027","77.54035949707031","0x3bae3d6b3d3ca225:0xcbaa4c91a8913bca","0","https://www.google.com/maps/place/?q=place_id:ChIJJaI8PWs9rjsRyjuRqJFMqss","gmaps_v2","shoe_store","1687847039"
"ChIJT2LpMPg9rjsRYni1b6H1-2c","M.R.K. Footwear","12.975851058959961","77.55970764160156","0x3bae3df830e9624f:0x67fbf5a16fb57862","0","https://www.google.com/maps/place/?q=place_id:ChIJT2LpMPg9rjsRYni1b6H1-2c","gmaps_v2","shoe_store","1687847039"
"ChIJLfGPbw49rjsRkK7qMnzOQ7w","shabaj Alam Shop","13.02408218383789","77.54881286621094","0x3bae3d0e6f8ff12d:0xbc43ce7c32eaae90","0","https://www.google.com/maps/place/?q=place_id:ChIJLfGPbw49rjsRkK7qMnzOQ7w","gmaps_v2","shoe_store","1687847039"
"ChIJmT4_E549rjsRXPGZRYz1rxI","fashion choice","13.008600234985352","77.5438232421875","0x3bae3d9e133f3e99:0x12aff58c4599f15c","0","https://www.google.com/maps/place/?q=place_id:ChIJmT4_E549rjsRXPGZRYz1rxI","gmaps_v2","shoe_store","1687847039"
"ChIJd7OcOAevJzoRYj-36S3orwM","Soles and Shoes","12.9782075881958","77.5475845336914","0x3a27af07389cb377:0x3afe82de9b73f62","0","https://www.google.com/maps/place/?q=place_id:ChIJd7OcOAevJzoRYj-36S3orwM","gmaps_v2","shoe_store","1687847039"
"ChIJQc-Y2CMWrjsRnIlJHlE8vHY","Pool Masters - Swimming Pool Contractors | Pool Construction | Pool Builders In Bangalore","12.997337341308594","77.56804656982422","0x3bae1623d898cf41:0x76bc3c511e49899c","40","https://www.google.com/maps/place/?q=place_id:ChIJQc-Y2CMWrjsRnIlJHlE8vHY","gmaps_v2","shoe_store","1687847039"
"ChIJ8aU_SDEWrjsRxJZPFsBRalM","Rakhra The Sports House","13.006230354309082","77.57425689697266","0x3bae1631483fa5f1:0x536a51c0164f96c4","153","https://www.google.com/maps/place/?q=place_id:ChIJ8aU_SDEWrjsRxJZPFsBRalM","gmaps_v2","shoe_store","1687847039"
"ChIJ4_QdzJI9rjsRZJZvb7aMdJI","Chandrashekhar Water Service","13.019375801086426","77.54271697998047","0x3bae3d92cc1df4e3:0x92748cb66f6f9664","1","https://www.google.com/maps/place/?q=place_id:ChIJ4_QdzJI9rjsRZJZvb7aMdJI","gmaps_v2","shoe_store","1687847039"
"ChIJT5OlDvs9rjsRuoJADH8MnY8","Kabadi footwear","12.972628593444824","77.55294036865234","0x3bae3dfb0ea5934f:0x8f9d0c7f0c4082ba","5","https://www.google.com/maps/place/?q=place_id:ChIJT5OlDvs9rjsRuoJADH8MnY8","gmaps_v2","shoe_store","1687847039"
"ChIJrVGT9Iw9rjsRljVNTcAb43M","LIDKAR","12.989554405212402","77.55450439453125","0x3bae3d8cf49351ad:0x73e31bc04d4d3596","81","https://www.google.com/maps/place/?q=place_id:ChIJrVGT9Iw9rjsRljVNTcAb43M","gmaps_v2","shoe_store","1687847039"
"ChIJYyckPyI9rjsR1e_XAeWYQic","Asif Pasha S R A Bike Point","12.973714828491211","77.55030059814453","0x3bae3d223f242763:0x274298e501d7efd5","0","https://www.google.com/maps/place/?q=place_id:ChIJYyckPyI9rjsR1e_XAeWYQic","gmaps_v2","shoe_store","1687847039"
"ChIJ69se8ug9rjsRDlc9bCXXgMY","ASR marketing","12.977143287658691","77.54232025146484","0x3bae3de8f21edbeb:0xc680d7256c3d570e","171","https://www.google.com/maps/place/?q=place_id:ChIJ69se8ug9rjsRDlc9bCXXgMY","gmaps_v2","shoe_store","1687847039"
"ChIJcRuy0-c9rjsRvczgKG6O0m0","Olympia Sports And Fitness","12.975460052490234","77.5423583984375","0x3bae3de7d3b21b71:0x6dd28e6e28e0ccbd","444","https://www.google.com/maps/place/?q=place_id:ChIJcRuy0-c9rjsRvczgKG6O0m0","gmaps_v2","shoe_store","1687847039"
"ChIJExAzMaM9rjsRXdVZI_KKqoI","Babu Garage","12.998867988586426","77.53495788574219","0x3bae3da331331013:0x82aa8af22359d55d","13","https://www.google.com/maps/place/?q=place_id:ChIJExAzMaM9rjsRXdVZI_KKqoI","gmaps_v2","shoe_store","1687847039"
"ChIJZ9kYMwk9rjsRcHYrF0FQ0YU","sri mahalakshmi footwear","13.014909744262695","77.53134155273438","0x3bae3d093318d967:0x85d15041172b7670","2","https://www.google.com/maps/place/?q=place_id:ChIJZ9kYMwk9rjsRcHYrF0FQ0YU","gmaps_v2","shoe_store","1687847039"
"ChIJVVVVVSoWrjsRuj7xKf8b108","Rocia Shoes (Regal)","13.002827644348145","77.57042694091797","0x3bae162a55555555:0x4fd71bff29f13eba","4","https://www.google.com/maps/place/?q=place_id:ChIJVVVVVSoWrjsRuj7xKf8b108","gmaps_v2","shoe_store","1687847039"
"ChIJeXrIXlgXrjsR0nneDlfamd4","Vasanthi Footwear","12.990623474121094","77.56786346435547","0x3bae17585ec87a79:0xde99da570ede79d2","0","https://www.google.com/maps/place/?q=place_id:ChIJeXrIXlgXrjsR0nneDlfamd4","gmaps_v2","shoe_store","1687847039"
"ChIJi1pLy-g9rjsRt4dBDHTwxoc","Guru Cycles","12.995414733886719","77.53919219970703","0x3bae3de8cb4b5a8b:0x87c6f0740c4187b7","0","https://www.google.com/maps/place/?q=place_id:ChIJi1pLy-g9rjsRt4dBDHTwxoc","gmaps_v2","shoe_store","1687847039"
"ChIJsVcHlPY9rjsRCmbF45xNAHU","Winstar","12.981297492980957","77.55799865722656","0x3bae3df6940757b1:0x75004d9ce3c5660a","0","https://www.google.com/maps/place/?q=place_id:ChIJsVcHlPY9rjsRCmbF45xNAHU","gmaps_v2","shoe_store","1687847039"
"ChIJ0SM1rWE9rjsRWeGmqxHlLFA","Belt Place","13.029996871948242","77.55950164794922","0x3bae3d61ad3523d1:0x502ce511aba6e159","6","https://www.google.com/maps/place/?q=place_id:ChIJ0SM1rWE9rjsRWeGmqxHlLFA","gmaps_v2","shoe_store","1687847039"
"ChIJOabaHKA9rjsREXKx1v6ZOfU","Sree Durga Foot Wears","13.00899887084961","77.53887176513672","0x3bae3da01cdaa639:0xf53999fed6b17211","2","https://www.google.com/maps/place/?q=place_id:ChIJOabaHKA9rjsREXKx1v6ZOfU","gmaps_v2","shoe_store","1687847039"
"ChIJc2YdFZ8XrjsRVDj324twJ-8","Lokesh Shop","13.028051376342773","77.57316589355469","0x3bae179f151d6673:0xef27708bdbf73854","0","https://www.google.com/maps/place/?q=place_id:ChIJc2YdFZ8XrjsRVDj324twJ-8","gmaps_v2","shoe_store","1687847039"
"ChIJE-fKb9c9rjsRWa8QjC5jy8Y","Karnataka Hardware","13.001115798950195","77.53590393066406","0x3bae3dd76fcae713:0xc6cb632e8c10af59","2","https://www.google.com/maps/place/?q=place_id:ChIJE-fKb9c9rjsRWa8QjC5jy8Y","gmaps_v2","shoe_store","1687847039"
"ChIJUX7oMF49rjsRXfphKDFPHbQ","Sri Rangoli Footwear","13.034228324890137","77.5584945678711","0x3bae3d5e30e87e51:0xb41d4f312861fa5d","1","https://www.google.com/maps/place/?q=place_id:ChIJUX7oMF49rjsRXfphKDFPHbQ","gmaps_v2","shoe_store","1687847039"
"ChIJT0cwH9U9rjsR5jwr28d19Zs","Koushik Shop","13.024726867675781","77.54795837402344","0x3bae3dd51f30474f:0x9bf575c7db2b3ce6","0","https://www.google.com/maps/place/?q=place_id:ChIJT0cwH9U9rjsR5jwr28d19Zs","gmaps_v2","shoe_store","1687847039"
"ChIJF2u7H9M9rjsRAeToV5jzRYk","BK Hardware","12.989763259887695","77.54560089111328","0x3bae3dd31fbb6b17:0x8945f39857e8e401","0","https://www.google.com/maps/place/?q=place_id:ChIJF2u7H9M9rjsRAeToV5jzRYk","gmaps_v2","shoe_store","1687847039"
"ChIJQbTmugs9rjsRC8EvsLOBsxU","Maranna Shop","13.003230094909668","77.55329132080078","0x3bae3d0bbae6b441:0x15b381b3b02fc10b","0","https://www.google.com/maps/place/?q=place_id:ChIJQbTmugs9rjsRC8EvsLOBsxU","gmaps_v2","shoe_store","1687847039"
"ChIJscM6-Po9rjsR5On7V55wKSw","Suchithra Collections","12.974331855773926","77.55321502685547","0x3bae3dfaf83ac3b1:0x2c29709e57fbe9e4","0","https://www.google.com/maps/place/?q=place_id:ChIJscM6-Po9rjsR5On7V55wKSw","gmaps_v2","shoe_store","1687847039"
"ChIJsTYg-XI9rjsREeDTRwP5DAs","Shekar Enterprises","13.02197265625","77.54945373535156","0x3bae3d72f92036b1:0xb0cf90347d3e011","5","https://www.google.com/maps/place/?q=place_id:ChIJsTYg-XI9rjsREeDTRwP5DAs","gmaps_v2","shoe_store","1687847039"
"ChIJq9NEAMgXrjsRsFZI_Adj7Is","Be Fit - Cycle Zone","13.023117065429688","77.58473205566406","0x3bae17c80044d3ab:0x8bec6307fc4856b0","2","https://www.google.com/maps/place/?q=place_id:ChIJq9NEAMgXrjsRsFZI_Adj7Is","gmaps_v2","shoe_store","1687847039"
"ChIJZStIw009rjsRTYQ7t4f4xgQ","Rajshekar Shop","13.024200439453125","77.55052947998047","0x3bae3d4dc3482b65:0x4c6f887b73b844d","0","https://www.google.com/maps/place/?q=place_id:ChIJZStIw009rjsRTYQ7t4f4xgQ","gmaps_v2","shoe_store","1687847039"
"ChIJ95JiOYA9rjsRIKFT13rFHRQ","HB MOTORS","12.999834060668945","77.53034210205078","0x3bae3d80396292f7:0x141dc57ad753a120","11","https://www.google.com/maps/place/?q=place_id:ChIJ95JiOYA9rjsRIKFT13rFHRQ","gmaps_v2","shoe_store","1687847039"
"ChIJUfufEXA9rjsRKhbvs2t0Bzo","Shanti Traders","13.020269393920898","77.55001068115234","0x3bae3d70119ffb51:0x3a07746bb3ef162a","6","https://www.google.com/maps/place/?q=place_id:ChIJUfufEXA9rjsRKhbvs2t0Bzo","gmaps_v2","shoe_store","1687847039"
"ChIJh1-XTA49rjsRfERLkIROiAg","Sri Sai Ram Footwear","13.018799781799316","77.530517578125","0x3bae3d0e4c975f87:0x8884e84904b447c","0","https://www.google.com/maps/place/?q=place_id:ChIJh1-XTA49rjsRfERLkIROiAg","gmaps_v2","shoe_store","1687847039"
"ChIJsTrXTy4WrjsRXXx1AQcmqao","Proline India","12.991856575012207","77.57044219970703","0x3bae162e4fd73ab1:0xaaa9260701757c5d","3","https://www.google.com/maps/place/?q=place_id:ChIJsTrXTy4WrjsRXXx1AQcmqao","gmaps_v2","shoe_store","1687847039"
"ChIJ7cbyoPU9rjsRurs0f8hGLO0","Aquare","12.985224723815918","77.56029510498047","0x3bae3df5a0f2c6ed:0xed2c46c87f34bbba","1","https://www.google.com/maps/place/?q=place_id:ChIJ7cbyoPU9rjsRurs0f8hGLO0","gmaps_v2","shoe_store","1687847039"
"ChIJT17_9n0XrjsRv5pQjWgcv68","Pk Sports Studio","13.034260749816895","77.5682373046875","0x3bae177df6ff5e4f:0xafbf1c688d509abf","41","https://www.google.com/maps/place/?q=place_id:ChIJT17_9n0XrjsRv5pQjWgcv68","gmaps_v2","shoe_store","1687847039"
"ChIJn3U2Euk9rjsRh7W-sQC5rDA","Royal Footwear","12.97995662689209","77.54279327392578","0x3bae3de91236759f:0x30acb900b1beb587","0","https://www.google.com/maps/place/?q=place_id:ChIJn3U2Euk9rjsRh7W-sQC5rDA","gmaps_v2","shoe_store","1687847039"
"ChIJUZ5cbGs9rjsR3mnzC8F6wXo","Sri Mylar Stores","13.020244598388672","77.5555419921875","0x3bae3d6b6c5c9e51:0x7ac17ac10bf369de","3","https://www.google.com/maps/place/?q=place_id:ChIJUZ5cbGs9rjsR3mnzC8F6wXo","gmaps_v2","shoe_store","1687847039"
"ChIJmXMxj9c8rjsRnaygceM7wj8","Shoe Land","13.042799949645996","77.51405334472656","0x3bae3cd78f317399:0x3fc23be371a0ac9d","3","https://www.google.com/maps/place/?q=place_id:ChIJmXMxj9c8rjsRnaygceM7wj8","gmaps_v2","shoe_store","1687847039"
"ChIJI3ZCBQ8-rjsROkuwYmvCDvU","Samurai Exports Pvt Ltd","12.982601165771484","77.55702209472656","0x3bae3e0f05427623:0xf50ec26b62b04b3a","135","https://www.google.com/maps/place/?q=place_id:ChIJI3ZCBQ8-rjsROkuwYmvCDvU","gmaps_v2","shoe_store","1687847039"
"ChIJRfEI2DoWrjsRknzICVhGETE","Brand Factory Malleshwaram","12.99717903137207","77.57417297363281","0x3bae163ad808f145:0x3111465809c87c92","13102","https://www.google.com/maps/place/?q=place_id:ChIJRfEI2DoWrjsRknzICVhGETE","gmaps_v2","shoe_store","1687847039"
"ChIJX69_s4kXrjsRsg5Y4SvXiYs","D K Footware Dinesh","13.008898735046387","77.56314849853516","0x3bae1789b37faf5f:0x8b89d72be1580eb2","0","https://www.google.com/maps/place/?q=place_id:ChIJX69_s4kXrjsRsg5Y4SvXiYs","gmaps_v2","shoe_store","1687847039"
"ChIJcZvBtc0XrjsR0t4F5Abq2NU","Venkatesh Belts","12.999210357666016","77.57112121582031","0x3bae17cdb5c19b71:0xd5d8ea06e405ded2","0","https://www.google.com/maps/place/?q=place_id:ChIJcZvBtc0XrjsR0t4F5Abq2NU","gmaps_v2","shoe_store","1687847039"
"ChIJCfVkzGk9rjsR_TTDUwZmtx8","Sport & Nix Apparel's Pvt ltd","12.98117733001709","77.53266143798828","0x3bae3d69cc64f509:0x1fb7660653c334fd","24","https://www.google.com/maps/place/?q=place_id:ChIJCfVkzGk9rjsR_TTDUwZmtx8","gmaps_v2","shoe_store","1687847039"
"ChIJYSzTwdw9rjsRfVpIh8tkZSU","More International Sport","12.970564842224121","77.54339599609375","0x3bae3ddcc1d32c61:0x256564cb87485a7d","5","https://www.google.com/maps/place/?q=place_id:ChIJYSzTwdw9rjsRfVpIh8tkZSU","gmaps_v2","shoe_store","1687847039"
"ChIJgygzQCEWrjsRrMg34fSz9kE","Nagina - Canvas & School Shoes","12.992732048034668","77.56637573242188","0x3bae162140332883:0x41f6b3f4e137c8ac","1","https://www.google.com/maps/place/?q=place_id:ChIJgygzQCEWrjsRrMg34fSz9kE","gmaps_v2","shoe_store","1687847039"
"ChIJq6qq6pUVrjsRgA860FXf9X0","M City Shoes","12.997486114501953","77.55103302001953","0x3bae1595eaaaaaab:0x7df5df55d03a0f80","14","https://www.google.com/maps/place/?q=place_id:ChIJq6qq6pUVrjsRgA860FXf9X0","gmaps_v2","shoe_store","1687847039"
"ChIJgRtQ6WI9rjsRipCu-NGeHLo","pramod Kumar Shop","12.99830436706543","77.55113983154297","0x3bae3d62e9501b81:0xba1c9ed1f8ae908a","0","https://www.google.com/maps/place/?q=place_id:ChIJgRtQ6WI9rjsRipCu-NGeHLo","gmaps_v2","shoe_store","1687847039"
"ChIJtU05mC4WrjsR7pbuczOKFCE","Saraswathi Footware","13.004910469055176","77.56918334960938","0x3bae162e98394db5:0x21148a3373ee96ee","0","https://www.google.com/maps/place/?q=place_id:ChIJtU05mC4WrjsR7pbuczOKFCE","gmaps_v2","shoe_store","1687847039"
"ChIJ7RGgoPQ9rjsREsitL1eU-54","Sunitha Metal Contacts","12.989693641662598","77.55265045166016","0x3bae3df4a0a011ed:0x9efb94572fadc812","3","https://www.google.com/maps/place/?q=place_id:ChIJ7RGgoPQ9rjsREsitL1eU-54","gmaps_v2","supermarket","1687847039"
"ChIJP9yuwS8WrjsRG0FMUcXVerk","Mangal Department Stores","13.001704216003418","77.57220458984375","0x3bae162fc1aedc3f:0xb97ad5c5514c411b","5","https://www.google.com/maps/place/?q=place_id:ChIJP9yuwS8WrjsRG0FMUcXVerk","gmaps_v2","supermarket","1687847039"
"ChIJG5-0PFoXrjsRqaHlNZ66Pow","M G Colony Substation","12.97780704498291","77.56734466552734","0x3bae175a3cb49f1b:0x8c3eba9e35e5a1a9","0","https://www.google.com/maps/place/?q=place_id:ChIJG5-0PFoXrjsRqaHlNZ66Pow","gmaps_v2","supermarket","1687847039"
"ChIJTZi6BlI9rjsRE24GgQwN-g0","SREE VIJAYALAKSHMI AGENCIES","13.021390914916992","77.54815673828125","0x3bae3d5206ba984d:0xdfa0d0c81066e13","1","https://www.google.com/maps/place/?q=place_id:ChIJTZi6BlI9rjsRE24GgQwN-g0","gmaps_v2","supermarket","1687847039"
"ChIJa1Qumfo9rjsRKlJR2IA0xlo","HyperTec Bike Clinic.","12.976042747497559","77.55205535888672","0x3bae3dfa992e546b:0x5ac63480d851522a","5","https://www.google.com/maps/place/?q=place_id:ChIJa1Qumfo9rjsRKlJR2IA0xlo","gmaps_v2","supermarket","1687847039"
"ChIJoYuU0rg9rjsRcWYTLijY_bw","Pets Plazza","12.991918563842773","77.53556060791016","0x3bae3db8d2948ba1:0xbcfdd8282e136671","0","https://www.google.com/maps/place/?q=place_id:ChIJoYuU0rg9rjsRcWYTLijY_bw","gmaps_v2","supermarket","1687847039"
"ChIJNbZgZFQ9rjsR7lgYJYRe83M","Shree Kousthuba Traders","13.010353088378906","77.53333282470703","0x3bae3d546460b635:0x73f35e84251858ee","0","https://www.google.com/maps/place/?q=place_id:ChIJNbZgZFQ9rjsR7lgYJYRe83M","gmaps_v2","supermarket","1687847039"
"ChIJUx1_EOEXrjsR7GanFYbRTPc","Maha Bazaar/ಮಹಾ ಬಜಾರ್","13.037083625793457","77.565673828125","0x3bae17e1107f1d53:0xf74cd18615a766ec","2177","https://www.google.com/maps/place/?q=place_id:ChIJUx1_EOEXrjsR7GanFYbRTPc","gmaps_v2","supermarket","1699615207"
"ChIJx2L7Fx4WrjsRohN2vjWYGrM","Golden Villa Boys Pg GENTS","12.984817504882812","77.562744140625","0x3bae161e17fb62c7:0xb31a9835be7613a2","91","https://www.google.com/maps/place/?q=place_id:ChIJx2L7Fx4WrjsRohN2vjWYGrM","gmaps_v2","supermarket","1687847039"
"ChIJ08jHvY89rjsR6seTuHA30_4","Amma Super Market","12.997520446777344","77.55235290527344","0x3bae3d8fbdc7c8d3:0xfed33770b893c7ea","1","https://www.google.com/maps/place/?q=place_id:ChIJ08jHvY89rjsR6seTuHA30_4","gmaps_v2","supermarket","1687847039"
"ChIJtSRPa3Q9rjsR085muDdrb5E","Padmaja Traders","13.01445484161377","77.54327392578125","0x3bae3d746b4f24b5:0x916f6b37b866ced3","0","https://www.google.com/maps/place/?q=place_id:ChIJtSRPa3Q9rjsR085muDdrb5E","gmaps_v2","supermarket","1699615207"
"ChIJydMPQlk9rjsRFtu81pu8Pg0","National Motors","12.972572326660156","77.54759216308594","0x3bae3d59420fd3c9:0xd3ebc9bd6bcdb16","0","https://www.google.com/maps/place/?q=place_id:ChIJydMPQlk9rjsRFtu81pu8Pg0","gmaps_v2","shoe_store","1687847039"
"ChIJpWtnlnw9rjsR65zybuDgADs","My Sumathi Distributors","13.020342826843262","77.55719757080078","0x3bae3d7c96676ba5:0x3b00e0e06ef29ceb","8","https://www.google.com/maps/place/?q=place_id:ChIJpWtnlnw9rjsR65zybuDgADs","gmaps_v2","shoe_store","1687847039"
"ChIJAScJzMAXrjsRCZGQEji4BmQ","Ramesh Rshop","12.988826751708984","77.57424926757812","0x3bae17c0cc092701:0x6406b83812909109","0","https://www.google.com/maps/place/?q=place_id:ChIJAScJzMAXrjsRCZGQEji4BmQ","gmaps_v2","shoe_store","1687847039"
"ChIJoQVeLIg9rjsRvqVqSiU_g5o","Big S Leathers","12.99687385559082","77.56149291992188","0x3bae3d882c5e05a1:0x9a833f254a6aa5be","0","https://www.google.com/maps/place/?q=place_id:ChIJoQVeLIg9rjsRvqVqSiU_g5o","gmaps_v2","shoe_store","1687847039"
"ChIJB41YD9E8rjsR5g6YuxpIY7Q","New City Foot Wear","13.042905807495117","77.51315307617188","0x3bae3cd10f588d07:0xb463481abb980ee6","4","https://www.google.com/maps/place/?q=place_id:ChIJB41YD9E8rjsR5g6YuxpIY7Q","gmaps_v2","shoe_store","1687847039"
"ChIJIximUYk9rjsRsbjhhmGGu6M","Ugam Agencies","12.994140625","77.55670166015625","0x3bae3d8951a61823:0xa3bb866186e1b8b1","5","https://www.google.com/maps/place/?q=place_id:ChIJIximUYk9rjsRsbjhhmGGu6M","gmaps_v2","shoe_store","1687847039"
"ChIJS-smLNwXrjsRxm7rOpFljf8","AKSHAYA MARKETING","12.986595153808594","77.56295013427734","0x3bae17dc2c26eb4b:0xff8d65913aeb6ec6","5","https://www.google.com/maps/place/?q=place_id:ChIJS-smLNwXrjsRxm7rOpFljf8","gmaps_v2","shoe_store","1687847039"
"ChIJvZSeOAk9rjsRFBF1WGyaiCY","Durga Footwear","13.014059066772461","77.53182983398438","0x3bae3d09389e94bd:0x26889a6c58751114","0","https://www.google.com/maps/place/?q=place_id:ChIJvZSeOAk9rjsRFBF1WGyaiCY","gmaps_v2","shoe_store","1687847039"
"ChIJlS1sZCMWrjsRr_DExX_306k","Foot Care","12.9939603805542","77.571533203125","0x3bae1623646c2d95:0xa9d3f77fc5c4f0af","10","https://www.google.com/maps/place/?q=place_id:ChIJlS1sZCMWrjsRr_DExX_306k","gmaps_v2","shoe_store","1687847039"
"ChIJjxE9_fE9rjsR7JQ1NFIAvC8","Karnataka fashions","13.005256652832031","77.52808380126953","0x3bae3df1fd3d118f:0x2fbc0052343594ec","0","https://www.google.com/maps/place/?q=place_id:ChIJjxE9_fE9rjsR7JQ1NFIAvC8","gmaps_v2","shoe_store","1687847039"
"ChIJe1LxWYg9rjsRZnxAM5kMjsQ","New V.K. Experts","12.997268676757812","77.56004333496094","0x3bae3d8859f1527b:0xc48e0c9933407c66","2","https://www.google.com/maps/place/?q=place_id:ChIJe1LxWYg9rjsRZnxAM5kMjsQ","gmaps_v2","shoe_store","1687847039"
"ChIJk5AwOyM9rjsRYpTHQef1ZdA","S.S.Footwear","13.035298347473145","77.5265884399414","0x3bae3d233b309093:0xd065f5e741c79462","0","https://www.google.com/maps/place/?q=place_id:ChIJk5AwOyM9rjsRYpTHQef1ZdA","gmaps_v2","shoe_store","1687847039"
"ChIJVVVVVdk9rjsR-5TpvOQLTXA","Vachif Foot Fashion","12.973982810974121","77.54438018798828","0x3bae3dd955555555:0x704d0be4bce994fb","1","https://www.google.com/maps/place/?q=place_id:ChIJVVVVVdk9rjsR-5TpvOQLTXA","gmaps_v2","shoe_store","1687847039"
"ChIJMesE0sM9rjsR528BxdSsmKg","Mohammad suhoib Ahmed Shop","13.02389907836914","77.54935455322266","0x3bae3dc3d204eb31:0xa898acd4c5016fe7","0","https://www.google.com/maps/place/?q=place_id:ChIJMesE0sM9rjsR528BxdSsmKg","gmaps_v2","shoe_store","1687847039"
"ChIJW8yhIOEXrjsRpCKLR9979Pc","Feet Collection","13.036515235900879","77.56655883789062","0x3bae17e120a1cc5b:0xf7f47bdf478b22a4","1","https://www.google.com/maps/place/?q=place_id:ChIJW8yhIOEXrjsRpCKLR9979Pc","gmaps_v2","shoe_store","1687847039"
"ChIJe96EgP8XrjsReMTPpcH7Lew","Mochi shoes shop","12.991650581359863","77.5703125","0x3bae17ff8084de7b:0xec2dfbc1a5cfc478","0","https://www.google.com/maps/place/?q=place_id:ChIJe96EgP8XrjsReMTPpcH7Lew","gmaps_v2","shoe_store","1687847039"
"ChIJzalk_8I9rjsRnbf3SyASBqs","J.C Footwear","12.978484153747559","77.53638458251953","0x3bae3dc2ff64a9cd:0xab0612204bf7b79d","2","https://www.google.com/maps/place/?q=place_id:ChIJzalk_8I9rjsRnbf3SyASBqs","gmaps_v2","shoe_store","1687847039"
"ChIJferld_0XrjsRVCW0JIS-xzI","Pinjari Subhana Sab","12.988975524902344","77.57212829589844","0x3bae17fd77e5ea7d:0x32c7be8424b42554","0","https://www.google.com/maps/place/?q=place_id:ChIJferld_0XrjsRVCW0JIS-xzI","gmaps_v2","shoe_store","1687847039"
"ChIJFZtkUsE9rjsRwDA7PTct218","Shoe Camp","12.981849670410156","77.53348541259766","0x3bae3dc152649b15:0x5fdb2d373d3b30c0","1","https://www.google.com/maps/place/?q=place_id:ChIJFZtkUsE9rjsRwDA7PTct218","gmaps_v2","shoe_store","1687847039"
"ChIJY9IdZRI9rjsRE36SepS544w","Shivanna Ks Shop","12.991687774658203","77.53826904296875","0x3bae3d12651dd263:0x8ce3b9947a927e13","0","https://www.google.com/maps/place/?q=place_id:ChIJY9IdZRI9rjsRE36SepS544w","gmaps_v2","shoe_store","1687847039"
"ChIJd3XImGM9rjsR1JnkaycDzko","SP Leathers","13.025136947631836","77.5576171875","0x3bae3d6398c87577:0x4ace03276be499d4","0","https://www.google.com/maps/place/?q=place_id:ChIJd3XImGM9rjsR1JnkaycDzko","gmaps_v2","shoe_store","1687847039"
"ChIJVddqb2E9rjsRNuH2RLugsWA","Crocodile ARKA enterprises","13.028366088867188","77.55809020996094","0x3bae3d616f6ad755:0x60b1a0bb44f6e136","6","https://www.google.com/maps/place/?q=place_id:ChIJVddqb2E9rjsRNuH2RLugsWA","gmaps_v2","shoe_store","1687847039"
"ChIJvy7RZ_oXrjsRB7JcOXeKjeY","Zabid arbaz","12.999381065368652","77.56978607177734","0x3bae17fa67d12ebf:0xe68d8a77395cb207","0","https://www.google.com/maps/place/?q=place_id:ChIJvy7RZ_oXrjsRB7JcOXeKjeY","gmaps_v2","shoe_store","1687847039"
"ChIJf_H97lo9rjsRMZAFzcAOZyQ","Shoe Corner","13.03453254699707","77.55889892578125","0x3bae3d5aeefdf17f:0x24670ec0cd059031","4","https://www.google.com/maps/place/?q=place_id:ChIJf_H97lo9rjsRMZAFzcAOZyQ","gmaps_v2","shoe_store","1687847039"
"ChIJc94RcLEXrjsRiHZjuwZmjI4","Muralidharan Shop","13.039108276367188","77.56446075439453","0x3bae17b17011de73:0x8e8c6606bb637688","0","https://www.google.com/maps/place/?q=place_id:ChIJc94RcLEXrjsRiHZjuwZmjI4","gmaps_v2","shoe_store","1687847039"
"ChIJF69P4ZQ9rjsRAHDMzUTVFSc","Sea Pearl Trading","12.988972663879395","77.54219818115234","0x3bae3d94e14faf17:0x2715d544cdcc7000","0","https://www.google.com/maps/place/?q=place_id:ChIJF69P4ZQ9rjsRAHDMzUTVFSc","gmaps_v2","shoe_store","1687847039"
"ChIJ9RwZhuY9rjsRX807c6hnCTI","SANGAM TIMES","12.97290325164795","77.54420471191406","0x3bae3de686191cf5:0x320967a8733bcd5f","103","https://www.google.com/maps/place/?q=place_id:ChIJ9RwZhuY9rjsRX807c6hnCTI","gmaps_v2","shoe_store","1687847039"
"ChIJg2FDY849rjsR57iCNqtG8eE","Sridhar","13.039950370788574","77.51885223388672","0x3bae3dce63436183:0xe1f146ab3682b8e7","0","https://www.google.com/maps/place/?q=place_id:ChIJg2FDY849rjsR57iCNqtG8eE","gmaps_v2","shoe_store","1687847039"
"ChIJE9mfAIw9rjsRW2hcyF_6x58","Jai Bhavani Traders","12.993321418762207","77.55601501464844","0x3bae3d8c009fd913:0x9fc7fa5fc85c685b","0","https://www.google.com/maps/place/?q=place_id:ChIJE9mfAIw9rjsRW2hcyF_6x58","gmaps_v2","shoe_store","1687847039"
"ChIJC-y4voc9rjsRb37Yl1Ump4k","Ahmed Shariff Footwear","12.994376182556152","77.54582977294922","0x3bae3d87beb8ec0b:0x89a7265597d87e6f","0","https://www.google.com/maps/place/?q=place_id:ChIJC-y4voc9rjsRb37Yl1Ump4k","gmaps_v2","shoe_store","1687847039"
"ChIJUZ5cbGs9rjsR6DL7Oy4wnQ0","Standard Footwear","13.02014446258545","77.55643463134766","0x3bae3d6b6c5c9e51:0xd9d302e3bfb32e8","0","https://www.google.com/maps/place/?q=place_id:ChIJUZ5cbGs9rjsR6DL7Oy4wnQ0","gmaps_v2","shoe_store","1687847039"
"ChIJU3LW_ko9rjsRHh9DqFEW4_8","Krishna Motors","12.99409008026123","77.55555725097656","0x3bae3d4afed67253:0xffe31651a8431f1e","0","https://www.google.com/maps/place/?q=place_id:ChIJU3LW_ko9rjsRHh9DqFEW4_8","gmaps_v2","shoe_store","1687847039"
"ChIJuQFQeTYXrjsRg2NrdP2J1uY","Arun Sujath Shop","13.028068542480469","77.57305908203125","0x3bae1736795001b9:0xe6d689fd746b6383","0","https://www.google.com/maps/place/?q=place_id:ChIJuQFQeTYXrjsRg2NrdP2J1uY","gmaps_v2","shoe_store","1687847039"
"ChIJZ5nsHfI9rjsRgJMT84D1pCY","Sri Vinayaka Bike Solutions ( All Kinds of Two Wheelers & Electric Vehicle Services)","12.978958129882812","77.55479431152344","0x3bae3df21dec9967:0x26a4f580f3139380","1","https://www.google.com/maps/place/?q=place_id:ChIJZ5nsHfI9rjsRgJMT84D1pCY","gmaps_v2","shoe_store","1687847039"
"ChIJfelpMAgXrjsRF7U-VYE_Uq0","Niranjan Murthy L","12.98901081085205","77.57408142089844","0x3bae17083069e97d:0xad523f81553eb517","0","https://www.google.com/maps/place/?q=place_id:ChIJfelpMAgXrjsRF7U-VYE_Uq0","gmaps_v2","shoe_store","1687847039"
"ChIJO7uX_U4XrjsRG5vD31pWyqM","Classic car spa - Lulu Hypermarket","12.980798721313477","77.56393432617188","0x3bae174efd97bb3b:0xa3ca565adfc39b1b","43","https://www.google.com/maps/place/?q=place_id:ChIJO7uX_U4XrjsRG5vD31pWyqM","gmaps_v2","supermarket","1687847039"
"ChIJkw8sAx4WrjsRFCs_yTxF4Ew","Sonal Industries","12.983266830444336","77.56217956542969","0x3bae161e032c0f93:0x4ce0453cc93f2b14","0","https://www.google.com/maps/place/?q=place_id:ChIJkw8sAx4WrjsRFCs_yTxF4Ew","gmaps_v2","supermarket","1687847039"
"ChIJJymLki09rjsRrcEJXwmPM9g","Phenix academy","12.972100257873535","77.56095123291016","0x3bae3d2d928b2927:0xd8338f095f09c1ad","1","https://www.google.com/maps/place/?q=place_id:ChIJJymLki09rjsRrcEJXwmPM9g","gmaps_v2","supermarket","1687847039"
"ChIJUQ6v9Pc9rjsRi0sO5Ubw_iw","MH Tea Stall","12.97717571258545","77.560546875","0x3bae3df7f4af0e51:0x2cfef046e50e4b8b","1","https://www.google.com/maps/place/?q=place_id:ChIJUQ6v9Pc9rjsRi0sO5Ubw_iw","gmaps_v2","supermarket","1687847039"
"ChIJQ9wZJ0oXrjsR6eUKseTWNp4","Dream Cake","12.986916542053223","77.5628890991211","0x3bae174a2719dc43:0x9e36d6e4b10ae5e9","3","https://www.google.com/maps/place/?q=place_id:ChIJQ9wZJ0oXrjsR6eUKseTWNp4","gmaps_v2","supermarket","1687847039"
"ChIJrePN0R4WrjsRkgEUS5UHPZE","Sri Raghavendra Traders","12.985020637512207","77.56715393066406","0x3bae161ed1cde3ad:0x913d07954b140192","0","https://www.google.com/maps/place/?q=place_id:ChIJrePN0R4WrjsRkgEUS5UHPZE","gmaps_v2","supermarket","1687847039"
"ChIJWa5sNW49rjsRgs-XHuB9Jqo","R B Lingaradhya and Co.","13.022760391235352","77.54750061035156","0x3bae3d6e356cae59:0xaa267de01e97cf82","0","https://www.google.com/maps/place/?q=place_id:ChIJWa5sNW49rjsRgs-XHuB9Jqo","gmaps_v2","supermarket","1687847039"
"ChIJL5pQMqkXrjsR37tzDxMsTBA","Yukith Fashions","12.986987113952637","77.56343841552734","0x3bae17a932509a2f:0x104c2c130f73bbdf","3","https://www.google.com/maps/place/?q=place_id:ChIJL5pQMqkXrjsR37tzDxMsTBA","gmaps_v2","supermarket","1687847039"
"ChIJ8Yoigc0XrjsR2Hy9iNVrByw","Sandeep Motors - Car Super Market","13.014490127563477","77.57361602783203","0x3bae17cd81228af1:0x2c076bd588bd7cd8","2","https://www.google.com/maps/place/?q=place_id:ChIJ8Yoigc0XrjsR2Hy9iNVrByw","gmaps_v2","supermarket","1687847039"
"ChIJE8R9PncWrjsRCkwUwte0vvE","B K Puttaswamy & Co","13.021900177001953","77.54731750488281","0x3bae16773e7dc413:0xf1beb4d7c2144c0a","0","https://www.google.com/maps/place/?q=place_id:ChIJE8R9PncWrjsRCkwUwte0vvE","gmaps_v2","supermarket","1687847039"
"ChIJXy2_Alk9rjsRrFUZlS4Bm1k","Sasyavedha Naturals","13.000143051147461","77.56967163085938","0x3bae3d5902bf2d5f:0x599b012e951955ac","84","https://www.google.com/maps/place/?q=place_id:ChIJXy2_Alk9rjsRrFUZlS4Bm1k","gmaps_v2","supermarket","1699615207"
"ChIJWQ4jifU9rjsR1GtSWRuMvuA","Varalakshmi Enterprises","12.984407424926758","77.5616455078125","0x3bae3df589230e59:0xe0be8c1b59526bd4","2","https://www.google.com/maps/place/?q=place_id:ChIJWQ4jifU9rjsR1GtSWRuMvuA","gmaps_v2","supermarket","1687847039"
"ChIJQwmQAHMXrjsRcKiHqTjPDNc","Go Sports Adventures","12.997761726379395","77.56954193115234","0x3bae177300900943:0xd70ccf38a987a870","0","https://www.google.com/maps/place/?q=place_id:ChIJQwmQAHMXrjsRcKiHqTjPDNc","gmaps_v2","supermarket","1687847039"
"ChIJ2elQDSk9rjsRsGGiaohv1hw","Iyengar cake cafe. 02","12.973671913146973","77.54447174072266","0x3bae3d290d50e9d9:0x1cd66f886aa261b0","1","https://www.google.com/maps/place/?q=place_id:ChIJ2elQDSk9rjsRsGGiaohv1hw","gmaps_v2","supermarket","1687847039"
"ChIJu_22yZ49rjsRh9ryPPNwGBU","O Mart Grocery Delivery","12.99293327331543","77.55964660644531","0x3bae3d9ec9b6fdbb:0x151870f33cf2da87","0","https://www.google.com/maps/place/?q=place_id:ChIJu_22yZ49rjsRh9ryPPNwGBU","gmaps_v2","supermarket","1699615207"
"ChIJO7xc_DkWrjsR3dKQpk--PqQ","Preethi Buy 'n' Save","13.000393867492676","77.57950592041016","0x3bae1639fc5cbc3b:0xa43ebe4fa690d2dd","9","https://www.google.com/maps/place/?q=place_id:ChIJO7xc_DkWrjsR3dKQpk--PqQ","gmaps_v2","supermarket","1687847039"
"ChIJT5nKCm4XrjsRaYGtodhfm1Y","Sharu Home","12.993565559387207","77.56463623046875","0x3bae176e0aca994f:0x569b5fd8a1ad8169","0","https://www.google.com/maps/place/?q=place_id:ChIJT5nKCm4XrjsRaYGtodhfm1Y","gmaps_v2","supermarket","1687847039"
"ChIJ8yD2-gk9rjsRkwLrBlASnQ8","Sri Jenukal Siddeshwara Provision Store","13.010026931762695","77.53278350830078","0x3bae3d09faf620f3:0xf9d125006eb0293","2","https://www.google.com/maps/place/?q=place_id:ChIJ8yD2-gk9rjsRkwLrBlASnQ8","gmaps_v2","supermarket","1687847039"
"ChIJJVGYo4Q9rjsRSsBErmsuuog","Adishwar Electro world - Premium Rajajinagar","13.00424861907959","77.55152130126953","0x3bae3d84a3985125:0x88ba2e6bae44c04a","310","https://www.google.com/maps/place/?q=place_id:ChIJJVGYo4Q9rjsRSsBErmsuuog","gmaps_v2","supermarket","1699615207"
"ChIJaXd0y789rjsRAAAAMCddgjM","S Grocery","12.989727973937988","77.5378646850586","0x3bae3dbfcb747769:0x33825d2730000000","0","https://www.google.com/maps/place/?q=place_id:ChIJaXd0y789rjsRAAAAMCddgjM","gmaps_v2","supermarket","1699615207"
"ChIJAYS4qR0WrjsRbeGLko3DeyM","Minerva Mill","12.979950904846191","77.5643310546875","0x3bae161da9b88401:0x237bc38d928be16d","1","https://www.google.com/maps/place/?q=place_id:ChIJAYS4qR0WrjsRbeGLko3DeyM","gmaps_v2","supermarket","1687847039"
"ChIJtSKBpak9rjsRVJFwICFesp0","Shree Buy N Save","13.000469207763672","77.56041717529297","0x3bae3da9a58122b5:0x9db25e2120709154","112","https://www.google.com/maps/place/?q=place_id:ChIJtSKBpak9rjsRVJFwICFesp0","gmaps_v2","supermarket","1699615207"
"ChIJ1bU_YDE9rjsRxRcLJeJL7TA","M.J.S.S Fair price Shop (Bhaskar depo)","12.97297477722168","77.55618286132812","0x3bae3d31603fb5d5:0x30ed4be2250b17c5","7","https://www.google.com/maps/place/?q=place_id:ChIJ1bU_YDE9rjsRxRcLJeJL7TA","gmaps_v2","supermarket","1699615207"
"ChIJsT7TvqM9rjsR7rUWBI8uHOo","SK Stores","13.002284049987793","77.53508758544922","0x3bae3da3bed33eb1:0xea1c2e8f0416b5ee","1","https://www.google.com/maps/place/?q=place_id:ChIJsT7TvqM9rjsR7rUWBI8uHOo","gmaps_v2","supermarket","1687847039"
"ChIJH-4AQowXrjsRoeuJFKUNkGU","Sri Sainath PG for Mens","12.983566284179688","77.56265258789062","0x3bae178c4200ee1f:0x65900da51489eba1","111","https://www.google.com/maps/place/?q=place_id:ChIJH-4AQowXrjsRoeuJFKUNkGU","gmaps_v2","supermarket","1687847039"
"ChIJT_2btDoWrjsRA9pgflH2ZWs","Sri Lakshmi Venkateshwara Cycle Works","12.999003410339355","77.57351684570312","0x3bae163ab49bfd4f:0x6b65f6517e60da03","6","https://www.google.com/maps/place/?q=place_id:ChIJT_2btDoWrjsRA9pgflH2ZWs","gmaps_v2","shoe_store","1687847039"
"ChIJ5Y8Fg9c8rjsRGsGcHJE90ME","Shoe Palace","13.042433738708496","77.51565551757812","0x3bae3cd783058fe5:0xc1d03d911c9cc11a","2","https://www.google.com/maps/place/?q=place_id:ChIJ5Y8Fg9c8rjsRGsGcHJE90ME","gmaps_v2","shoe_store","1687847039"
"ChIJrVLd9NwXrjsRYHyu5fHtaz8","Soles Shoes Pvt Ltd","13.029987335205078","77.57057189941406","0x3bae17dcf4dd52ad:0x3f6bedf1e5ae7c60","0","https://www.google.com/maps/place/?q=place_id:ChIJrVLd9NwXrjsRYHyu5fHtaz8","gmaps_v2","shoe_store","1687847039"
"ChIJKSq_ASEXrjsRBc8GojzAEGE","ASL Footwear (Demo purpose only)","13.004701614379883","77.56916809082031","0x3bae172101bf2a29:0x6110c03ca206cf05","0","https://www.google.com/maps/place/?q=place_id:ChIJKSq_ASEXrjsRBc8GojzAEGE","gmaps_v2","shoe_store","1687847039"
"ChIJayUxYhoXrjsRpyIXz3y-cLg","MAHBOOB FOOTWEAR","12.998387336730957","77.5716323852539","0x3bae171a6231256b:0xb870be7ccf1722a7","0","https://www.google.com/maps/place/?q=place_id:ChIJayUxYhoXrjsRpyIXz3y-cLg","gmaps_v2","shoe_store","1687847039"
"ChIJ6aWq6uQ9rjsRAAAAMIiquyA","Shashank Foot Ware","12.972063064575195","77.54904174804688","0x3bae3de4eaaaa5e9:0x20bbaa8830000000","0","https://www.google.com/maps/place/?q=place_id:ChIJ6aWq6uQ9rjsRAAAAMIiquyA","gmaps_v2","shoe_store","1687847039"
"ChIJW1qMFEM9rjsRVTNITr2WQnk","Zafar Footwear","12.971182823181152","77.55204010009766","0x3bae3d43148c5a5b:0x794296bd4e483355","0","https://www.google.com/maps/place/?q=place_id:ChIJW1qMFEM9rjsRVTNITr2WQnk","gmaps_v2","shoe_store","1687847039"
"ChIJmfXAdycWrjsRf8tahRFCJDo","Val4Mon","12.996657371520996","77.56275939941406","0x3bae162777c0f599:0x3a244211855acb7f","0","https://www.google.com/maps/place/?q=place_id:ChIJmfXAdycWrjsRf8tahRFCJDo","gmaps_v2","shoe_store","1687847039"
"ChIJhzCKAZ09rjsRVMgb4qM33wM","MY CYCLE PLANET","12.99230670928955","77.5345230102539","0x3bae3d9d018a3087:0x3df37a3e21bc854","1","https://www.google.com/maps/place/?q=place_id:ChIJhzCKAZ09rjsRVMgb4qM33wM","gmaps_v2","shoe_store","1687847039"
"ChIJRQqP-Xs9rjsR_PXmo1xq_jo","Chethana S","12.993501663208008","77.5551986694336","0x3bae3d7bf98f0a45:0x3afe6a5ca3e6f5fc","0","https://www.google.com/maps/place/?q=place_id:ChIJRQqP-Xs9rjsR_PXmo1xq_jo","gmaps_v2","shoe_store","1687847039"
"ChIJV9T4IYY9rjsRtV4S7eqvYrU","R. V. S. Fashion Mens Wear","12.999661445617676","77.55766296386719","0x3bae3d8621f8d457:0xb562afeaed125eb5","2","https://www.google.com/maps/place/?q=place_id:ChIJV9T4IYY9rjsRtV4S7eqvYrU","gmaps_v2","shoe_store","1687847039"
"ChIJs9OZe-AXrjsRQ8V5jvdRe2s","Fashion Walk","13.034038543701172","77.56436920166016","0x3bae17e07b99d3b3:0x6b7b51f78e79c543","2","https://www.google.com/maps/place/?q=place_id:ChIJs9OZe-AXrjsRQ8V5jvdRe2s","gmaps_v2","shoe_store","1687847039"
"ChIJ0b9hiPIXrjsRXctFzPZxxpA","Bc international","12.99930477142334","77.5698471069336","0x3bae17f28861bfd1:0x90c671f6cc45cb5d","1","https://www.google.com/maps/place/?q=place_id:ChIJ0b9hiPIXrjsRXctFzPZxxpA","gmaps_v2","shoe_store","1687847039"
"ChIJvyZjnGg9rjsRqw4oljYsITA","Cycle World Peenya","13.046858787536621","77.50390625","0x3bae3d689c6326bf:0x30212c3696280eab","112","https://www.google.com/maps/place/?q=place_id:ChIJvyZjnGg9rjsRqw4oljYsITA","gmaps_v2","shoe_store","1687847039"
"ChIJ_QQE6ZQ9rjsRk30F5CqMZDI","Samrat Marketing","12.988967895507812","77.54280853271484","0x3bae3d94e90404fd:0x32648c2ae4057d93","0","https://www.google.com/maps/place/?q=place_id:ChIJ_QQE6ZQ9rjsRk30F5CqMZDI","gmaps_v2","shoe_store","1687847039"
"ChIJbYvGFwkUrjsR_idjjTTvNVY","Innova Polypak Pvt Ltd","13.036197662353516","77.55733489990234","0x3bae140917c68b6d:0x5635ef348d6327fe","0","https://www.google.com/maps/place/?q=place_id:ChIJbYvGFwkUrjsR_idjjTTvNVY","gmaps_v2","shoe_store","1687847039"
"ChIJlUreAhI9rjsRBzM8VJAWfQs","V.M.W Bike Zone","13.021574974060059","77.53404998779297","0x3bae3d1202de4a95:0xb7d1690543c3307","0","https://www.google.com/maps/place/?q=place_id:ChIJlUreAhI9rjsRBzM8VJAWfQs","gmaps_v2","shoe_store","1687847039"
"ChIJAQAAAPM9rjsRQtMPyx4v_5Y","Samantha Sainik Dal","12.984981536865234","77.5533447265625","0x3bae3df300000001:0x96ff2f1ecb0fd342","0","https://www.google.com/maps/place/?q=place_id:ChIJAQAAAPM9rjsRQtMPyx4v_5Y","gmaps_v2","shoe_store","1687847039"
"ChIJpbYdUII9rjsRyEOdT2gBbiQ","R K STEEL CO","13.036128997802734","77.52468872070312","0x3bae3d82501db6a5:0x246e01684f9d43c8","0","https://www.google.com/maps/place/?q=place_id:ChIJpbYdUII9rjsRyEOdT2gBbiQ","gmaps_v2","shoe_store","1687847039"
"ChIJ_VR5HlMXrjsRpd0dJxmuePE","Rapid Foot Wear","12.998324394226074","77.57115173339844","0x3bae17531e7954fd:0xf178ae19271ddda5","0","https://www.google.com/maps/place/?q=place_id:ChIJ_VR5HlMXrjsRpd0dJxmuePE","gmaps_v2","shoe_store","1687847039"
"ChIJ_SKt3V89rjsR7KCVWcKOcY8","The Edge, ( Mfrs of Sports Wear)","12.975606918334961","77.5452880859375","0x3bae3d5fddad22fd:0x8f718ec25995a0ec","7","https://www.google.com/maps/place/?q=place_id:ChIJ_SKt3V89rjsR7KCVWcKOcY8","gmaps_v2","shoe_store","1687847039"
"ChIJPwXuZl0XrjsRgLArWqFUr_U","Blak shoe","12.999724388122559","77.57147216796875","0x3bae175d66ee053f:0xf5af54a15a2bb080","0","https://www.google.com/maps/place/?q=place_id:ChIJPwXuZl0XrjsRgLArWqFUr_U","gmaps_v2","shoe_store","1687847039"
"ChIJUXW8Nhg9rjsRxS0zVrsi62Y","NEWKIKS New Kicks","13.006280899047852","77.55438995361328","0x3bae3d1836bc7551:0x66eb22bb56332dc5","29","https://www.google.com/maps/place/?q=place_id:ChIJUXW8Nhg9rjsRxS0zVrsi62Y","gmaps_v2","shoe_store","1687847039"
"ChIJw1dH_yoXrjsRIZrCehkpAwY","Vignesh Shop","13.028213500976562","77.57312774658203","0x3bae172aff4757c3:0x60329197ac29a21","0","https://www.google.com/maps/place/?q=place_id:ChIJw1dH_yoXrjsRIZrCehkpAwY","gmaps_v2","shoe_store","1687847039"
"ChIJY80J0s09rjsRQCThlzoumvE","Agr Enterprises","13.041114807128906","77.55378723144531","0x3bae3dcdd209cd63:0xf19a2e3a97e12440","0","https://www.google.com/maps/place/?q=place_id:ChIJY80J0s09rjsRQCThlzoumvE","gmaps_v2","shoe_store","1687847039"
"ChIJJQDjLfU9rjsRcdxK23M4FI8","Kitchen Palace & Hardware","12.985224723815918","77.56029510498047","0x3bae3df52de30025:0x8f143873db4adc71","2","https://www.google.com/maps/place/?q=place_id:ChIJJQDjLfU9rjsRcdxK23M4FI8","gmaps_v2","shoe_store","1687847039"
"ChIJ56G3bF49rjsRRfcrmyHg_u8","Rr Cycle Zone","13.034662246704102","77.55720520019531","0x3bae3d5e6cb7a1e7:0xeffee0219b2bf745","0","https://www.google.com/maps/place/?q=place_id:ChIJ56G3bF49rjsRRfcrmyHg_u8","gmaps_v2","shoe_store","1687847039"
"ChIJ41fqZdc8rjsRPKBxEI-oGmk","ABC Bags & Foot Wears","13.042957305908203","77.51221466064453","0x3bae3cd765ea57e3:0x691aa88f1071a03c","2","https://www.google.com/maps/place/?q=place_id:ChIJ41fqZdc8rjsRPKBxEI-oGmk","gmaps_v2","shoe_store","1687847039"
"ChIJ2R9ad_M9rjsRuGdbC-T-4RQ","Anupam Foot Wear","12.985416412353516","77.55545806884766","0x3bae3df3775a1fd9:0x14e1fee40b5b67b8","0","https://www.google.com/maps/place/?q=place_id:ChIJ2R9ad_M9rjsRuGdbC-T-4RQ","gmaps_v2","shoe_store","1687847039"
"ChIJN_R5j1Q9rjsRDwPIyLHVMzs","My","12.985404014587402","77.54586029052734","0x3bae3d548f79f437:0x3b33d5b1c8c8030f","1","https://www.google.com/maps/place/?q=place_id:ChIJN_R5j1Q9rjsRDwPIyLHVMzs","gmaps_v2","shoe_store","1687847039"
"ChIJjyL9z_M9rjsRafyCRtxYALA","Cinderella Collections","12.98289966583252","77.55409240722656","0x3bae3df3cffd228f:0xb00058dc4682fc69","0","https://www.google.com/maps/place/?q=place_id:ChIJjyL9z_M9rjsRafyCRtxYALA","gmaps_v2","shoe_store","1687847039"
"ChIJE8R9PncWrjsRQwl9xzFQhF8","Choice Foot Wear","13.027871131896973","77.55845642089844","0x3bae16773e7dc413:0x5f845031c77d0943","2","https://www.google.com/maps/place/?q=place_id:ChIJE8R9PncWrjsRQwl9xzFQhF8","gmaps_v2","shoe_store","1687847039"
"ChIJZ12GN_IXrjsRFhKVtZ8AIu8","Rangaswamy D S Shop","12.98892593383789","77.57213592529297","0x3bae17f237865d67:0xef22009fb5951216","0","https://www.google.com/maps/place/?q=place_id:ChIJZ12GN_IXrjsRFhKVtZ8AIu8","gmaps_v2","shoe_store","1687847039"
"ChIJt4WjQh8WrjsRwjlSM57kYxQ","Niveda Sports Wear","12.98765754699707","77.56626892089844","0x3bae161f42a385b7:0x1463e49e335239c2","36","https://www.google.com/maps/place/?q=place_id:ChIJt4WjQh8WrjsRwjlSM57kYxQ","gmaps_v2","shoe_store","1687847039"
"ChIJ60JWMgw9rjsROmUEsqRkHz0","Rebel fashions","13.017695426940918","77.53413391113281","0x3bae3d0c325642eb:0x3d1f64a4b204653a","6","https://www.google.com/maps/place/?q=place_id:ChIJ60JWMgw9rjsROmUEsqRkHz0","gmaps_v2","shoe_store","1687847039"
"ChIJcS3XTvM9rjsR3Mx4y0MaAKk","Sanchan","13.003754615783691","77.52714538574219","0x3bae3df34ed72d71:0xa9001a43cb78ccdc","0","https://www.google.com/maps/place/?q=place_id:ChIJcS3XTvM9rjsR3Mx4y0MaAKk","gmaps_v2","shoe_store","1687847039"
"ChIJW25sw2E9rjsRfLROOkhX698","Shekar Footwear","13.029484748840332","77.5611801147461","0x3bae3d61c36c6e5b:0xdfeb57483a4eb47c","1","https://www.google.com/maps/place/?q=place_id:ChIJW25sw2E9rjsRfLROOkhX698","gmaps_v2","shoe_store","1687847039"
"ChIJp8DfnGo9rjsR1qQNvZofVUA","Bicycle zone","13.008334159851074","77.52642822265625","0x3bae3d6a9cdfc0a7:0x40551f9abd0da4d6","92","https://www.google.com/maps/place/?q=place_id:ChIJp8DfnGo9rjsR1qQNvZofVUA","gmaps_v2","shoe_store","1687847039"
"ChIJd5AckkY9rjsRNdMVx9mFzzI","Classic Leather Shoes","13.040777206420898","77.51712799072266","0x3bae3d46921c9077:0x32cf85d9c715d335","4","https://www.google.com/maps/place/?q=place_id:ChIJd5AckkY9rjsRNdMVx9mFzzI","gmaps_v2","shoe_store","1687847039"
"ChIJz5HmJbMXrjsR5nI5rXeO8Tc","Putta Papanna Shop","13.02812671661377","77.57304382324219","0x3bae17b325e691cf:0x37f18e77ad3972e6","0","https://www.google.com/maps/place/?q=place_id:ChIJz5HmJbMXrjsR5nI5rXeO8Tc","gmaps_v2","shoe_store","1687847039"
"ChIJ_Y4Q3Zw9rjsRm0YLx0hdvUg","Fashion footwear","13.00728702545166","77.53256225585938","0x3bae3d9cdd108efd:0x48bd5d48c70b469b","0","https://www.google.com/maps/place/?q=place_id:ChIJ_Y4Q3Zw9rjsRm0YLx0hdvUg","gmaps_v2","shoe_store","1687847039"
"ChIJK3-LVKk9rjsRAEmt69SNluc","Max Cycle","13.001089096069336","77.55274200439453","0x3bae3da9548b7f2b:0xe7968dd4ebad4900","5","https://www.google.com/maps/place/?q=place_id:ChIJK3-LVKk9rjsRAEmt69SNluc","gmaps_v2","shoe_store","1687847039"
"ChIJyW79Tuc9rjsRtpsD07XdQMc","FOOT WEAR SHOP","12.997448921203613","77.52301788330078","0x3bae3de74efd6ec9:0xc740ddb5d3039bb6","0","https://www.google.com/maps/place/?q=place_id:ChIJyW79Tuc9rjsRtpsD07XdQMc","gmaps_v2","shoe_store","1687847039"
"ChIJCxCleCcWrjsRRXoq8iyVH50","V S Footwears","12.996683120727539","77.5623550415039","0x3bae162778a5100b:0x9d1f952cf22a7a45","1","https://www.google.com/maps/place/?q=place_id:ChIJCxCleCcWrjsRRXoq8iyVH50","gmaps_v2","shoe_store","1687847039"
"ChIJ05AoCFg9rjsRkJKv29k8KbY","S V Enterprise","12.975616455078125","77.56069946289062","0x3bae3d58082890d3:0xb6293cd9dbaf9290","0","https://www.google.com/maps/place/?q=place_id:ChIJ05AoCFg9rjsRkJKv29k8KbY","gmaps_v2","shoe_store","1687847039"
"ChIJiaX_-CQXrjsRksQ1XkVTT7E","Ningappa Store","12.989019393920898","77.57148742675781","0x3bae1724f8ffa589:0xb14f53455e35c492","0","https://www.google.com/maps/place/?q=place_id:ChIJiaX_-CQXrjsRksQ1XkVTT7E","gmaps_v2","shoe_store","1687847039"
"ChIJhW79kd09rjsR3UdgZnB6yyQ","Mahira Footwear","12.971907615661621","77.53829193115234","0x3bae3ddd91fd6e85:0x24cb7a70666047dd","0","https://www.google.com/maps/place/?q=place_id:ChIJhW79kd09rjsR3UdgZnB6yyQ","gmaps_v2","shoe_store","1687847039"
"ChIJv5HKqR8WrjsRqVa6zhLP0jY","Metro Sports Wear","12.987144470214844","77.56798553466797","0x3bae161fa9ca91bf:0x36d2cf12ceba56a9","9","https://www.google.com/maps/place/?q=place_id:ChIJv5HKqR8WrjsRqVa6zhLP0jY","gmaps_v2","shoe_store","1687847039"
"ChIJRS4IVz0WrjsRWZrhpsylek4","Palika Footwear","12.992088317871094","77.57298278808594","0x3bae163d57082e45:0x4e7aa5cca6e19a59","3","https://www.google.com/maps/place/?q=place_id:ChIJRS4IVz0WrjsRWZrhpsylek4","gmaps_v2","shoe_store","1687847039"
"ChIJIXRXf-k9rjsRaQZxGfaQSNs","MANOHARAN Shop","12.989875793457031","77.5583267211914","0x3bae3de97f577421:0xdb4890f619710669","0","https://www.google.com/maps/place/?q=place_id:ChIJIXRXf-k9rjsRaQZxGfaQSNs","gmaps_v2","shoe_store","1687847039"
"ChIJm2YMcOc9rjsRzLKjVHzOpbs","limra foot wear","12.972411155700684","77.53976440429688","0x3bae3de7700c669b:0xbba5ce7c54a3b2cc","0","https://www.google.com/maps/place/?q=place_id:ChIJm2YMcOc9rjsRzLKjVHzOpbs","gmaps_v2","shoe_store","1687847039"
"ChIJ2QpNhfo9rjsRRjfc5A1CwBQ","Sri Vinayaka Bag Works","12.976713180541992","77.5525894165039","0x3bae3dfa854d0ad9:0x14c0420de4dc3746","2","https://www.google.com/maps/place/?q=place_id:ChIJ2QpNhfo9rjsRRjfc5A1CwBQ","gmaps_v2","shoe_store","1687847039"
"ChIJnb4-7ao9rjsReKIJXyNq2Eg","Orthoryte - Mcr orthopedic & Diabetes Footwear","12.971244812011719","77.54793548583984","0x3bae3daaed3ebe9d:0x48d86a235f09a278","0","https://www.google.com/maps/place/?q=place_id:ChIJnb4-7ao9rjsReKIJXyNq2Eg","gmaps_v2","shoe_store","1687847039"
"ChIJAezlXWI9rjsRMQYC651kpKY","H.K.G.N Auto Consultant","13.025276184082031","77.5604476928711","0x3bae3d625de5ec01:0xa6a4649deb020631","1","https://www.google.com/maps/place/?q=place_id:ChIJAezlXWI9rjsRMQYC651kpKY","gmaps_v2","shoe_store","1687847039"
"ChIJt5cazeg9rjsRoq6h8N1t46E","Bismilla Cycle Mart","12.978178977966309","77.54463958740234","0x3bae3de8cd1a97b7:0xa1e36dddf0a1aea2","2","https://www.google.com/maps/place/?q=place_id:ChIJt5cazeg9rjsRoq6h8N1t46E","gmaps_v2","shoe_store","1687847039"
"ChIJsVADhQA9rjsRLV28Gz-rSyU","flipgart","12.994174003601074","77.54341125488281","0x3bae3d00850350b1:0x254bab3f1bbc5d2d","0","https://www.google.com/maps/place/?q=place_id:ChIJsVADhQA9rjsRLV28Gz-rSyU","gmaps_v2","shoe_store","1687847039"
"ChIJ_zjzhnw9rjsRbOs1i7Djw6I","TRINITY SPORTS","12.984663963317871","77.55956268310547","0x3bae3d7c86f338ff:0xa2c3e3b08b35eb6c","0","https://www.google.com/maps/place/?q=place_id:ChIJ_zjzhnw9rjsRbOs1i7Djw6I","gmaps_v2","shoe_store","1687847039"
"ChIJ__7R3bo9rjsRP2xBzh14Eu8","Karnataka Foot Wear","12.996706008911133","77.5300521850586","0x3bae3dbaddd1feff:0xef12781dce416c3f","0","https://www.google.com/maps/place/?q=place_id:ChIJ__7R3bo9rjsRP2xBzh14Eu8","gmaps_v2","shoe_store","1687847039"
"ChIJbQ2t-i0WrjsRZgEM4OQxTzM","Flairmart Online Services Private Limited","13.006428718566895","77.57269287109375","0x3bae162dfaad0d6d:0x334f31e4e00c0166","0","https://www.google.com/maps/place/?q=place_id:ChIJbQ2t-i0WrjsRZgEM4OQxTzM","gmaps_v2","shoe_store","1687847039"
"ChIJ8W1-6ycWrjsRb7d7at6sPKk","Prashanth Enterprises","13.034196853637695","77.52403259277344","0x3bae1627eb7e6df1:0xa93cacde6a7bb76f","2","https://www.google.com/maps/place/?q=place_id:ChIJ8W1-6ycWrjsRb7d7at6sPKk","gmaps_v2","shoe_store","1687847039"
"ChIJ70LvICAWrjsROF5e0STRKtY","Anand Footwear","12.988443374633789","77.56361389160156","0x3bae162020ef42ef:0xd62ad124d15e5e38","2","https://www.google.com/maps/place/?q=place_id:ChIJ70LvICAWrjsROF5e0STRKtY","gmaps_v2","shoe_store","1687847039"
"ChIJHTm-bSUWrjsRS9qWOKDocdw","Shree Sai Vinayaka","12.998814582824707","77.5715103149414","0x3bae16256dbe391d:0xdc71e8a03896da4b","0","https://www.google.com/maps/place/?q=place_id:ChIJHTm-bSUWrjsRS9qWOKDocdw","gmaps_v2","shoe_store","1687847039"
"ChIJyZsvh5M9rjsRoqu-Puqm1AM","C.K fashion","12.990616798400879","77.54489135742188","0x3bae3d93872f9bc9:0x3d4a6ea3ebeaba2","3","https://www.google.com/maps/place/?q=place_id:ChIJyZsvh5M9rjsRoqu-Puqm1AM","gmaps_v2","shoe_store","1687847039"
"ChIJ_QKLBKA9rjsR6vvsRu6t6Go","New Family Footwear","13.009156227111816","77.53857421875","0x3bae3da0048b02fd:0x6ae8adee46ecfbea","6","https://www.google.com/maps/place/?q=place_id:ChIJ_QKLBKA9rjsR6vvsRu6t6Go","gmaps_v2","shoe_store","1687847039"
"ChIJZ3LeLlE9rjsR8lPMK1-PXYE","Gajanan Cycles","13.024614334106445","77.55787658691406","0x3bae3d512ede7267:0x815d8f5f2bcc53f2","21","https://www.google.com/maps/place/?q=place_id:ChIJZ3LeLlE9rjsR8lPMK1-PXYE","gmaps_v2","shoe_store","1687847039"
"ChIJacoIwOQ9rjsRwyyNd1XlQto","National Footwear","12.971736907958984","77.54955291748047","0x3bae3de4c008ca69:0xda42e555778d2cc3","0","https://www.google.com/maps/place/?q=place_id:ChIJacoIwOQ9rjsRwyyNd1XlQto","gmaps_v2","shoe_store","1687847039"
"ChIJ__BpoaI9rjsRDSw0kDJUqWA","M K Bike Point","12.97750473022461","77.54210662841797","0x3bae3da2a169f0ff:0x60a9543290342c0d","0","https://www.google.com/maps/place/?q=place_id:ChIJ__BpoaI9rjsRDSw0kDJUqWA","gmaps_v2","shoe_store","1687847039"
"ChIJT_3QIZc9rjsRRk3Jq6rD0NA","Nandish.(Nandi sports wear)","13.005120277404785","77.52740478515625","0x3bae3d9721d0fd4f:0xd0d0c3aaabc94d46","0","https://www.google.com/maps/place/?q=place_id:ChIJT_3QIZc9rjsRRk3Jq6rD0NA","gmaps_v2","shoe_store","1687847039"
"ChIJdfGCi5A9rjsR7TssGT249_o","Choice Footwear","12.997587203979492","77.54728698730469","0x3bae3d908b82f175:0xfaf7b83d192c3bed","4","https://www.google.com/maps/place/?q=place_id:ChIJdfGCi5A9rjsR7TssGT249_o","gmaps_v2","shoe_store","1687847039"
"ChIJ0_8PdGM9rjsRD2wqhY9Ygqo","Usha Kids Shoppe","13.024563789367676","77.55742645263672","0x3bae3d63740fffd3:0xaa82588f852a6c0f","145","https://www.google.com/maps/place/?q=place_id:ChIJ0_8PdGM9rjsRD2wqhY9Ygqo","gmaps_v2","shoe_store","1687847039"
"ChIJ43B_4PEXrjsR0124N946j08","Akshay Gowda P G Shop","13.028048515319824","77.57282257080078","0x3bae17f1e07f70e3:0x4f8f3ade37b85dd3","0","https://www.google.com/maps/place/?q=place_id:ChIJ43B_4PEXrjsR0124N946j08","gmaps_v2","shoe_store","1687847039"
"ChIJf5UqfqM9rjsRu6c0yYyQIwg","Parvathi Cycle Mart","13.000808715820312","77.53330993652344","0x3bae3da37e2a957f:0x823908cc934a7bb","0","https://www.google.com/maps/place/?q=place_id:ChIJf5UqfqM9rjsRu6c0yYyQIwg","gmaps_v2","shoe_store","1687847039"
"ChIJR4OcDN4XrjsRpO7FHyEAQCE","Godkong","13.032403945922852","77.56731414794922","0x3bae17de0c9c8347:0x214000211fc5eea4","0","https://www.google.com/maps/place/?q=place_id:ChIJR4OcDN4XrjsRpO7FHyEAQCE","gmaps_v2","shoe_store","1687847039"
"ChIJr4Omilc9rjsRnjxEVsTKnQg","Kaveri Footwear","12.973958015441895","77.54457092285156","0x3bae3d578aa683af:0x89dcac456443c9e","0","https://www.google.com/maps/place/?q=place_id:ChIJr4Omilc9rjsRnjxEVsTKnQg","gmaps_v2","shoe_store","1687847039"
"ChIJUZ5cbGs9rjsR2BgO2z6y-Kw","In Leather","13.02792739868164","77.54095458984375","0x3bae3d6b6c5c9e51:0xacf8b23edb0e18d8","29","https://www.google.com/maps/place/?q=place_id:ChIJUZ5cbGs9rjsR2BgO2z6y-Kw","gmaps_v2","shoe_store","1687847039"
"ChIJswlIcWM9rjsR9O4rGmUV8OE","Mansha Foot Corner","13.024341583251953","77.55717468261719","0x3bae3d63714809b3:0xe1f015651a2beef4","0","https://www.google.com/maps/place/?q=place_id:ChIJswlIcWM9rjsR9O4rGmUV8OE","gmaps_v2","shoe_store","1687847039"
"ChIJsQ5ZqhE9rjsRYxVmBfwROj8","Mujamil","13.024154663085938","77.55048370361328","0x3bae3d11aa590eb1:0x3f3a11fc05661563","0","https://www.google.com/maps/place/?q=place_id:ChIJsQ5ZqhE9rjsRYxVmBfwROj8","gmaps_v2","shoe_store","1687847039"
"ChIJC2sMT5s9rjsRgXapry4BPdQ","F Line","13.003683090209961","77.54986572265625","0x3bae3d9b4f0c6b0b:0xd43d012eafa97681","2","https://www.google.com/maps/place/?q=place_id:ChIJC2sMT5s9rjsRgXapry4BPdQ","gmaps_v2","shoe_store","1687847039"
"ChIJc7mzKkY9rjsRoHgSykWPFMQ","Excellent Bags and Footwear","12.996641159057617","77.53732299804688","0x3bae3d462ab3b973:0xc4148f45ca1278a0","0","https://www.google.com/maps/place/?q=place_id:ChIJc7mzKkY9rjsRoHgSykWPFMQ","gmaps_v2","shoe_store","1687847039"
"ChIJSaQMKTE9rjsRMqnbcHoZ8_w","H T M BIKE SERVICE","12.972412109375","77.55034637451172","0x3bae3d31290ca449:0xfcf3197a70dba932","0","https://www.google.com/maps/place/?q=place_id:ChIJSaQMKTE9rjsRMqnbcHoZ8_w","gmaps_v2","shoe_store","1687847039"
"ChIJJbpXZaQ9rjsR1w77VB5fSXA","New Look Foot Wear Nadeer M A","13.029061317443848","77.56180572509766","0x3bae3da46557ba25:0x70495f1e54fb0ed7","0","https://www.google.com/maps/place/?q=place_id:ChIJJbpXZaQ9rjsR1w77VB5fSXA","gmaps_v2","shoe_store","1687847039"
"ChIJk5JXWQk9rjsRSlBpRj1LHao","Sri Mahalaxmi Footwear","13.014128684997559","77.53298950195312","0x3bae3d0959579293:0xaa1d4b3d4669504a","1","https://www.google.com/maps/place/?q=place_id:ChIJk5JXWQk9rjsRSlBpRj1LHao","gmaps_v2","shoe_store","1687847039"
"ChIJ17jbAZE9rjsR2cdxXVuPuEE","siddesh shop","13.024025917053223","77.54887390136719","0x3bae3d9101dbb8d7:0x41b88f5b5d71c7d9","0","https://www.google.com/maps/place/?q=place_id:ChIJ17jbAZE9rjsR2cdxXVuPuEE","gmaps_v2","shoe_store","1687847039"
"ChIJJx0RF_M9rjsR0ww-hZISjZ4","My Shoe's","12.986149787902832","77.55416870117188","0x3bae3df317111d27:0x9e8d1292853e0cd3","0","https://www.google.com/maps/place/?q=place_id:ChIJJx0RF_M9rjsR0ww-hZISjZ4","gmaps_v2","shoe_store","1687847039"
"ChIJqWt_TuY9rjsRDezJxyySBnk","Karnataka State Coir Co-operative Federation Ltd.","12.974011421203613","77.54224395751953","0x3bae3de64e7f6ba9:0x7906922cc7c9ec0d","1","https://www.google.com/maps/place/?q=place_id:ChIJqWt_TuY9rjsRDezJxyySBnk","gmaps_v2","shoe_store","1687847039"
"ChIJU1iF4IQ9rjsRFleFFvOYtbk","Subash Footwear","13.00208568572998","77.55195617675781","0x3bae3d84e0855853:0xb9b598f316855716","0","https://www.google.com/maps/place/?q=place_id:ChIJU1iF4IQ9rjsRFleFFvOYtbk","gmaps_v2","shoe_store","1687847039"
"ChIJ1V4yzF89rjsRlbFmi1bOwkc","Fancy foot wear","13.034257888793945","77.5580062866211","0x3bae3d5fcc325ed5:0x47c2ce568b66b195","2","https://www.google.com/maps/place/?q=place_id:ChIJ1V4yzF89rjsRlbFmi1bOwkc","gmaps_v2","shoe_store","1687847039"
"ChIJWQQxrGE9rjsRSCrOtvOWtfM","Trumpler","13.030202865600586","77.55957794189453","0x3bae3d61ac310459:0xf3b596f3b6ce2a48","0","https://www.google.com/maps/place/?q=place_id:ChIJWQQxrGE9rjsRSCrOtvOWtfM","gmaps_v2","shoe_store","1687847039"
"ChIJMbJ40GM9rjsR3c8VFXTKlv8","Rajalakshmi Marketing","13.027060508728027","77.55836486816406","0x3bae3d63d078b231:0xff96ca741515cfdd","1","https://www.google.com/maps/place/?q=place_id:ChIJMbJ40GM9rjsR3c8VFXTKlv8","gmaps_v2","shoe_store","1687847039"
"ChIJ1VtB9T09rjsRU60cHaLd9dM","Vy sports wear","12.981985092163086","77.53362274169922","0x3bae3d3df5415bd5:0xd3f5dda21d1cad53","0","https://www.google.com/maps/place/?q=place_id:ChIJ1VtB9T09rjsRU60cHaLd9dM","gmaps_v2","shoe_store","1687847039"
"ChIJZccKoWM9rjsRqsYN42gDMng","Steps muliti branded shoe shop (discount sale)","12.988504409790039","77.53459930419922","0x3bae3d63a10ac765:0x78320368e30dc6aa","1","https://www.google.com/maps/place/?q=place_id:ChIJZccKoWM9rjsRqsYN42gDMng","gmaps_v2","shoe_store","1687847039"
"ChIJRShy6mE9rjsR6kN5sNwLN4M","Riya Enterprises","13.02900218963623","77.560791015625","0x3bae3d61ea722845:0x83370bdcb07943ea","3","https://www.google.com/maps/place/?q=place_id:ChIJRShy6mE9rjsR6kN5sNwLN4M","gmaps_v2","shoe_store","1687847039"
"ChIJV0vVXWQ9rjsRpjPC5dDT_EI","Shayid Foot Ware","13.02509880065918","77.55448913574219","0x3bae3d645dd54b57:0x42fcd3d0e5c233a6","0","https://www.google.com/maps/place/?q=place_id:ChIJV0vVXWQ9rjsRpjPC5dDT_EI","gmaps_v2","shoe_store","1687847039"
"ChIJ3Uw1pgA9rjsRFVhp6z2oQSE","Saleha Firdos Shop","12.988114356994629","77.556640625","0x3bae3d00a6354cdd:0x2141a83deb695815","1","https://www.google.com/maps/place/?q=place_id:ChIJ3Uw1pgA9rjsRFVhp6z2oQSE","gmaps_v2","shoe_store","1687847039"
"ChIJQcNTk1AXrjsRbsVBgS01Qo0","Miss Sunshine","12.98783016204834","77.57740783691406","0x3bae17509353c341:0x8d42352d8141c56e","4","https://www.google.com/maps/place/?q=place_id:ChIJQcNTk1AXrjsRbsVBgS01Qo0","gmaps_v2","jewelry_store","1687847039"
"ChIJaZsb4WE9rjsRc4_04fdvKsY","Shanu Gallery","13.028986930847168","77.56170654296875","0x3bae3d61e11b9b69:0xc62a6ff7e1f48f73","0","https://www.google.com/maps/place/?q=place_id:ChIJaZsb4WE9rjsRc4_04fdvKsY","gmaps_v2","jewelry_store","1687847039"
"ChIJ2QdsDPg9rjsRBi0QXr935iI","Joshi Jewellers","12.975777626037598","77.56153106689453","0x3bae3df80c6c07d9:0x22e677bf5e102d06","18","https://www.google.com/maps/place/?q=place_id:ChIJ2QdsDPg9rjsRBi0QXr935iI","gmaps_v2","jewelry_store","1687847039"
"ChIJ64n688wXrjsRv3YRG4vg27E","Dyutihi Clay Co","13.000558853149414","77.56661224365234","0x3bae17ccf3fa89eb:0xb1dbe08b1b1176bf","0","https://www.google.com/maps/place/?q=place_id:ChIJ64n688wXrjsRv3YRG4vg27E","gmaps_v2","jewelry_store","1687847039"
"ChIJ8-x_P549rjsRPsMEEDc-mtA","Durga Fancy Store","13.008500099182129","77.54318237304688","0x3bae3d9e3f7fecf3:0xd09a3e371004c33e","4","https://www.google.com/maps/place/?q=place_id:ChIJ8-x_P549rjsRPsMEEDc-mtA","gmaps_v2","jewelry_store","1687847039"
"ChIJ99FoeTo9rjsRRMlf-1Hqb64","Rooparam Jewellers","13.029743194580078","77.55931854248047","0x3bae3d3a7968d1f7:0xae6fea51fb5fc944","1","https://www.google.com/maps/place/?q=place_id:ChIJ99FoeTo9rjsRRMlf-1Hqb64","gmaps_v2","jewelry_store","1687847039"
"ChIJxQTN6iYWrjsRWH6dXzMF7Tg","Sri Raghavendra Diamonds And Jewellers","12.995637893676758","77.56625366210938","0x3bae1626eacd04c5:0x38ed05335f9d7e58","29","https://www.google.com/maps/place/?q=place_id:ChIJxQTN6iYWrjsRWH6dXzMF7Tg","gmaps_v2","jewelry_store","1687847039"
"ChIJfZgWXbg9rjsR_r9pSGxmE7o","SOHI","13.029583930969238","77.53206634521484","0x3bae3db85d16987d:0xba13666c4869bffe","3","https://www.google.com/maps/place/?q=place_id:ChIJfZgWXbg9rjsR_r9pSGxmE7o","gmaps_v2","jewelry_store","1687847039"
"ChIJSQpmYyUWrjsR3Xjrv6ynFlc","Sai Navaratna Jewellers & Gems","12.99966812133789","77.57144165039062","0x3bae162563660a49:0x5716a7acbfeb78dd","1","https://www.google.com/maps/place/?q=place_id:ChIJSQpmYyUWrjsR3Xjrv6ynFlc","gmaps_v2","jewelry_store","1687847039"
"ChIJ99EqdpM9rjsRs4-MMkl2AA0","Lalith Bankers","12.988958358764648","77.54644012451172","0x3bae3d93762ad1f7:0xd007649328c8fb3","0","https://www.google.com/maps/place/?q=place_id:ChIJ99EqdpM9rjsRs4-MMkl2AA0","gmaps_v2","jewelry_store","1687847039"
"ChIJmSqYSzAWrjsRy0bu8LgkOYs","Sri Mahaganapathi Jewellery Works","13.002766609191895","77.57511901855469","0x3bae16304b982a99:0x8b3924b8f0ee46cb","2","https://www.google.com/maps/place/?q=place_id:ChIJmSqYSzAWrjsRy0bu8LgkOYs","gmaps_v2","jewelry_store","1687847039"
"ChIJr-uTAqA9rjsRfmDLJlKiPAY","Firdouse Jewellery Works","13.009123802185059","77.5389404296875","0x3bae3da00293ebaf:0x63ca25226cb607e","0","https://www.google.com/maps/place/?q=place_id:ChIJr-uTAqA9rjsRfmDLJlKiPAY","gmaps_v2","jewelry_store","1687847039"
"ChIJES3QHLk9rjsROfjcDLawyAY","Sri Banashankari Jewellery Works","12.989777565002441","77.53116607666016","0x3bae3db91cd02d11:0x6c8b0b60cdcf839","0","https://www.google.com/maps/place/?q=place_id:ChIJES3QHLk9rjsROfjcDLawyAY","gmaps_v2","jewelry_store","1687847039"
"ChIJRc3vlA09rjsRNVg8V832YkU","Sumer Jewellers","13.019918441772461","77.53487396240234","0x3bae3d0d94efcd45:0x4562f6cd573c5835","4","https://www.google.com/maps/place/?q=place_id:ChIJRc3vlA09rjsRNVg8V832YkU","gmaps_v2","jewelry_store","1687847039"
"ChIJP7kFQCYWrjsRbxxiMz_Qamk","ASHOK GOLD PALACE","12.990642547607422","77.56681060791016","0x3bae16264005b93f:0x696ad03f33621c6f","4","https://www.google.com/maps/place/?q=place_id:ChIJP7kFQCYWrjsRbxxiMz_Qamk","gmaps_v2","jewelry_store","1687847039"
"ChIJr4shdiEWrjsRTFvCPVA_A5E","Susheela Bankers","12.991297721862793","77.5666732788086","0x3bae162176218baf:0x91033f503dc25b4c","0","https://www.google.com/maps/place/?q=place_id:ChIJr4shdiEWrjsRTFvCPVA_A5E","gmaps_v2","jewelry_store","1687847039"
"ChIJUWYB9TkWrjsRrPwvU7lDSDE","Suman Jewellers","12.999150276184082","77.57929992675781","0x3bae1639f5016651:0x314843b9532ffcac","1","https://www.google.com/maps/place/?q=place_id:ChIJUWYB9TkWrjsRrPwvU7lDSDE","gmaps_v2","jewelry_store","1687847039"
"ChIJw4o6iAY9rjsRn7RdviumOwo","SS Creations","12.975664138793945","77.55380249023438","0x3bae3d06883a8ac3:0xa3ba62bbe5db49f","0","https://www.google.com/maps/place/?q=place_id:ChIJw4o6iAY9rjsRn7RdviumOwo","gmaps_v2","jewelry_store","1687847039"
"ChIJ-xZ42ZI9rjsRrzdOgoRu4I4","Mataji Collections","12.988432884216309","77.54792785644531","0x3bae3d92d97816fb:0x8ee06e84824e37af","0","https://www.google.com/maps/place/?q=place_id:ChIJ-xZ42ZI9rjsRrzdOgoRu4I4","gmaps_v2","jewelry_store","1687847039"
"ChIJS_M072EXrjsRt9SvHSSdTPM","ARMADIO - A Multi Designer Store @Sadashivanagar, Bangalore","13.005785942077637","77.58032989501953","0x3bae1761ef34f34b:0xf34c9d241dafd4b7","91","https://www.google.com/maps/place/?q=place_id:ChIJS_M072EXrjsRt9SvHSSdTPM","gmaps_v2","jewelry_store","1687847039"
"ChIJc30gHScWrjsR10UBQntH0Pg","Sri Rajeshwari Costumes","12.996377944946289","77.56484985351562","0x3bae16271d207d73:0xf8d0477b420145d7","225","https://www.google.com/maps/place/?q=place_id:ChIJc30gHScWrjsR10UBQntH0Pg","gmaps_v2","jewelry_store","1687847039"
"ChIJVTv-Wps9rjsR6Lhx1VIPw_s","Roopali Bangle Stores","13.004072189331055","77.54962921142578","0x3bae3d9b5afe3b55:0xfbc30f52d571b8e8","7","https://www.google.com/maps/place/?q=place_id:ChIJVTv-Wps9rjsR6Lhx1VIPw_s","gmaps_v2","jewelry_store","1687847039"
"ChIJBz40y6M9rjsR3zZ7Jcz4o2Y","Pooja Fancy Stores","13.002745628356934","77.53621673583984","0x3bae3da3cb343e07:0x66a3f8cc257b36df","2","https://www.google.com/maps/place/?q=place_id:ChIJBz40y6M9rjsR3zZ7Jcz4o2Y","gmaps_v2","jewelry_store","1687847039"
"ChIJna8oYZE9rjsRCIaW3mD0a1I","Rajatha jewel Palace","12.99343204498291","77.54637908935547","0x3bae3d916128af9d:0x526bf460de968608","0","https://www.google.com/maps/place/?q=place_id:ChIJna8oYZE9rjsRCIaW3mD0a1I","gmaps_v2","jewelry_store","1687847039"
"ChIJPwOpc84XrjsRenVyi12IRGk","Balki flowers","13.014126777648926","77.56519317626953","0x3bae17ce73a9033f:0x6944885d8b72757a","0","https://www.google.com/maps/place/?q=place_id:ChIJPwOpc84XrjsRenVyi12IRGk","gmaps_v2","jewelry_store","1687847039"
"ChIJ1wXqwS4WrjsRULOWgW6AVg0","Ashis Couture Gallerie","13.003840446472168","77.56903839111328","0x3bae162ec1ea05d7:0xd56806e8196b350","0","https://www.google.com/maps/place/?q=place_id:ChIJ1wXqwS4WrjsRULOWgW6AVg0","gmaps_v2","jewelry_store","1687847039"
"ChIJ40xHc2M9rjsRu-X4yuDXylI","Jaya Fashion Corner","13.026041030883789","77.55780792236328","0x3bae3d6373474ce3:0x52cad7e0caf8e5bb","0","https://www.google.com/maps/place/?q=place_id:ChIJ40xHc2M9rjsRu-X4yuDXylI","gmaps_v2","jewelry_store","1687847039"
"ChIJAyi6RjwWrjsRrFclD9X8f1E","Mumame Exim Private Limited","12.992801666259766","77.5774154663086","0x3bae163c46ba2803:0x517ffcd50f2557ac","0","https://www.google.com/maps/place/?q=place_id:ChIJAyi6RjwWrjsRrFclD9X8f1E","gmaps_v2","jewelry_store","1687847039"
"ChIJTaeIKps9rjsR-uCU86TOYoQ","Sri Akshaya Gems & Jewels","13.001871109008789","77.55040740966797","0x3bae3d9b2a88a74d:0x8462cea4f394e0fa","0","https://www.google.com/maps/place/?q=place_id:ChIJTaeIKps9rjsR-uCU86TOYoQ","gmaps_v2","jewelry_store","1687847039"
"ChIJz9Qbd2E9rjsRcrjOA42ckDA","The Best Jewellery","13.028510093688965","77.55877685546875","0x3bae3d61771bd4cf:0x30909c8d03ceb872","55","https://www.google.com/maps/place/?q=place_id:ChIJz9Qbd2E9rjsRcrjOA42ckDA","gmaps_v2","jewelry_store","1687847039"
"ChIJJwWjLIE9rjsRAAAA0Lo430U","SRI SAI JEWELLERY WORKS","13.005094528198242","77.55868530273438","0x3bae3d812ca30527:0x45df38bad0000000","0","https://www.google.com/maps/place/?q=place_id:ChIJJwWjLIE9rjsRAAAA0Lo430U","gmaps_v2","jewelry_store","1687847039"
"ChIJP36Yk0w9rjsRMhJjgnm65Nw","BlueMoon Dreams","12.972850799560547","77.55530548095703","0x3bae3d4c93987e3f:0xdce4ba7982631232","0","https://www.google.com/maps/place/?q=place_id:ChIJP36Yk0w9rjsRMhJjgnm65Nw","gmaps_v2","jewelry_store","1687847039"
"ChIJsTf7wQ89rjsRwjky4tskKuY","Geethashri Ladies Fancy Stitch Wear","13.019436836242676","77.52900695800781","0x3bae3d0fc1fb37b1:0xe62a24dbe23239c2","1","https://www.google.com/maps/place/?q=place_id:ChIJsTf7wQ89rjsRwjky4tskKuY","gmaps_v2","jewelry_store","1687847039"
"ChIJXQAA7Ls9rjsRwao7LprB_XA","mayur novelties","12.993548393249512","77.53221893310547","0x3bae3dbbec00005d:0x70fdc19a2e3baac1","0","https://www.google.com/maps/place/?q=place_id:ChIJXQAA7Ls9rjsRwao7LprB_XA","gmaps_v2","jewelry_store","1687847039"
"ChIJu6KdV0k9rjsRmK0tkHbrVEI","Asthax","12.982051849365234","77.53360748291016","0x3bae3d49579da2bb:0x4254eb76902dad98","8","https://www.google.com/maps/place/?q=place_id:ChIJu6KdV0k9rjsRmK0tkHbrVEI","gmaps_v2","jewelry_store","1687847039"
"ChIJ5ZDBjZc9rjsR-CF3pvTuuAs","Bhavya Creations","12.993436813354492","77.5467758178711","0x3bae3d978dc190e5:0xbb8eef4a67721f8","0","https://www.google.com/maps/place/?q=place_id:ChIJ5ZDBjZc9rjsR-CF3pvTuuAs","gmaps_v2","jewelry_store","1687847039"
"ChIJ2ZtJoKA9rjsRr6nmaN-Gty4","Shri Shanti Bankers And Jewellers","13.009509086608887","77.534423828125","0x3bae3da0a0499bd9:0x2eb786df68e6a9af","4","https://www.google.com/maps/place/?q=place_id:ChIJ2ZtJoKA9rjsRr6nmaN-Gty4","gmaps_v2","jewelry_store","1687847039"
"ChIJwbgFYPE9rjsRHsLpK4opZvo","Sapna Jewelers","12.98155403137207","77.55549621582031","0x3bae3df16005b8c1:0xfa66298a2be9c21e","0","https://www.google.com/maps/place/?q=place_id:ChIJwbgFYPE9rjsRHsLpK4opZvo","gmaps_v2","jewelry_store","1687847039"
"ChIJg1MRUag9rjsRHprTFwF77FU","Jagadamba Jewellers And Bankers","13.006692886352539","77.52515411376953","0x3bae3da851115383:0x55ec7b0117d39a1e","0","https://www.google.com/maps/place/?q=place_id:ChIJg1MRUag9rjsRHprTFwF77FU","gmaps_v2","jewelry_store","1687847039"
"ChIJNehHroQ9rjsRue58ct6HU8M","Sri Guruprasad Jewellers","13.00402545928955","77.55099487304688","0x3bae3d84ae47e835:0xc35387de727ceeb9","3","https://www.google.com/maps/place/?q=place_id:ChIJNehHroQ9rjsRue58ct6HU8M","gmaps_v2","jewelry_store","1687847039"
"ChIJuS054109rjsRgNiszc81cZE","New Modern Fancy Store","13.03577709197998","77.55493927001953","0x3bae3d5de3392db9:0x917135cfcdacd880","2","https://www.google.com/maps/place/?q=place_id:ChIJuS054109rjsRgNiszc81cZE","gmaps_v2","jewelry_store","1687847039"
"ChIJYbqySu49rjsRYTFfKhTAiKg","Akshaya Gold Company","12.99866771697998","77.54082489013672","0x3bae3dee4ab2ba61:0xa888c0142a5f3161","319","https://www.google.com/maps/place/?q=place_id:ChIJYbqySu49rjsRYTFfKhTAiKg","gmaps_v2","jewelry_store","1687847039"
"ChIJjy86zIs9rjsRcjjXIFfn3g8","Manju Jewellers","12.992785453796387","77.55878448486328","0x3bae3d8bcc3a2f8f:0xfdee75720d73872","3","https://www.google.com/maps/place/?q=place_id:ChIJjy86zIs9rjsRcjjXIFfn3g8","gmaps_v2","jewelry_store","1687847039"
"ChIJKxwGVp0XrjsRoFezOpOnd3k","Hare Krishna jewels","13.001643180847168","77.58071899414062","0x3bae179d56061c2b:0x7977a7933ab357a0","2","https://www.google.com/maps/place/?q=place_id:ChIJKxwGVp0XrjsRoFezOpOnd3k","gmaps_v2","jewelry_store","1687847039"
"ChIJYz32ky8WrjsRPLtEFPZHe-Q","Guru Jewellers","13.001058578491211","77.57144165039062","0x3bae162f93f63d63:0xe47b47f61444bb3c","3","https://www.google.com/maps/place/?q=place_id:ChIJYz32ky8WrjsRPLtEFPZHe-Q","gmaps_v2","jewelry_store","1687847039"
"ChIJtzj0S2A9rjsR10to5_0BX48","Sangam Flowers And Decorators","13.030587196350098","77.56027221679688","0x3bae3d604bf438b7:0x8f5f01fde7684bd7","18","https://www.google.com/maps/place/?q=place_id:ChIJtzj0S2A9rjsR10to5_0BX48","gmaps_v2","jewelry_store","1687847039"
"ChIJm8iVH_Q9rjsRnQZqQiLUKzI","Mahaveer Jewellers","12.9825439453125","77.55755615234375","0x3bae3df41f95c89b:0x322bd422426a069d","0","https://www.google.com/maps/place/?q=place_id:ChIJm8iVH_Q9rjsRnQZqQiLUKzI","gmaps_v2","jewelry_store","1687847039"
"ChIJjQj01CMWrjsRfVAfJYk5xW4","Ashok Jewellers","12.99061393737793","77.56655883789062","0x3bae1623d4f4088d:0x6ec53989251f507d","0","https://www.google.com/maps/place/?q=place_id:ChIJjQj01CMWrjsRfVAfJYk5xW4","gmaps_v2","jewelry_store","1687847039"
"ChIJk_L0cJ49rjsR0oTdJt3arTI","Sri Manjunatha Jewellery Works","13.00794792175293","77.54422760009766","0x3bae3d9e70f4f293:0x32addadd26dd84d2","0","https://www.google.com/maps/place/?q=place_id:ChIJk_L0cJ49rjsR0oTdJt3arTI","gmaps_v2","jewelry_store","1687847039"
"ChIJAd2x0IY9rjsRoNNtFTX6jbg","Sumatinath Jewellers","13.04286003112793","77.512451171875","0x3bae3d86d0b1dd01:0xb88dfa35156dd3a0","10","https://www.google.com/maps/place/?q=place_id:ChIJAd2x0IY9rjsRoNNtFTX6jbg","gmaps_v2","jewelry_store","1687847039"
"ChIJl-vYgI09rjsRBcllTQTrtMo","Vishal Bankers","12.990857124328613","77.55062866210938","0x3bae3d8d80d8eb97:0xcab4eb044d65c905","0","https://www.google.com/maps/place/?q=place_id:ChIJl-vYgI09rjsRBcllTQTrtMo","gmaps_v2","jewelry_store","1687847039"
"ChIJr6NKpqMXrjsRUDV7lpYFchw","The SPATIKA","12.998401641845703","77.57156372070312","0x3bae17a3a64aa3af:0x1c720596967b3550","5","https://www.google.com/maps/place/?q=place_id:ChIJr6NKpqMXrjsRUDV7lpYFchw","gmaps_v2","jewelry_store","1687847039"
"ChIJL0Rj2Aw9rjsR7kDQAfa1Wx0","K M Jewel House","12.994863510131836","77.56040954589844","0x3bae3d0cd863442f:0x1d5bb5f601d040ee","1","https://www.google.com/maps/place/?q=place_id:ChIJL0Rj2Aw9rjsR7kDQAfa1Wx0","gmaps_v2","jewelry_store","1687847039"
"ChIJUyKByZ89rjsRUgdB_iifJbg","Mahalaxmi Jewellers","13.007786750793457","77.54133605957031","0x3bae3d9fc9812253:0xb8259f28fe410752","3","https://www.google.com/maps/place/?q=place_id:ChIJUyKByZ89rjsRUgdB_iifJbg","gmaps_v2","jewelry_store","1687847039"
"ChIJjc7onuM9rjsROEp1Bs3ygLg","Shalini Diamonds","12.994110107421875","77.5316162109375","0x3bae3de39ee8ce8d:0xb880f2cd06754a38","0","https://www.google.com/maps/place/?q=place_id:ChIJjc7onuM9rjsROEp1Bs3ygLg","gmaps_v2","jewelry_store","1687847039"
"ChIJGxCkODAWrjsRy9h-MGHUkS4","Sri Guru Ragavendra Jewellery Works","13.00197696685791","77.57481384277344","0x3bae163038a4101b:0x2e91d461307ed8cb","2","https://www.google.com/maps/place/?q=place_id:ChIJGxCkODAWrjsRy9h-MGHUkS4","gmaps_v2","jewelry_store","1687847039"
"ChIJX0xFRCcWrjsRsG9E2ClK4II","K M Gold Covering Jewellery","12.994850158691406","77.56288146972656","0x3bae162744454c5f:0x82e04a29d8446fb0","10","https://www.google.com/maps/place/?q=place_id:ChIJX0xFRCcWrjsRsG9E2ClK4II","gmaps_v2","jewelry_store","1687847039"
"ChIJK2RHCm89rjsRrZmlDfmJtV0","Chera","13.024439811706543","77.54877471923828","0x3bae3d6f0a47642b:0x5db589f90da599ad","19","https://www.google.com/maps/place/?q=place_id:ChIJK2RHCm89rjsRrZmlDfmJtV0","gmaps_v2","jewelry_store","1687847039"
"ChIJGSmOvY89rjsRAAAAMBeLVkA","Abdul Waheed","12.997607231140137","77.5523910522461","0x3bae3d8fbd8e2919:0x40568b1730000000","0","https://www.google.com/maps/place/?q=place_id:ChIJGSmOvY89rjsRAAAAMBeLVkA","gmaps_v2","jewelry_store","1687847039"
"ChIJSXmDQsI9rjsR815BgeJ6X-4","Akshaya Jewellery Works & Astrologer","12.979416847229004","77.53755950927734","0x3bae3dc242837949:0xee5f7ae281415ef3","0","https://www.google.com/maps/place/?q=place_id:ChIJSXmDQsI9rjsR815BgeJ6X-4","gmaps_v2","jewelry_store","1687847039"
"ChIJ6bdz1WQ9rjsRvO0Lz1xS7Wo","M M Bankers & Jewellers","13.021845817565918","77.55337524414062","0x3bae3d64d573b7e9:0x6aed525ccf0bedbc","1","https://www.google.com/maps/place/?q=place_id:ChIJ6bdz1WQ9rjsRvO0Lz1xS7Wo","gmaps_v2","jewelry_store","1687847039"
"ChIJTciumA89rjsRYlSYwJTNALc","Sri Venkateshwara Store","13.018379211425781","77.52923583984375","0x3bae3d0f98aec84d:0xb700cd94c0985462","6","https://www.google.com/maps/place/?q=place_id:ChIJTciumA89rjsRYlSYwJTNALc","gmaps_v2","jewelry_store","1687847039"
"ChIJa7xJDpM9rjsRKD7ohMoMM5Y","AMG GOLD COMPANY JALAHALLI CROSS","13.041013717651367","77.51679992675781","0x3bae3d930e49bc6b:0x96330cca84e83e28","33","https://www.google.com/maps/place/?q=place_id:ChIJa7xJDpM9rjsRKD7ohMoMM5Y","gmaps_v2","jewelry_store","1687847039"
"ChIJPdKUE18XrjsRdDOfm8C_Mzo","shagunjewels","13.013784408569336","77.58763885498047","0x3bae175f1394d23d:0x3a33bfc09b9f3374","1","https://www.google.com/maps/place/?q=place_id:ChIJPdKUE18XrjsRdDOfm8C_Mzo","gmaps_v2","jewelry_store","1687847039"
"ChIJxXOxBu49rjsRX9shAy-zb1o","Dhanalakshmi Jewellers","13.017571449279785","77.5343017578125","0x3bae3dee06b173c5:0x5a6fb32f0321db5f","2","https://www.google.com/maps/place/?q=place_id:ChIJxXOxBu49rjsRX9shAy-zb1o","gmaps_v2","jewelry_store","1687847039"
"ChIJdT-3Obw9rjsRCysnV3ISUfQ","Sai Sharada Jewells","12.993783950805664","77.53532409667969","0x3bae3dbc39b73f75:0xf451127257272b0b","1","https://www.google.com/maps/place/?q=place_id:ChIJdT-3Obw9rjsRCysnV3ISUfQ","gmaps_v2","jewelry_store","1687847039"
"ChIJ-xwDI4Y9rjsRFpyGQf_iZs4","Patel Fancy Gift gallery","12.999969482421875","77.557861328125","0x3bae3d8623031cfb:0xce66e2ff41869c16","0","https://www.google.com/maps/place/?q=place_id:ChIJ-xwDI4Y9rjsRFpyGQf_iZs4","gmaps_v2","jewelry_store","1687847039"
"ChIJ4Xg6fKQ9rjsRfz-AI-hxiaU","Sri Lakshmi Fancy Store","13.001164436340332","77.5328598022461","0x3bae3da47c3a78e1:0xa58971e823803f7f","1","https://www.google.com/maps/place/?q=place_id:ChIJ4Xg6fKQ9rjsRfz-AI-hxiaU","gmaps_v2","jewelry_store","1687847039"
"ChIJe1iV8fYXrjsRzP8CgOqdHGQ","SANKALPA 92.5 antique silver jewellery","12.998250961303711","77.57170104980469","0x3bae17f6f195587b:0x641c9dea8002ffcc","13","https://www.google.com/maps/place/?q=place_id:ChIJe1iV8fYXrjsRzP8CgOqdHGQ","gmaps_v2","jewelry_store","1687847039"
"ChIJ2fhsMOQ9rjsRZHGiX8CHrc0","Sri Kamakshi Jewellery Works","12.972664833068848","77.54552459716797","0x3bae3de4306cf8d9:0xcdad87c05fa27164","6","https://www.google.com/maps/place/?q=place_id:ChIJ2fhsMOQ9rjsRZHGiX8CHrc0","gmaps_v2","jewelry_store","1687847039"
"ChIJmW25G1Y9rjsR7N38MkO4f0g","Benaka Jewellers","13.000324249267578","77.55348205566406","0x3bae3d561bb96d99:0x487fb84332fcddec","7","https://www.google.com/maps/place/?q=place_id:ChIJmW25G1Y9rjsR7N38MkO4f0g","gmaps_v2","jewelry_store","1687847039"
"ChIJ5zBMKh0VrjsR5nQ-Meu6Y3M","Sangeetha Jewellers","12.98849105834961","77.54571533203125","0x3bae151d2a4c30e7:0x7363baeb313e74e6","0","https://www.google.com/maps/place/?q=place_id:ChIJ5zBMKh0VrjsR5nQ-Meu6Y3M","gmaps_v2","jewelry_store","1687847039"
"ChIJ_34voIg9rjsRSviPsLN2l-A","Luniya Jewellers And Bankers","12.99918270111084","77.55760955810547","0x3bae3d88a02f7eff:0xe09776b3b08ff84a","1","https://www.google.com/maps/place/?q=place_id:ChIJ_34voIg9rjsRSviPsLN2l-A","gmaps_v2","jewelry_store","1687847039"
"ChIJDZf3cIw9rjsRFpKYAnXZJyA","Ambika Jewellers & Gift Centre","12.991579055786133","77.55567932128906","0x3bae3d8c70f7970d:0x2027d97502989216","0","https://www.google.com/maps/place/?q=place_id:ChIJDZf3cIw9rjsRFpKYAnXZJyA","gmaps_v2","jewelry_store","1687847039"
"ChIJDaflYi8WrjsRkOP4HG2pZIg","Indian Gems & Jewells","13.000215530395508","77.56948852539062","0x3bae162f62e5a70d:0x8864a96d1cf8e390","1","https://www.google.com/maps/place/?q=place_id:ChIJDaflYi8WrjsRkOP4HG2pZIg","gmaps_v2","jewelry_store","1687847039"
"ChIJNzp-DiwWrjsRNM0JkhbIrk8","Ultra Jewels","13.006425857543945","77.56782531738281","0x3bae162c0e7e3a37:0x4faec8169209cd34","1","https://www.google.com/maps/place/?q=place_id:ChIJNzp-DiwWrjsRNM0JkhbIrk8","gmaps_v2","jewelry_store","1687847039"
