id,name,lat,lng,cid,number_of_votes,place_url,source,category,created_at,number_of_reviews,date
18503724,Hotel Karavali Food Point,12.9729712952,77.5399083272,,20200,,zomato,restaurant,1688639100,9742,1397932200.0
19133803,The Bangalore Bakery,12.9943341774,77.5715503469,,128,,zomato,restaurant,1688639100,9742,1397932200.0
19545566,Cake's Joint,13.0058918907,77.5648790225,,130,,zomato,restaurant,1688639100,9742,1397932200.0
18385424,Seafood Dot Grill,13.0169257556,77.5492809713,,83,,zomato,restaurant,1688639100,9742,1397932200.0
19616247,M Grill,13.0301234775,77.5623034313,,56,,zomato,restaurant,1688639100,9742,1397932200.0
51809,Hotel Moonlight,12.9966902579,77.5687323511,,196,,zomato,restaurant,1688639100,9742,1397932200.0
19727916,Ajji Pork Hotel,13.0190434881,77.5510512292,,1161,,zomato,restaurant,1688639100,9742,1397932200.0
18503722,Holige Mane,12.9724420106,77.5378738716,,370,,zomato,restaurant,1688639100,9742,1397932200.0
19798074,Little Owl Chinese,13.0307784158,77.5699542944,,1448,,zomato,restaurant,1688639100,9742,1397932200.0
18880598,Tasty Box,13.0297805017,77.5619500503,,392,,zomato,restaurant,1688639100,9742,1397932200.0
19856348,Mojito Hub,13.0329855097,77.5661004335,,32,,zomato,restaurant,1688639100,9742,1397932200.0
18562416,Hotel New Panchavati,12.9727354043,77.5379315391,,1945,,zomato,restaurant,1688639100,9742,1397932200.0
19679248,Hotel Sankranti Nati Style,13.0118745493,77.5291949138,,68,,zomato,restaurant,1688639100,9742,1397932200.0
19723309,Sri Lakshmi Tiffin's,13.0002517782,77.5541371107,,36,,zomato,restaurant,1688639100,9742,1397932200.0
19829288,Bhyraveshwara Chats,13.0421175297,77.5146130845,,38,,zomato,restaurant,1688639100,9742,1397932200.0
18630511,Ambur Biryani Zone,12.9970777089,77.5714866444,,5,,zomato,restaurant,1688639100,9742,1397932200.0
52324,Palette - Taj Yeshwantpur,13.028907708,77.5404658914,,281,,zomato,restaurant,1688639100,9742,1397932200.0
20083572,Pulusu,13.0358648206,77.5668943673,,369,,zomato,restaurant,1688639100,9742,1397932200.0
19900223,Venky Kabab,13.0424768197,77.5163042173,,245,,zomato,restaurant,1688639100,9742,1397932200.0
19637666,Bitefull,12.9892269726,77.5759448111,,18,,zomato,restaurant,1688639100,9742,1397932200.0
18866727,Bhanu Hindi Military Hotel,12.9797862244,77.5387657061,,103,,zomato,restaurant,1688639100,,
19856394,PC Biryani Joint,13.0329946556,77.5660736114,,49,,zomato,restaurant,1688639100,9742,1397932200.0
19099635,L J Iyenger’s Cakes N Cookies,12.9881034584,77.5455899164,,374,,zomato,restaurant,1688639100,9742,1397932200.0
57672,Sri Sairam's Chats And Juice,13.0054015507,77.5723613799,,490,,zomato,restaurant,1688639100,9742,1397932200.0
19115661,New GFC Hotel,13.0423687061,77.5139961764,,576,,zomato,restaurant,1688639100,9742,1397932200.0
19780616,Holige Mane,12.9724916719,77.5378021225,,248,,zomato,restaurant,1688639100,9742,1397932200.0
19677157,Rasayana Coffee Bar,12.9872288845,77.542181164,,36,,zomato,restaurant,1688639100,9742,1397932200.0
18418561,Absolute Chinese,13.0070434183,77.5547198206,,5070,,zomato,restaurant,1688639100,9742,1397932200.0
19466303,Abhiruchi Hindu Military Hotel,13.0079894637,77.5711745024,,55,,zomato,restaurant,1688639100,9742,1397932200.0
20249500,7th Heaven,12.9863938384,77.5412839651,,36,,zomato,restaurant,1688639100,9742,1397932200.0
55961,Tingling Spice -  The Fern Residency,13.026827951,77.544066757,,162,,zomato,restaurant,1688639100,9742,1397932200.0
20285508,Hotel Rajaatithya,12.9883522939,77.5542372466,,2,,zomato,restaurant,1688639100,9742,1397932200.0
19455416,Mayura 1989 Andhra Speciality Restaurant,12.9758300662,77.552633062,,469,,zomato,restaurant,1688639100,9742,1397932200.0
18856593,Kolkata Famous Kati Roll,12.9853921713,77.5451289117,,2229,,zomato,restaurant,1688639100,9742,1397932200.0
18426395,Sultan Rolls & Sandwiches,13.030082647,77.5629293919,,6655,,zomato,restaurant,1688639100,9742,1397932200.0
57740,Karavali Deluxe,13.0190872602,77.5571864471,,480,,zomato,restaurant,1688639100,9742,1397932200.0
19611170,Rolls Raaja,13.0010668501,77.5530749559,,69,,zomato,restaurant,1688639100,9742,1397932200.0
51806,RS Shiv Sagar,12.991879413,77.5703332946,,728,,zomato,restaurant,1688639100,9742,1397932200.0
19760559,Monster Maggi,13.0331426233,77.5660675764,,425,,zomato,restaurant,1688639100,9742,1397932200.0
19286677,Udupi Ruchi Grand,13.0219788189,77.5333134457,,4445,,zomato,restaurant,1688639100,9742,1397932200.0
20242589,Coppia,13.0284796,77.5715173,,12,,zomato,restaurant,1688639100,9742,1397932200.0
19447397,Bokeh Resto Cafe,13.0282868206,77.5732616506,,117,,zomato,restaurant,1688639100,9742,1397932200.0
19775112,Vallari Roti And Snacks Ghar,12.9933207814,77.5767615438,,111,,zomato,restaurant,1688639100,9742,1397932200.0
19624799,Chicking,12.983541,77.548758,,1,,zomato,restaurant,1688639100,,
51233,New Shanthi Sagar,13.0066308291,77.5791071355,,42,,zomato,restaurant,1688639100,9742,1397932200.0
18419820,New Sagar Fast Food,12.9899630203,77.5527805835,,42,,zomato,restaurant,1688639100,9742,1397932200.0
19592037,Mutton Kabab & Rolls House,13.0323998443,77.5665275753,,542,,zomato,restaurant,1688639100,9742,1397932200.0
19244661,Surakshith Chinese,13.0045822461,77.5802316517,,47,,zomato,restaurant,1688639100,9742,1397932200.0
19704772,Sri Doddaiah Military Hotel,12.9898869001,77.5503525138,,13,,zomato,restaurant,1688639100,9742,1397932200.0
58937,New Karavali Restaurant,13.0195478474,77.5580749288,,176,,zomato,restaurant,1688639100,9742,1397932200.0
61483,Vishwa Brahmin's Cafe,13.0011691015,77.5531081483,,40,,zomato,restaurant,1688639100,9742,1397932200.0
60819,Salaam Sigri Rolls & Kebabs,13.028259317,77.572016716,,685,,zomato,restaurant,1688639100,9742,1397932200.0
19854571,The Ice Cream Spot,12.9973277429,77.5475040753,,32,,zomato,restaurant,1688639100,9742,1397932200.0
19686043,New Burger Junction,13.0293568444,77.5618615374,,39,,zomato,restaurant,1688639100,9742,1397932200.0
19288221,Geometry Gastropub,13.008025071,77.5570546836,,1175,,zomato,restaurant,1688639100,9742,1397932200.0
19453765,Ashok Vattika Xpress,12.9730395794,77.5515434146,,8,,zomato,restaurant,1688639100,9742,1397932200.0
18567870,Nebula,13.0120382096,77.5562456623,,29,,zomato,restaurant,1688639100,9742,1397932200.0
18642512,Stories Bar & Kitchen,13.0085235727,77.5492112339,,8852,,zomato,restaurant,1688639100,9742,1397932200.0
18494075,Hamsa Sagar,13.0009283371,77.5409131497,,6,,zomato,restaurant,1688639100,9742,1397932200.0
19117015,I Cake,13.0083824504,77.5711818784,,128,,zomato,restaurant,1688639100,9742,1397932200.0
61644,TLP Cafe,13.0070074842,77.5644317642,,445,,zomato,restaurant,1688639100,9742,1397932200.0
19195872,Shanthi Sagar Grand,13.004069036,77.5713870674,,476,,zomato,restaurant,1688639100,9742,1397932200.0
18480520,Le Arabia,12.9985510623,77.5423340499,,21700,,zomato,restaurant,1688639100,9742,1397932200.0
19575738,Sri Kabalamma Pork Mutton Hotel,12.9777158569,77.544760108,,379,,zomato,restaurant,1688639100,9742,1397932200.0
55382,Park View Restaurant,12.9729389501,77.5394681096,,169,,zomato,restaurant,1688639100,9742,1397932200.0
19771428,Boss Rolls & Sandwiches,13.0331370704,77.5661175326,,123,,zomato,restaurant,1688639100,9742,1397932200.0
19333632,Karnataka Biriyani Paradise,13.0450810171,77.5068902712,,2179,,zomato,restaurant,1688639100,9742,1397932200.0
19508496,Kekiz The Cake Shop,13.0082227078,77.5712643564,,35,,zomato,restaurant,1688639100,9742,1397932200.0
19856367,Shakes Sup,13.0330064146,77.5661027804,,33,,zomato,restaurant,1688639100,9742,1397932200.0
19326864,RG's Ice Berg Ice-Creams,12.9997279852,77.5577234288,,232,,zomato,restaurant,1688639100,9742,1397932200.0
19011671,Malugudi's Donne Biriyani,13.0301146581,77.5595484674,,606,,zomato,restaurant,1688639100,9742,1397932200.0
19872631,The Cake Deluxe,12.9975465,77.5614773,,443,,zomato,restaurant,1688639100,9742,1397932200.0
18430352,Koithio Kitchen,13.0329877962,77.5661741942,,11,,zomato,restaurant,1688639100,9742,1397932200.0
19091150,New Prashanth Naati Style,13.0091442483,77.5559687242,,2,,zomato,restaurant,1688639100,,
19523929,Sweet Spoon,13.014235,77.57671,,17,,zomato,restaurant,1688639100,9742,1397932200.0
52023,Sai Shakti,12.9992540872,77.5680876151,,273,,zomato,restaurant,1688639100,9742,1397932200.0
19636388,Labonel Fine Baking,13.00447,77.58392,,4,,zomato,restaurant,1688639100,9742,1397932200.0
18565944,Bobby's Dhaba,13.0471792241,77.5024941936,,165,,zomato,restaurant,1688639100,9742,1397932200.0
19534481,Between 2 Buns,13.0307104526,77.5699453294,,2360,,zomato,restaurant,1688639100,9742,1397932200.0
19137545,S.K Sweets,12.9859099938,77.5613167137,,185,,zomato,restaurant,1688639100,9742,1397932200.0
19216245,Big Mishra Pedha,12.9987607939,77.5424547493,,84,,zomato,restaurant,1688639100,9742,1397932200.0
19690351,Charcoal Chicken Barbecue,13.0286650107,77.5621921197,,41,,zomato,restaurant,1688639100,9742,1397932200.0
19503605,Nizam's Kitchens,12.9834495922,77.5488343835,,475,,zomato,restaurant,1688639100,9742,1397932200.0
19439076,Snehajeevi Gowdru Adda Juice And Chats,13.0059301117,77.5648498535,,30,,zomato,restaurant,1688639100,9742,1397932200.0
55011,The Studio Bar,13.0108138581,77.5542514399,,892,,zomato,restaurant,1688639100,9742,1397932200.0
18805765,Pooja Restro,13.0347366181,77.564278543,,5,,zomato,restaurant,1688639100,9742,1397932200.0
19589236,Sicilia Point,12.9858482472,77.5519762561,,183,,zomato,restaurant,1688639100,9742,1397932200.0
19913977,Grub Monkeys,13.0291602044,77.5710460916,,218,,zomato,restaurant,1688639100,9742,1397932200.0
51310,Food Zone,12.9880103493,77.5379684195,,5895,,zomato,restaurant,1688639100,9742,1397932200.0
19592189,Mohaa - New Name Of Sheesha,13.0301786802,77.5708033517,,18,,zomato,restaurant,1688639100,9742,1397932200.0
20197047,Hari Super Sandwich,12.988782,77.57753,,119,,zomato,restaurant,1688639100,9742,1397932200.0
20089345,Geist Brewing Taproom,13.011925738,77.5556076974,,30,,zomato,restaurant,1688639100,9742,1397932200.0
19793129,Sri Sai Ram Juice and Chats,13.0037897265,77.5653645024,,105,,zomato,restaurant,1688639100,9742,1397932200.0
58099,Northwind,12.9979672756,77.5813873485,,528,,zomato,restaurant,1688639100,9742,1397932200.0
20347974,Kamat Aahaar,12.9941718122,77.5713837147,,25,,zomato,restaurant,1688639100,9742,1397932200.0
19243703,Aaradhya Family Restaurant,12.9762299648,77.5452744216,,292,,zomato,restaurant,1688639100,9742,1397932200.0
19060783,Tasty Food,13.0311883324,77.5623041019,,451,,zomato,restaurant,1688639100,9742,1397932200.0
19784050,Manoo's Cafe,13.0370077164,77.5656126067,,30,,zomato,restaurant,1688639100,9742,1397932200.0
19692472,Double Scoop,13.034786267,77.5640740246,,96,,zomato,restaurant,1688639100,9742,1397932200.0
54425,Sanman,12.9865245187,77.5744820014,,199,,zomato,restaurant,1688639100,9742,1397932200.0
19480261,LJ Iyengar's Cakes N Cookies Sweets,13.0039350982,77.5653282925,,156,,zomato,restaurant,1688639100,9742,1397932200.0
51366,The Higher Taste,13.0092942469,77.5513363195,,1444,,zomato,restaurant,1688639100,9742,1397932200.0
57779,Hotel Elite,13.023884838,77.5483740494,,152,,zomato,restaurant,1688639100,9742,1397932200.0
18022248,South Idlis,13.0079430762,77.5564146414,,15400,,zomato,restaurant,1688639100,9742,1397932200.0
19894462,Signature Cafe,12.9905052,77.5488415,,16,,zomato,restaurant,1688639100,9742,1397932200.0
50948,Swathi,12.9978983449,77.5501781702,,5959,,zomato,restaurant,1688639100,9742,1397932200.0
18892261,Paradise Cafe,13.0153045331,77.5292535871,,3193,,zomato,restaurant,1688639100,9742,1397932200.0
19727521,Glen's Bakehouse,13.0280504,77.5729675,,2358,,zomato,restaurant,1688639100,9742,1397932200.0
56353,Kava - Fairfield By Marriott,12.9833254444,77.5601445884,,1002,,zomato,restaurant,1688639100,9742,1397932200.0
19347158,Half Tea,13.0003056808,77.5511923805,,10,,zomato,restaurant,1688639100,9742,1397932200.0
19619585,District 6 Pub Brewery & Kitchen,13.0122730832,77.5545498356,,457,,zomato,restaurant,1688639100,9742,1397932200.0
20171732,Mystique Palate,13.004079163,77.5538014993,,207,,zomato,restaurant,1688639100,9742,1397932200.0
19937995,Glazedd,13.00453404,77.5543390686,,23,,zomato,restaurant,1688639100,9742,1397932200.0
19714534,Hotel Advithi Ruchi,13.0149092708,77.533108592,,35,,zomato,restaurant,1688639100,9742,1397932200.0
19783118,Five Star Chicken & Koli Hut,12.9962867987,77.5711406395,,67,,zomato,restaurant,1688639100,9742,1397932200.0
19831032,Sree Annapurneshwari Hotel,12.9888591113,77.5455607474,,53,,zomato,restaurant,1688639100,9742,1397932200.0
18722746,Kava Bar - Fairfield By Marriott,12.9832976744,77.5601382181,,24,,zomato,restaurant,1688639100,9742,1397932200.0
19895427,Taste Of Kolkata,13.0410733,77.5541541,,393,,zomato,restaurant,1688639100,9742,1397932200.0
18871031,Yumjar,12.9918284488,77.5367688015,,109,,zomato,restaurant,1688639100,9742,1397932200.0
19555864,Magadi Junction,12.9738286033,77.5513211265,,35,,zomato,restaurant,1688639100,9742,1397932200.0
20181172,Kings Biryani & Kebab,12.972689326,77.538993482,,16,,zomato,restaurant,1688639100,9742,1397932200.0
18390995,Hatch,13.0238766717,77.5483763963,,249,,zomato,restaurant,1688639100,9742,1397932200.0
19476422,Kadak Biryanis & Grill,13.02926,77.56132,,6171,,zomato,restaurant,1688639100,9742,1397932200.0
19104633,Abhiruchi,12.9905429054,77.5758847967,,28,,zomato,restaurant,1688639100,9742,1397932200.0
19717323,Ramanaa's Biriyani,12.9929039,77.562688,,124,,zomato,restaurant,1688639100,9742,1397932200.0
18369825,Tea Samskruthi,13.0070741257,77.5712328404,,24,,zomato,restaurant,1688639100,9742,1397932200.0
20381142,Five Star & Koli Hut,13.0150079,77.532831,,0,,zomato,restaurant,1688639100,,
19916244,Baradari,12.9916313,77.5705995,,31,,zomato,restaurant,1688639100,9742,1397932200.0
58905,Shreyas,12.997216224,77.5806819275,,4,,zomato,restaurant,1688639100,9742,1397932200.0
19412197,Asha Melange,13.0008407864,77.5722980127,,95,,zomato,restaurant,1688639100,9742,1397932200.0
19795480,Asha Melange,13.0042091807,77.5513432547,,164,,zomato,restaurant,1688639100,9742,1397932200.0
19448629,Fish Land KSCFF,13.0120852497,77.5357750431,,910,,zomato,restaurant,1688639100,9742,1397932200.0
18679521,New Shetty Lunch Home,12.9981449926,77.5521147251,,9,,zomato,restaurant,1688639100,9742,1397932200.0
19577654,Rice Sambar,13.0193407466,77.5618115813,,438,,zomato,restaurant,1688639100,9742,1397932200.0
60777,Amrith Ice Cream,12.999156082,77.5652330741,,103,,zomato,restaurant,1688639100,9742,1397932200.0
18855933,Omleterian,13.027145,77.561011,,777,,zomato,restaurant,1688639100,9742,1397932200.0
18541087,Shahi Taj,13.0434593118,77.5116502494,,5494,,zomato,restaurant,1688639100,9742,1397932200.0
55570,Have More,13.0271408793,77.5717857108,,3604,,zomato,restaurant,1688639100,9742,1397932200.0
60760,Priyadarshini Grand,12.9901462968,77.5377672538,,28000,,zomato,restaurant,1688639100,9742,1397932200.0
19104763,Big Mishra Pedha,13.0022523749,77.552966997,,110,,zomato,restaurant,1688639100,9742,1397932200.0
18662031,Indira Canteen,13.0431722076,77.5132438168,,1,,zomato,restaurant,1688639100,,
18679531,Mr Savji,12.997836928,77.5548381731,,22,,zomato,restaurant,1688639100,9742,1397932200.0
19127529,World On A Plate - Citrine Hotel,12.9866653267,77.574464567,,321,,zomato,restaurant,1688639100,9742,1397932200.0
18975718,Chikpet Donne Biriyani Mane,12.9882932703,77.5381206349,,498,,zomato,restaurant,1688639100,9742,1397932200.0
60535,New Fish Land,12.9972358252,77.5718990341,,91,,zomato,restaurant,1688639100,9742,1397932200.0
18728530,Mayura 1989,12.9761505732,77.5527336448,,2134,,zomato,restaurant,1688639100,9742,1397932200.0
18499693,Jameela Hotel,12.9734737879,77.5500299782,,14,,zomato,restaurant,1688639100,9742,1397932200.0
19792611,Shree Veerabhadreshwara Rotti Holige Mane,12.9866035803,77.5454661995,,151,,zomato,restaurant,1688639100,9742,1397932200.0
19010800,Grameena Siripakaa,12.972535779,77.5387945399,,22,,zomato,restaurant,1688639100,9742,1397932200.0
19520539,Nandhitha Foods,13.0301123716,77.5630980358,,61,,zomato,restaurant,1688639100,9742,1397932200.0
57741,Annapurna North Indian & Chinese Restaurant,13.0226863506,77.5527768955,,149,,zomato,restaurant,1688639100,9742,1397932200.0
18502120,Ganga Delicacy,12.9951309742,77.55175028,,15,,zomato,restaurant,1688639100,9742,1397932200.0
19786419,Chhotu Kolhapuri,12.9961584103,77.5513717532,,30,,zomato,restaurant,1688639100,9742,1397932200.0
19276338,Geet's kitchen,12.9835090525,77.5650238618,,381,,zomato,restaurant,1688639100,9742,1397932200.0
19256619,Wok Face,13.0004700021,77.5722812489,,21,,zomato,restaurant,1688639100,9742,1397932200.0
18648920,New Udupi Grand Hotel,12.975801642,77.5589520112,,26,,zomato,restaurant,1688639100,9742,1397932200.0
52006,Nikki's,13.0142461432,77.5737279654,,62,,zomato,restaurant,1688639100,9742,1397932200.0
19823790,Urban Box,13.0075538,77.5469524,,22,,zomato,restaurant,1688639100,9742,1397932200.0
18313528,Donne Biryani Angadi Mane,13.0289263268,77.561487034,,2778,,zomato,restaurant,1688639100,9742,1397932200.0
19632156,Pastries Park,13.0041183644,77.5712261349,,272,,zomato,restaurant,1688639100,9742,1397932200.0
19099523,Vijayanagar Nalapak,12.996647,77.567601,,9,,zomato,restaurant,1688639100,9742,1397932200.0
18989809,Antarastriya,12.9992844688,77.5493165106,,3931,,zomato,restaurant,1688639100,9742,1397932200.0
19011638,New Swathi Grand Pure Veg,13.0301234775,77.5595025346,,796,,zomato,restaurant,1688639100,9742,1397932200.0
19268619,Sigdee,13.0300582,77.5622111,,136,,zomato,restaurant,1688639100,9742,1397932200.0
19600457,Moonlight Restaurant,13.0340333672,77.5672584772,,53,,zomato,restaurant,1688639100,9742,1397932200.0
53673,Fish Corner,13.0284588975,77.5616724417,,1618,,zomato,restaurant,1688639100,9742,1397932200.0
19210062,Sweet Zone,13.0343351806,77.5646587461,,81,,zomato,restaurant,1688639100,9742,1397932200.0
18613859,Bademiyan Kebabs,13.0113786678,77.5546031445,,234,,zomato,restaurant,1688639100,9742,1397932200.0
53351,The Terrace Tandoor & Grill Restaurant,12.9815334612,77.5769519806,,40,,zomato,restaurant,1688639100,9742,1397932200.0
20322203,India Sweet House,12.9728480634,77.538711082,,64,,zomato,restaurant,1688639100,9742,1397932200.0
19671256,Grand Samrudhdi,12.9957376357,77.5400327146,,73,,zomato,restaurant,1688639100,9742,1397932200.0
19626383,Delhi Dinner Darbar,13.0342917378,77.5646553934,,322,,zomato,restaurant,1688639100,9742,1397932200.0
19530955,Le MoMo,13.0307784158,77.5699542944,,2173,,zomato,restaurant,1688639100,9742,1397932200.0
55660,Tasty Paradise,12.9899581199,77.5727620348,,1458,,zomato,restaurant,1688639100,9742,1397932200.0
18502142,Sri Balaji Juice And Chats,12.9739553696,77.5445800647,,5,,zomato,restaurant,1688639100,9742,1397932200.0
19734847,Mandya Pork Military Hotel,12.9778857473,77.5448107347,,325,,zomato,restaurant,1688639100,9742,1397932200.0
18533361,Justbe Resto Cafe,13.0072103486,77.5794424117,,761,,zomato,restaurant,1688639100,9742,1397932200.0
18927721,The Light House Restaurant,13.02831648,77.572192736,,1239,,zomato,restaurant,1688639100,9742,1397932200.0
19838613,R R Spicy Bangarpet Chat House,12.9708074288,77.5586063415,,26,,zomato,restaurant,1688639100,9742,1397932200.0
19524710,Eric World,13.0320856,77.5695509,,189,,zomato,restaurant,1688639100,9742,1397932200.0
19734939,Street Foods By Punjab Grill,13.0107648577,77.5550212339,,18,,zomato,restaurant,1688639100,9742,1397932200.0
18568312,La Heaven,13.0073560449,77.5711822137,,2483,,zomato,restaurant,1688639100,9742,1397932200.0
56508,Oottupura,13.0338282383,77.5640428439,,579,,zomato,restaurant,1688639100,9742,1397932200.0
20211103,Geometry Gastropub,13.036829,77.566105,,380,,zomato,restaurant,1688639100,9742,1397932200.0
52713,1522 - The Pub,13.0079443829,77.5571096689,,3088,,zomato,restaurant,1688639100,9742,1397932200.0
19046709,Chicken County Restaurant,12.9877483367,77.53787186,,1274,,zomato,restaurant,1688639100,9742,1397932200.0
18814362,Nandhana Mithai,12.9898503101,77.5503850356,,6,,zomato,restaurant,1688639100,9742,1397932200.0
56324,Sangria Wine Lounge,13.0304393414,77.570489198,,444,,zomato,restaurant,1688639100,9742,1397932200.0
18566117,Swathi Restaurant,12.9892024703,77.5721826777,,75,,zomato,restaurant,1688639100,9742,1397932200.0
18515580,Frozenheit⁶,13.0042656959,77.5492732599,,3162,,zomato,restaurant,1688639100,9742,1397932200.0
18951997,Hangyo,12.9924720347,77.5759384409,,238,,zomato,restaurant,1688639100,9742,1397932200.0
19830170,Tuscany Pizzeria,12.9884523724,77.5497728214,,16,,zomato,restaurant,1688639100,9742,1397932200.0
20248605,Gilly's Resto Bar,13.0117968109,77.5549914386,,145,,zomato,restaurant,1688639100,9742,1397932200.0
52313,Azure - Taj Yeshwantpur,13.0289119544,77.5404655561,,172,,zomato,restaurant,1688639100,9742,1397932200.0
20075485,Ammbari,12.9818461199,77.5330334902,,132,,zomato,restaurant,1688639100,9742,1397932200.0
19291913,Halliruchi,13.005627937,77.5712422282,,5,,zomato,restaurant,1688639100,9742,1397932200.0
19842560,Kapoor's Chaat Bhandaar,12.9989548445,77.5521006435,,1391,,zomato,restaurant,1688639100,9742,1397932200.0
61649,Punjab Mail,12.9984465231,77.5694226846,,4626,,zomato,restaurant,1688639100,9742,1397932200.0
59775,New Sagar Fast Food,13.0040758963,77.550673373,,96,,zomato,restaurant,1688639100,9742,1397932200.0
20103741,The Fry Shack,12.99158,77.57046,,1,,zomato,restaurant,1688639100,9742,1397932200.0
19565126,Combos Jumbos Mumbos,13.0193237604,77.5618531555,,1760,,zomato,restaurant,1688639100,9742,1397932200.0
18417562,Olive Tree,12.979041,77.5641132,,73,,zomato,restaurant,1688639100,9742,1397932200.0
55694,Mallnad Hotel,13.0091050478,77.5383717567,,295,,zomato,restaurant,1688639100,9742,1397932200.0
19415038,DBD - Davanagere Benne Dosa,12.9734385023,77.5435682014,,358,,zomato,restaurant,1688639100,9742,1397932200.0
20323568,Five Star Chicken,13.0017529623,77.5533062923,,1,,zomato,restaurant,1688639100,,
19822635,The Imperial Spice,12.981996405,77.5330375135,,472,,zomato,restaurant,1688639100,9742,1397932200.0
53568,1947,12.9836126178,77.5486278534,,1225,,zomato,restaurant,1688639100,9742,1397932200.0
19963344,Tasty Pizza And Chats,13.0064912,77.5458295,,369,,zomato,restaurant,1688639100,9742,1397932200.0
19984073,RR Hotel,13.0337148948,77.5537763536,,33,,zomato,restaurant,1688639100,9742,1397932200.0
57249,Five Star Chicken,13.0041745529,77.578350082,,584,,zomato,restaurant,1688639100,9742,1397932200.0
54489,H3O,12.9892962324,77.5501821935,,6,,zomato,restaurant,1688639100,,
19510179,K C Das,12.999702624,77.5713414699,,197,,zomato,restaurant,1688639100,9742,1397932200.0
19906703,DNA Cuisine - Doctor Nutri Ambrosia,12.999954,77.560134,,766,,zomato,restaurant,1688639100,9742,1397932200.0
19615353,Annapurna,12.9835041519,77.5650459901,,46,,zomato,restaurant,1688639100,9742,1397932200.0
18418538,Shanthi Sagar,12.9888898209,77.5376277789,,11300,,zomato,restaurant,1688639100,9742,1397932200.0
19721827,McLean's Italian Pizzeria,12.9824975726,77.537429966,,188,,zomato,restaurant,1688639100,9742,1397932200.0
19576115,Imperio Combo King,13.0390592976,77.5641246513,,265,,zomato,restaurant,1688639100,9742,1397932200.0
19426524,Big Boss Combo,13.0353670272,77.5643948838,,259,,zomato,restaurant,1688639100,9742,1397932200.0
60291,Cream House,12.9977127873,77.5500041619,,31,,zomato,restaurant,1688639100,9742,1397932200.0
52326,Shimmer - Taj Yeshwantpur,13.0289106478,77.540487349,,69,,zomato,restaurant,1688639100,9742,1397932200.0
19365884,Fit Feast,13.025871,77.561251,,2720,,zomato,restaurant,1688639100,9742,1397932200.0
18313533,Rolls Kitchen,13.0294861955,77.5619238988,,1864,,zomato,restaurant,1688639100,9742,1397932200.0
19887523,Hokart - Sri Annapoorna Sweets And Condiments,13.0196732838,77.5578999147,,48,,zomato,restaurant,1688639100,9742,1397932200.0
19064707,Kashi Food,13.0309263654,77.5632606447,,142,,zomato,restaurant,1688639100,9742,1397932200.0
18734046,New Sagar Fast Food,13.0182366417,77.5578184426,,1474,,zomato,restaurant,1688639100,9742,1397932200.0
19320032,Davanagere Bene Dosa Hotel,13.0177531859,77.531811744,,1,,zomato,restaurant,1688639100,,
19645855,New Udupi Swada,12.9787149412,77.5534383953,,15,,zomato,restaurant,1688639100,9742,1397932200.0
60977,Cake Gallery,13.0285686504,77.5617052987,,838,,zomato,restaurant,1688639100,9742,1397932200.0
19365098,Dwinks,12.9992498403,77.5498184189,,36,,zomato,restaurant,1688639100,9742,1397932200.0
19843316,Holige Mane Kuruk Thindi Shop,13.0116070086,77.5436285511,,115,,zomato,restaurant,1688639100,9742,1397932200.0
19166445,Food Talkies,13.0372252547,77.5657839328,,71,,zomato,restaurant,1688639100,9742,1397932200.0
20254338,Shyamji's Chole Bhature,12.9873681,77.5509517,,221,,zomato,restaurant,1688639100,9742,1397932200.0
19654765,A1 Chicken Biryani Point,12.9871906606,77.5392236933,,15,,zomato,restaurant,1688639100,9742,1397932200.0
18882062,Grub by 3G's,13.0080129841,77.5570908934,,9,,zomato,restaurant,1688639100,9742,1397932200.0
18725496,Shawarma & Kolkata Rolls,13.0290367327,77.5678019598,,7,,zomato,restaurant,1688639100,,
55943,Soundarya Paradise,13.0427185235,77.5130624324,,7051,,zomato,restaurant,1688639100,9742,1397932200.0
18487171,Tripti Hotel & Restaurant,13.0335597414,77.5662985817,,6704,,zomato,restaurant,1688639100,9742,1397932200.0
19470363,Sri Durga Kitchen Cafe - Homemade Food Since 1996,12.972432,77.538859,,95,,zomato,restaurant,1688639100,9742,1397932200.0
52310,The Fast Food,13.008878338,77.5632770732,,3205,,zomato,restaurant,1688639100,9742,1397932200.0
19208133,New Grand Prashanth Family Restaurant,12.9783676472,77.5444375724,,27,,zomato,restaurant,1688639100,9742,1397932200.0
19103573,Soul Konnet,13.0066615364,77.5641601905,,4,,zomato,restaurant,1688639100,9742,1397932200.0
20084657,Sirimane Family Restaurant,12.9884958,77.5346244,,211,,zomato,restaurant,1688639100,9742,1397932200.0
57744,Hotel Udupi Park Inn,13.0221091538,77.5532228127,,4,,zomato,restaurant,1688639100,9742,1397932200.0
19466150,Srinivasa Miltry Hotel,13.0415903523,77.5144705921,,3955,,zomato,restaurant,1688639100,9742,1397932200.0
18732665,Barbecue By Punjab Grill,12.9913008378,77.5704563409,,4225,,zomato,restaurant,1688639100,9742,1397932200.0
51957,Upsouth,12.9914743125,77.5704888627,,1391,,zomato,restaurant,1688639100,9742,1397932200.0
19709878,Malleswaram Thatte Idly Cafe & By 2 Coffee Point,13.0066958372,77.5639187917,,893,,zomato,restaurant,1688639100,9742,1397932200.0
18668825,Lakshmi Mess,12.9963596501,77.5711215287,,97,,zomato,restaurant,1688639100,9742,1397932200.0
18660016,Meen-Da-Vanas,12.9973981885,77.5605864823,,4,,zomato,restaurant,1688639100,,
19432141,Hotel Ramanna Nati Style,13.0391347494,77.5181898102,,57,,zomato,restaurant,1688639100,9742,1397932200.0
19830422,Yohan Kitchen,12.9969019513,77.5730044395,,22,,zomato,restaurant,1688639100,9742,1397932200.0
19632942,Pattegar Donne Biriyani,12.9715729358,77.5469880179,,255,,zomato,restaurant,1688639100,9742,1397932200.0
20288748,Qmin,13.01106,77.55504,,16,,zomato,restaurant,1688639100,9742,1397932200.0
19686010,Rockin Burgers,13.0292432,77.5617526,,40,,zomato,restaurant,1688639100,9742,1397932200.0
19162531,Sanmanaa,12.9851159992,77.5599983416,,44,,zomato,restaurant,1688639100,9742,1397932200.0
19796084,Mane Holige Kuruku Thindi,12.9993024365,77.5725313649,,50,,zomato,restaurant,1688639100,9742,1397932200.0
18422883,Biriyani Fest,13.032852894,77.5673453137,,1229,,zomato,restaurant,1688639100,9742,1397932200.0
19792971,4700BC Gourmet Popcorn,12.9917921858,77.5702806562,,26,,zomato,restaurant,1688639100,9742,1397932200.0
18581089,Punjab Grill,13.0108435849,77.554223612,,4445,,zomato,restaurant,1688639100,9742,1397932200.0
18595271,Temple Meals,12.9983661585,77.5695792586,,125,,zomato,restaurant,1688639100,9742,1397932200.0
19710271,Hasanambe Benne Dose,12.98217348,77.5538876653,,107,,zomato,restaurant,1688639100,9742,1397932200.0
18572234,StikSnax,13.0108105914,77.554250434,,22,,zomato,restaurant,1688639100,9742,1397932200.0
19577164,Indotalian II Cafe,13.0051836577,77.5786595419,,59,,zomato,restaurant,1688639100,9742,1397932200.0
19923052,Bake In Care,12.98421212,77.5559110567,,21,,zomato,restaurant,1688639100,9742,1397932200.0
18385453,B52 - Sports Bar,13.0169378421,77.549257502,,142,,zomato,restaurant,1688639100,9742,1397932200.0
19684480,Brown Burger Co,13.03008722,77.5627855584,,2,,zomato,restaurant,1688639100,9742,1397932200.0
19180247,Sailor 16,13.0303869509,77.5701724956,,36,,zomato,restaurant,1688639100,9742,1397932200.0
19364530,La Pizzeria,13.028112653,77.5731697306,,28,,zomato,restaurant,1688639100,9742,1397932200.0
19481317,Chakhna House - Nati Style,13.0064694519,77.5411850587,,35,,zomato,restaurant,1688639100,9742,1397932200.0
19062995,Happy Platter,12.9960878457,77.5546162203,,2644,,zomato,restaurant,1688639100,9742,1397932200.0
17946097,New Ootada Mane,13.0274031,77.5588861,,971,,zomato,restaurant,1688639100,9742,1397932200.0
19915960,Probasi Rannaghor,13.0410528,77.5541789,,21,,zomato,restaurant,1688639100,9742,1397932200.0
19986082,Lassi And More,13.0409256631,77.5176952779,,222,,zomato,restaurant,1688639100,9742,1397932200.0
18630494,Bharath's Pizza,12.9992959028,77.5723030418,,4,,zomato,restaurant,1688639100,,
19790832,Mane Holige,12.9915412848,77.5385990739,,482,,zomato,restaurant,1688639100,9742,1397932200.0
20430367,SGS Non Veg Gundu Palav,12.9964559668,77.5686049461,,0,,zomato,restaurant,1688639100,9742,1397932200.0
18655235,Food Square,12.9970068178,77.5738956034,,89,,zomato,restaurant,1688639100,9742,1397932200.0
60426,Shahi Chicken Biriyani,12.9946994171,77.5552985072,,1413,,zomato,restaurant,1688639100,9742,1397932200.0
19689730,The Secret Chapter,12.9888963548,77.5333835185,,24,,zomato,restaurant,1688639100,9742,1397932200.0
18642682,Strona - The Fern Residency,13.0268305642,77.5440620631,,70,,zomato,restaurant,1688639100,9742,1397932200.0
19262959,Fruit Face,13.0004706555,77.572272867,,80,,zomato,restaurant,1688639100,9742,1397932200.0
56304,Chandus Hotel,12.9934392,77.5457565,,511,,zomato,restaurant,1688639100,9742,1397932200.0
19650556,Hotel Rajaatithya,13.0188902855,77.5576206297,,58,,zomato,restaurant,1688639100,9742,1397932200.0
18552851,Cinders Rooftop Barbeque,13.0281949678,77.5587260351,,284,,zomato,restaurant,1688639100,9742,1397932200.0
19778043,MM Hotel,12.9884693607,77.5557883456,,34,,zomato,restaurant,1688639100,9742,1397932200.0
19359119,Green Donne Biriyani And Kabab Center,12.9991691494,77.5780664384,,83,,zomato,restaurant,1688639100,9742,1397932200.0
19366208,Tarbouch Roll and Grills,13.0287855428,77.5716425478,,1392,,zomato,restaurant,1688639100,9742,1397932200.0
52677,Hotel Nalapaka,12.9984305155,77.5522951037,,1973,,zomato,restaurant,1688639100,9742,1397932200.0
19841745,Michael's Icecream Burger,12.9882880431,77.5373505056,,7,,zomato,restaurant,1688639100,9742,1397932200.0
19462142,Flavourboxx,13.0000949704,77.5571284443,,41,,zomato,restaurant,1688639100,9742,1397932200.0
52058,The Persian Terrace - Sheraton Grand Bangalore Hotel at Brigade Gateway,13.0122551165,77.5546993688,,823,,zomato,restaurant,1688639100,9742,1397932200.0
19702285,Full Moon Pizza,12.9945491396,77.5599665567,,56,,zomato,restaurant,1688639100,9742,1397932200.0
18275010,Asha Food Camp,12.9875581977,77.5544640049,,1167,,zomato,restaurant,1688639100,9742,1397932200.0
19470560,Machili,12.998410261,77.5700285286,,23,,zomato,restaurant,1688639100,9742,1397932200.0
19650306,Foodeez Zone,13.0343214619,77.5646657869,,62,,zomato,restaurant,1688639100,9742,1397932200.0
19094752,Taran Sagar,13.01945867,77.5392116234,,137,,zomato,restaurant,1688639100,9742,1397932200.0
18624160,Amrut,12.9982893875,77.570146881,,2420,,zomato,restaurant,1688639100,9742,1397932200.0
18688104,Nando's,13.0113175808,77.555010505,,6373,,zomato,restaurant,1688639100,9742,1397932200.0
54063,Hotel Vaishali,12.9969065249,77.5730047747,,25,,zomato,restaurant,1688639100,9742,1397932200.0
55688,Hotel Savajis,13.0000952971,77.5525120273,,188,,zomato,restaurant,1688639100,9742,1397932200.0
53188,Sbarro,13.0111581667,77.554397285,,312,,zomato,restaurant,1688639100,9742,1397932200.0
19097333,Kulche D' Hatti,13.0280705157,77.5728129968,,134,,zomato,restaurant,1688639100,9742,1397932200.0
18811064,Flodeis,12.9735969605,77.5446152687,,845,,zomato,restaurant,1688639100,9742,1397932200.0
19440102,Dr. Sheesha,13.008396824,77.5489594415,,179,,zomato,restaurant,1688639100,9742,1397932200.0
18888108,Singh Saab Dhaba,13.0024010143,77.5725759566,,662,,zomato,restaurant,1688639100,9742,1397932200.0
19815493,Hydeout Bar & Lounge,13.0121512365,77.554256469,,47,,zomato,restaurant,1688639100,9742,1397932200.0
59797,Hotel Prashanth,12.9882893499,77.5542655215,,942,,zomato,restaurant,1688639100,9742,1397932200.0
19858588,Moonrock Lounge,13.0338994455,77.5686089695,,90,,zomato,restaurant,1688639100,9742,1397932200.0
18487189,Cream Stone Ice Cream,13.027880081,77.5740897283,,3996,,zomato,restaurant,1688639100,9742,1397932200.0
59721,Hotel Karavali Beach,12.9855725109,77.5746617094,,154,,zomato,restaurant,1688639100,9742,1397932200.0
19170126,V K Bakery Foodies,13.0111816868,77.54558824,,4,,zomato,restaurant,1688639100,9742,1397932200.0
18305619,Latitude - Tulip Inn,12.9992851222,77.5830838457,,51,,zomato,restaurant,1688639100,9742,1397932200.0
19939117,Kodava Mane,13.0288207,77.5715919,,29,,zomato,restaurant,1688639100,9742,1397932200.0
18823847,Nesara Mullti - Cuisine Family Dining & Garden Restaurant,13.0213983539,77.5666519627,,642,,zomato,restaurant,1688639100,9742,1397932200.0
18699323,Kesariya,13.0051261627,77.5839408115,,244,,zomato,restaurant,1688639100,9742,1397932200.0
57774,7-Star Ambur Dum Biriyani,13.029642658,77.5620439276,,393,,zomato,restaurant,1688639100,9742,1397932200.0
19796468,Hotel Udupi Brundavana,12.9971884557,77.5677469745,,510,,zomato,restaurant,1688639100,9742,1397932200.0
19307091,Food Factory,13.0330965671,77.5661339611,,36,,zomato,restaurant,1688639100,9742,1397932200.0
19046532,Shree Lakshmivenkatesh Hindhu Miltry Hotel,13.0002449178,77.5525656715,,213,,zomato,restaurant,1688639100,9742,1397932200.0
19761745,Shree Ganesh Fruits Juice,12.9964227008,77.5513623655,,371,,zomato,restaurant,1688639100,9742,1397932200.0
19430566,The Kings Of Burger,13.0294224999,77.5618927181,,115,,zomato,restaurant,1688639100,9742,1397932200.0
18499714,New A1 Chicken Biryani Point,12.9902257,77.5458035,,357,,zomato,restaurant,1688639100,9742,1397932200.0
52361,Glacier - Citrine Hotel,12.986668267,77.5744662434,,39,,zomato,restaurant,1688639100,9742,1397932200.0
19880448,India Sweet House,12.9992896958,77.571025975,,152,,zomato,restaurant,1688639100,9742,1397932200.0
18641875,Five Star Chicken,12.9686546521,77.545459494,,882,,zomato,restaurant,1688639100,9742,1397932200.0
19255568,Surakshith Chinese Nalapaka,13.004610667,77.5802306458,,595,,zomato,restaurant,1688639100,9742,1397932200.0
18856915,UBQ By Barbeque Nation,12.9832921204,77.5601382181,,4504,,zomato,restaurant,1688639100,9742,1397932200.0
19050797,Pizza Street,13.0037189261,77.5585518395,,88,,zomato,restaurant,1688639100,9742,1397932200.0
19815317,E2P Italian Pizza & Burger,12.9867326238,77.5399783679,,1188,,zomato,restaurant,1688639100,9742,1397932200.0
18460061,1522 - The Pub,13.0328016116,77.5692342594,,2058,,zomato,restaurant,1688639100,9742,1397932200.0
18412439,New Prashanth Hotel,13.0076121567,77.5711446628,,15,,zomato,restaurant,1688639100,9742,1397932200.0
19800589,Amchi Mumbai Vada Pav,13.0403599409,77.5184006989,,33,,zomato,restaurant,1688639100,9742,1397932200.0
19624886,The Bel Resto Cafe,13.0278314106,77.5734869018,,33,,zomato,restaurant,1688639100,9742,1397932200.0
19928831,Punjab Grill,12.9913008378,77.5704563409,,167,,zomato,restaurant,1688639100,9742,1397932200.0
19840378,India Sweet House,13.0019145875,77.5714091957,,13,,zomato,restaurant,1688639100,9742,1397932200.0
19856381,Vividha Biryani Joint,13.0330465913,77.5661145151,,61,,zomato,restaurant,1688639100,9742,1397932200.0
57634,Veg By Nature,12.9916980979,77.5713421404,,73,,zomato,restaurant,1688639100,9742,1397932200.0
19676077,Crunchy Mojo,13.0299485,77.5625669,,46,,zomato,restaurant,1688639100,9742,1397932200.0
18777147,Jetlag,13.0124501366,77.5543094426,,2310,,zomato,restaurant,1688639100,9742,1397932200.0
19154908,TKS Iyengars,12.9916784963,77.5368690491,,5326,,zomato,restaurant,1688639100,9742,1397932200.0
18937506,Om Meals & Paratha Junction,13.0308077943,77.5622615218,,7559,,zomato,restaurant,1688639100,9742,1397932200.0
19046214,KAC,12.9915599063,77.5553501397,,4,,zomato,restaurant,1688639100,9742,1397932200.0
18861973,Krazy Adda,12.9920881702,77.5356600434,,246,,zomato,restaurant,1688639100,9742,1397932200.0
19170081,Biryani Canteen,12.9987411928,77.5569634885,,1425,,zomato,restaurant,1688639100,9742,1397932200.0
19630748,Belgian Waffle Factory,12.9922616443,77.5385883451,,308,,zomato,restaurant,1688639100,9742,1397932200.0
19947732,Sri Durga Chats & Ice Cream Parlor,12.9725459073,77.5389249623,,309,,zomato,restaurant,1688639100,9742,1397932200.0
18679418,Davanagere Bene Dosa Hotel,13.0085281461,77.5439601392,,21,,zomato,restaurant,1688639100,9742,1397932200.0
19820618,ATH - All Things Healthy!,13.0371531474,77.5647920881,,215,,zomato,restaurant,1688639100,9742,1397932200.0
20367299,Bangarpet Chats,13.0079453629,77.5474032573,,0,,zomato,restaurant,1688639100,,
19730283,Sri Bettaiah Military Hotel,12.9755249144,77.5605415553,,247,,zomato,restaurant,1688639100,9742,1397932200.0
18637699,Maarish Food Joint,13.0171730377,77.5316249952,,554,,zomato,restaurant,1688639100,9742,1397932200.0
18535584,Savi Sagar,13.0400963505,77.5188251585,,62300,,zomato,restaurant,1688639100,9742,1397932200.0
19171401,Koluru Mokambika Thindi Mane,12.9968359605,77.5299811363,,145,,zomato,restaurant,1688639100,9742,1397932200.0
18809111,Sri Ayodhya Veg,12.9880374653,77.5370212644,,703,,zomato,restaurant,1688639100,9742,1397932200.0
19424094,Big Cup Cafe,13.028233,77.571188,,64,,zomato,restaurant,1688639100,9742,1397932200.0
18486737,Ice Fort,12.9867362207,77.5399244204,,813,,zomato,restaurant,1688639100,9742,1397932200.0
19854384,Raj Bangarapet Chats,13.0005823,77.5442272,,119,,zomato,restaurant,1688639100,9742,1397932200.0
54276,Fish Palace,13.0081612934,77.5548217446,,171,,zomato,restaurant,1688639100,9742,1397932200.0
19368749,New BEL Prashanth Naati Style,13.0340856293,77.5679662451,,308,,zomato,restaurant,1688639100,9742,1397932200.0
19291884,Mandya Nati Style,12.96906077,77.5443373248,,4491,,zomato,restaurant,1688639100,9742,1397932200.0
19743574,Cheenchatti,13.0297937,77.5625198,,75,,zomato,restaurant,1688639100,9742,1397932200.0
20030011,Kapoor's Cafe,12.9996685181,77.5525352956,,1319,,zomato,restaurant,1688639100,9742,1397932200.0
18140782,Pavitra Paradise,12.9880603342,77.5375778228,,457,,zomato,restaurant,1688639100,9742,1397932200.0
18786684,Northern Flavour,13.0000110129,77.5572065637,,105,,zomato,restaurant,1688639100,9742,1397932200.0
18305630,Hatch,12.9938098386,77.5714997202,,1512,,zomato,restaurant,1688639100,9742,1397932200.0
18154867,New Samrat Restaurant,12.9897023166,77.5727177784,,424,,zomato,restaurant,1688639100,9742,1397932200.0
18992160,MPR Donne Biriyani,13.0414077671,77.5164574385,,322,,zomato,restaurant,1688639100,9742,1397932200.0
20007597,Tycoons- Fine Dine & Retro Bar,12.9976396096,77.5842636824,,80,,zomato,restaurant,1688639100,9742,1397932200.0
60491,Sri Ganesha Upahar,12.9894775492,77.5565789267,,112,,zomato,restaurant,1688639100,9742,1397932200.0
18738797,Chin Lung Resto Bar,13.0300111121,77.5705529004,,985,,zomato,restaurant,1688639100,9742,1397932200.0
18422891,Udupi Upachar,12.9755902574,77.5561491027,,7,,zomato,restaurant,1688639100,9742,1397932200.0
58991,Donne Biriyani Mane,12.9768157628,77.5707463548,,31,,zomato,restaurant,1688639100,9742,1397932200.0
61641,Savi Sagar,12.9902152297,77.5719898939,,10200,,zomato,restaurant,1688639100,9742,1397932200.0
19759486,Mysuru Sri Hanumanthu Palav,12.9868414182,77.5372217596,,336,,zomato,restaurant,1688639100,9742,1397932200.0
19605255,Amogha Sagar Grand,12.9869374681,77.5399311259,,250,,zomato,restaurant,1688639100,9742,1397932200.0
55050,O.G. Variar & Sons,12.991535731,77.5545823574,,1405,,zomato,restaurant,1688639100,9742,1397932200.0
18695285,Dream Coffee House,12.9967359942,77.5720375031,,7,,zomato,restaurant,1688639100,9742,1397932200.0
19309600,Food Empire,12.981960794,77.547509037,,9,,zomato,restaurant,1688639100,9742,1397932200.0
56629,Aramane Restaurant,13.0042983637,77.5494187698,,84,,zomato,restaurant,1688639100,9742,1397932200.0
54595,Chetty's Corner,12.9925239788,77.5783007964,,2273,,zomato,restaurant,1688639100,9742,1397932200.0
54686,1947,13.005654071,77.5690495219,,1796,,zomato,restaurant,1688639100,9742,1397932200.0
18686752,Vinayaka Refreshments,13.0195925995,77.5579495355,,533,,zomato,restaurant,1688639100,9742,1397932200.0
18605308,Indira Canteen,12.9983452507,77.557595484,,7,,zomato,restaurant,1688639100,9742,1397932200.0
18173062,Akshatha Nati Style,12.9730265106,77.5396840274,,99,,zomato,restaurant,1688639100,9742,1397932200.0
19667215,Chaska,12.9979463677,77.5520134717,,24,,zomato,restaurant,1688639100,9742,1397932200.0
20037119,Tarangini,13.0313714,77.5701992,,105,,zomato,restaurant,1688639100,9742,1397932200.0
18364474,Jai Mataji Farsan And Sweets,13.0202502194,77.5582386935,,98,,zomato,restaurant,1688639100,9742,1397932200.0
18747139,Al-Taj Restaurant,12.9900133315,77.5528315455,,494,,zomato,restaurant,1688639100,9742,1397932200.0
19649907,Maggi Carnival,13.032408337,77.5665647909,,301,,zomato,restaurant,1688639100,9742,1397932200.0
19829475,Punjabites By Empire,12.9835407428,77.5488249958,,258,,zomato,restaurant,1688639100,9742,1397932200.0
54663,Sattvam,13.0058324358,77.5808408484,,3585,,zomato,restaurant,1688639100,9742,1397932200.0
18582660,Mantap Ice Cream,12.9888574843,77.5722326669,,997,,zomato,restaurant,1688639100,9742,1397932200.0
19443552,Five Star Chicken,13.0136986533,77.5331250206,,13,,zomato,restaurant,1688639100,9742,1397932200.0
19875319,Manavarike Restaurant,12.986626776,77.5405782089,,23,,zomato,restaurant,1688639100,9742,1397932200.0
19497062,Andhra Dum Biriyani,13.0348849114,77.563977465,,264,,zomato,restaurant,1688639100,9742,1397932200.0
19088492,Naati Style Donnie Biryani,12.9907791061,77.5728777051,,4,,zomato,restaurant,1688639100,9742,1397932200.0
18598898,Radhika Sweets,13.040023512,77.5187279284,,429,,zomato,restaurant,1688639100,9742,1397932200.0
19075860,Sai Ram Juice And Chats,13.0055413679,77.5706109032,,1517,,zomato,restaurant,1688639100,9742,1397932200.0
58160,Sangeeth Bar & Restaurant,12.9899871958,77.5726621225,,14,,zomato,restaurant,1688639100,9742,1397932200.0
19551760,Gracy Kitchen,13.0323998443,77.5665275753,,1049,,zomato,restaurant,1688639100,9742,1397932200.0
18552992,Sunniy Spice Restaurant,13.0289678107,77.5715744868,,248,,zomato,restaurant,1688639100,9742,1397932200.0
57895,Aishwarya Sweets,13.0039968403,77.5504712015,,271,,zomato,restaurant,1688639100,9742,1397932200.0
19525965,Rolls & Bowls By Feedx,13.0331115926,77.5660856813,,206,,zomato,restaurant,1688639100,9742,1397932200.0
19793146,Gabru Bistro & Cafe,13.0337387394,77.5680182129,,2334,,zomato,restaurant,1688639100,9742,1397932200.0
19639118,Cafe Coco,13.032934,77.567294,,206,,zomato,restaurant,1688639100,9742,1397932200.0
50588,Kim Lee Restaurant,12.984771763,77.5536482781,,1232,,zomato,restaurant,1688639100,9742,1397932200.0
19525518,Kunafa World,13.0282828355,77.5716740638,,1057,,zomato,restaurant,1688639100,9742,1397932200.0
19707952,Achari's Home Made,12.9912828696,77.5656783208,,27,,zomato,restaurant,1688639100,9742,1397932200.0
19728619,Uttara Karnataka Jolada Rotti Mattu Chapati Angadi,12.989623,77.5735285,,399,,zomato,restaurant,1688639100,9742,1397932200.0
18418556,Amma's Brahmin Cafe,12.9892455944,77.577746585,,160,,zomato,restaurant,1688639100,9742,1397932200.0
56758,Kadai,12.9974086424,77.5453444943,,2252,,zomato,restaurant,1688639100,9742,1397932200.0
57811,Ragoo's Kitchen,13.0083079692,77.5430267304,,2066,,zomato,restaurant,1688639100,9742,1397932200.0
60310,Savipriya Military Hotel,13.0011576676,77.5531859323,,4,,zomato,restaurant,1688639100,,
19928707,Jain Roti Mane,12.9752125745,77.5439477339,,41,,zomato,restaurant,1688639100,9742,1397932200.0
19486500,Street Foods By Punjab Grill,12.991663795,77.5709585845,,38,,zomato,restaurant,1688639100,9742,1397932200.0
18412445,Namma Kudla,12.9999574369,77.5724009424,,1038,,zomato,restaurant,1688639100,9742,1397932200.0
20032607,Charlie Chaplin Lavegano,13.0299040933,77.5708004772,,60,,zomato,restaurant,1688639100,9742,1397932200.0
19056239,Delice,12.9934086615,77.5390114635,,81,,zomato,restaurant,1688639100,9742,1397932200.0
19698163,Golden Chicken Kebab & Biryani,12.9755608531,77.5567653403,,20,,zomato,restaurant,1688639100,9742,1397932200.0
19059946,Lobby Lounge - Sheraton Grand Brigade Gateway,13.0128839495,77.5550188869,,25,,zomato,restaurant,1688639100,9742,1397932200.0
18904625,New SLV Gowdru Hindu Miltry Hotel,13.0415634,77.5144934,,15300,,zomato,restaurant,1688639100,9742,1397932200.0
19691762,Balaji Kabab Corner - Gowdru Natti Style,13.0279496566,77.5613398477,,130,,zomato,restaurant,1688639100,9742,1397932200.0
18254571,The Green Path - Forgotten Food,12.990297557,77.5718339905,,1375,,zomato,restaurant,1688639100,9742,1397932200.0
19183469,Tavvas Restaurant,12.9919617398,77.5702799857,,35,,zomato,restaurant,1688639100,9742,1397932200.0
18494058,Bakers Paradise,13.0083765703,77.5426683202,,127,,zomato,restaurant,1688639100,9742,1397932200.0
56680,Bombay Vada Pav Corner,12.990413534,77.5745520741,,5149,,zomato,restaurant,1688639100,9742,1397932200.0
19558036,Noodle House,12.9886768139,77.5778967887,,69,,zomato,restaurant,1688639100,9742,1397932200.0
20114287,Rich Grills Restaurant,13.0146727663,77.5440748036,,335,,zomato,restaurant,1688639100,9742,1397932200.0
