id,name,lat,lng,category,number_of_votes,source,date,created_at,reviews_per_day
ChIJQXJsfNE9rjsR1EmZaZq1D94,Qmin - Orion Mall,13.010913848876951,77.55506134033203,coffee_shop,95,gmaps_v2,1687674647.0,1687847039,0.0005510696552044178
ChIJ53uzJFI9rjsRsk2X1pPn_jc,"Maiara ( Women""s couture)",12.991986274719238,77.5386962890625,clothing_store,53,gmaps_v2,1687696522.0,1687847039,0.00035211969412092986
ChIJTxP0xoUXrjsR67mJ7s39hi4,Badmaash Lulu Mall,12.981327056884766,77.563232421875,restaurant,31,gmaps_v2,1699514394.0,1699615207,0.0003075000247983891
ChIJqc6_h1kXrjsRz_rsaXasik4,SriStar Gold Company,13.008281707763672,77.57125854492188,jewelry_store,1902,gmaps_v2,1680940275.0,1687847039,0.00027538221951698365
ChIJ82NqvCUWrjsRC33A4yTYQWk,Central Tiffin Room,12.998143196105955,77.5695571899414,restaurant,31067,gmaps_v2,1576296976.0,1699615207,0.0002519254432055549
18535584,Savi Sagar,13.0400963505,77.5188251585,restaurant,62300,zomato,1397932200.0,1688639100,0.00021430519881021057
ChIJqfwgruQXrjsRZwG60y2swPc,SriStar Gold Mall - Jewellery Showroom,13.008234977722168,77.57105255126953,jewelry_store,1094,gmaps_v2,1681554010.0,1687847039,0.0001738431524787189
ChIJS4tnGCQWrjsRxjyX4YmdJyI,Hallimane Restaurant,12.995495796203612,77.57178497314453,restaurant,23330,gmaps_v2,1536560984.0,1699615207,0.00014308123746049802
ChIJs1OiG489rjsR3OA2ita5gm0,Hotel Sagar,12.996706008911133,77.55435180664062,restaurant,19392,gmaps_v2,1563654449.0,1699615207,0.00014262939016565352
ChIJIVPQANwXrjsRZHx_VDjccq4,M Square Biryani,13.028675079345703,77.56227111816406,restaurant,287,gmaps_v2,1696942590.0,1699615207,0.00010738538294113971
ChIJbzXWOtQ9rjsRtPxvY9D0uj0,Sai Sogadu,13.000218391418455,77.55003356933594,restaurant,563,gmaps_v2,1693822790.0,1699615207,9.719604096182993e-05
60760,Priyadarshini Grand,12.9901462968,77.5377672538,restaurant,28000,zomato,1397932200.0,1688639100,9.631694328548789e-05
ChIJUcnzRGc9rjsRVfJU-sT5Q7k,Sri Mahalakshmi catering services,12.971799850463867,77.55703735351562,restaurant,290,gmaps_v2,1696313304.0,1699615207,8.782814031787124e-05
ChIJ1znC6y4WrjsRnHG7-SQMSz8,Veena Stores,13.005661010742188,77.56932067871094,restaurant,17659,gmaps_v2,1496662266.0,1699615207,8.701031831807749e-05
ChIJcRSlmWs9rjsRCn84mtvjlRo,"Maruti Suzuki ARENA (RNS Motors, Bengaluru, Yeshwanthpur)",13.027915954589844,77.54234313964844,coffee_shop,12976,gmaps_v2,1529123792.0,1687847039,8.175235981658062e-05
18480520,Le Arabia,12.9985510623,77.5423340499,restaurant,21700,zomato,1397932200.0,1688639100,7.464563104625312e-05
ChIJscSlML49rjsRFQiyBpjvASo,Priyadarshini Grand Hotel,12.990147590637209,77.53770446777344,restaurant,15889,gmaps_v2,1480953549.0,1699615207,7.266477417819634e-05
18503724,Hotel Karavali Food Point,12.9729712952,77.5399083272,restaurant,20200,zomato,1397932200.0,1688639100,6.948579479881627e-05
ChIJYZr60VEXrjsRMXg1QpIw7bs,Shree Organic world,13.000537872314451,77.57235717773438,coffee_shop,39,gmaps_v2,1687275483.0,1687847039,6.823478364324755e-05
ChIJAV62v3g9rjsRT7TFt6zi4Uk,Orion Mall Food Court,13.011700630187988,77.55490112304688,restaurant,12116,gmaps_v2,1517366013.0,1699615207,6.648040374872659e-05
ChIJRfEI2DoWrjsRknzICVhGETE,Brand Factory Malleshwaram,12.99717903137207,77.57417297363281,shoe_store,13102,gmaps_v2,1476090829.0,1687847039,6.187303786746088e-05
ChIJb7B2tY8XrjsRoPHpsZcjjUU,Geometry Gastropub - New BEL Road,13.036745071411133,77.56599426269531,restaurant,892,gmaps_v2,1685181976.0,1699615207,6.180182386050636e-05
ChIJ1SPqPPE9rjsRF7XhzH3gZ3I,Nalapaka,12.99851131439209,77.55242919921875,restaurant,13513,gmaps_v2,1472731432.0,1699615207,5.9559128897604074e-05
ChIJnRaS0isWrjsRmahk0N6NEd8,Snehajeevi Gowdara EggRice Adda,13.006010055541992,77.56486511230469,restaurant,10756,gmaps_v2,1517994264.0,1699615207,5.9222245090975e-05
ChIJDZzPjDk9rjsR6cjJw-Qgk3k,Green City - Bounce Infinity Showroom,12.99302577972412,77.55625915527344,shoe_store,70,gmaps_v2,1686652756.0,1687847039,5.861257340178166e-05
ChIJv8JObbc9rjsRaaqyA7UOfvo,HOTEL ADITYA,13.003973960876465,77.54351043701172,restaurant,5549,gmaps_v2,1604767043.0,1699615207,5.850403177018798e-05
ChIJzwJpfJkXrjsR9wW-SUOCWrE,"Tandoori Chulha, Asli Punjabi",13.027292251586914,77.57183074951172,restaurant,284,gmaps_v2,1694536841.0,1699615207,5.5923499802889356e-05
ChIJpf2u1XE9rjsRTidHMI5RegU,RMC Yard,13.020758628845217,77.54691314697266,supermarket,11378,gmaps_v2,1494272364.0,1699615207,5.5409771452321814e-05
ChIJZQBieioXrjsRLoEUGOWNg74,New Sudarshan Silks,12.999486923217772,77.56930541992188,clothing_store,679,gmaps_v2,1675241312.0,1687847039,5.386440623376978e-05
ChIJufjTM_M9rjsRE-_5DgJdnm4,"O.G. Variar and Sons, Variar Bakery",12.991384506225586,77.55455780029297,coffee_shop,10273,gmaps_v2,1495442921.0,1687847039,5.3392828109843265e-05
18022248,South Idlis,13.0079430762,77.5564146414,restaurant,15400,zomato,1397932200.0,1688639100,5.297431880701834e-05
18904625,New SLV Gowdru Hindu Miltry Hotel,13.0415634,77.5144934,restaurant,15300,zomato,1397932200.0,1688639100,5.263032972385588e-05
ChIJN-cPipA9rjsRB8rL87mXqHk,Kadamba Veg,12.997715950012209,77.54754638671875,restaurant,11220,gmaps_v2,1485886842.0,1699615207,5.2496541579775804e-05
ChIJO0S5rJI9rjsRRIyE9oedGUg,"O.G. Variar and Sons, Variar Bakery (Branch)",12.98753261566162,77.55013275146484,coffee_shop,9112,gmaps_v2,1511290370.0,1687847039,5.160949202094428e-05
ChIJPV2xqpY9rjsRAw1P4-XAs_o,Kadamba Samrat,12.973115921020508,77.54036712646484,restaurant,962,gmaps_v2,1679830121.0,1699615207,4.8622482611397294e-05
ChIJnYbpfZc9rjsRmxqDBln9H0k,Le Arabia Restaurant Basaveshwar Nagar,12.998469352722168,77.54237365722656,restaurant,9761,gmaps_v2,1496992251.0,1699615207,4.8173218833111884e-05
ChIJ8TsGoqM9rjsR476UrDbdji8,Rich Grills Restaurant Mahalakshmi Layout,13.014739990234377,77.5439453125,restaurant,2498,gmaps_v2,1646561763.0,1699615207,4.70845964307237e-05
ChIJzUtPSPI9rjsRiUpLdevdJ6E,Real Decoration,12.987630844116213,77.55418395996094,home_decor,128,gmaps_v2,1692444748.0,1695212099,4.6253619436059974e-05
ChIJP7XwHwc9rjsRcOwvsBmUHSo,SNACKS The Street Food Cafe,12.995842933654783,77.54012298583984,restaurant,64,gmaps_v2,1698219530.0,1699615207,4.585588212745499e-05
ChIJgzCrIyU9rjsR82dgFTCVaM8,MANDIPETE PALAV VIJAYNAGARA,12.972818374633787,77.5396957397461,restaurant,237,gmaps_v2,1694326385.0,1699615207,4.4811491103311855e-05
ChIJF2yEZCMWrjsR_P9kAMiYUGo,Hyderabad Biryani Hotel,12.99392032623291,77.57134246826172,restaurant,7054,gmaps_v2,1537244023.0,1699615207,4.344366916730742e-05
ChIJ6RTQcSMWrjsRZ6RMINp7IA0,New Krishna Bhavan,12.992972373962402,77.5716552734375,restaurant,8032,gmaps_v2,1513760848.0,1699615207,4.3216635021188825e-05
ChIJg2h2hLY9rjsRI_2R0h4Q6AU,Mahaganapati condiments,12.98858642578125,77.53375244140625,coffee_shop,24,gmaps_v2,1687237129.0,1687847039,3.935006804282599e-05
ChIJmyMs7C8WrjsRI4nLxPcID8o,Food Camp Veg Restaurant & Party Hall,13.00092315673828,77.5723876953125,restaurant,9020,gmaps_v2,1469258993.0,1699615207,3.915674703700418e-05
18418538,Shanthi Sagar,12.9888898209,77.5376277789,restaurant,11300,zomato,1397932200.0,1688639100,3.887076639735761e-05
ChIJJ_pVXGM9rjsR6RJzJIZf7XI,Priyadarshini Veg,13.023111343383787,77.556640625,restaurant,8153,gmaps_v2,1488310730.0,1699615207,3.858413279146944e-05
ChIJHSEbZec9rjsRurDKrQvxrqw,Kapoor's Cafe Rajajinagar,12.999500274658203,77.55237579345703,restaurant,2001,gmaps_v2,1645462426.0,1699615207,3.695101088160181e-05
ChIJVVVVxXQ-rjsR3rUjTglWt9o,New Shanthi Sagar,12.973347663879396,77.54200744628906,restaurant,8068,gmaps_v2,1478408474.0,1699615207,3.647266921120344e-05
ChIJDS-SHywWrjsRDBQF0MjuQEE,1947 Restaurant,13.005684852600098,77.56892395019531,restaurant,7808,gmaps_v2,1481126503.0,1699615207,3.573640127409058e-05
ChIJJ7xGhfo9rjsRfceU-8d7BdM,MAYURA 1989 Bar & Kitchen,12.975768089294434,77.5526351928711,restaurant,5855,gmaps_v2,1535424353.0,1699615207,3.5659720729633335e-05
ChIJQzTjFzEXrjsR0iH-McMfZ3Q,Glen's Bakehouse BEL Road,13.02823257446289,77.57266998291016,restaurant,1147,gmaps_v2,1655292520.0,1687847039,3.5233203722039326e-05
61641,Savi Sagar,12.9902152297,77.5719898939,restaurant,10200,zomato,1397932200.0,1688639100,3.508688648257059e-05
ChIJ80ENaSgWrjsRrODlwYx7P10,Sri Raghavendra Stores,13.00074577331543,77.56378173828125,restaurant,6395,gmaps_v2,1516093491.0,1699615207,3.484601244683218e-05
ChIJB71YNfs9rjsRxtSJ3c7oHR8,Himadri Ice Creams,12.986368179321287,77.55574035644531,coffee_shop,421,gmaps_v2,1675761194.0,1687847039,3.4834138614221845e-05
ChIJ9e9PrIQ9rjsRQSCds-ay0w0,New Sagar Fast Food And Family Restaurant,13.004195213317873,77.55068969726562,restaurant,7451,gmaps_v2,1482126029.0,1699615207,3.425917587494859e-05
ChIJmzdUidwXrjsRCRUnfuPzFwk,Onesta,13.0292329788208,77.57087707519531,restaurant,7031,gmaps_v2,1486528035.0,1699615207,3.2995885833990984e-05
ChIJUVE05F89rjsRHv3T0j6Y4zI,Thalassery Restaurant,13.030168533325195,77.56221771240234,restaurant,7147,gmaps_v2,1480775168.0,1699615207,3.2658557513782933e-05
ChIJVcCXqyMWrjsR9g-B0aHQ2y8,Shiv Sagar,12.991619110107422,77.57030487060547,restaurant,5404,gmaps_v2,1529725021.0,1699615207,3.180878264504343e-05
ChIJE5RErWE9rjsR81kXD3rvkms,Ootada mane,13.030508995056152,77.55986022949219,restaurant,6434,gmaps_v2,1488560311.0,1699615207,3.0484959704512137e-05
18642512,Stories Bar & Kitchen,13.0085235727,77.5492112339,restaurant,8852,zomato,1397932200.0,1688639100,3.044991364154067e-05
ChIJkyIwMSYWrjsRdrp4aJ6Z7xQ,Brahmins' Thatte Idli,13.008134841918944,77.56383514404297,restaurant,6235,gmaps_v2,1490196164.0,1699615207,2.9772841622621684e-05
ChIJm311mTkWrjsRbZczHVyCYbI,Umesh Dosa Point,12.988937377929688,77.57752990722656,restaurant,5191,gmaps_v2,1525010103.0,1699615207,2.972994420598381e-05
ChIJ7ZRjT50XrjsRvSu6Iq4fozY,Udupi Sri Krishnarajathadri (USKR),13.004132270812988,77.57140350341797,restaurant,406,gmaps_v2,1685865600.0,1699615207,2.952811669453534e-05
ChIJbZ1UMP8XrjsRNU_MI1nKHBk,Shiv Sagar Express,13.0281400680542,77.57213592529297,restaurant,4175,gmaps_v2,1552402863.0,1699615207,2.836039347352556e-05
ChIJRa50lBcWrjsRgmmpCrmHqcw,Sanman Restaurant,12.986434936523438,77.57479858398438,restaurant,5345,gmaps_v2,1504277356.0,1699615207,2.7362848381085137e-05
ChIJ2eHoGBQXrjsR4EEjU5xHjfE,Bharjari Bhojana,12.99790382385254,77.5712890625,restaurant,565,gmaps_v2,1678692029.0,1699615207,2.70035460196343e-05
ChIJAQAAQDAWrjsR7LcDY1uvLfk,Sapna Book House,13.005184173583984,77.5787124633789,shoe_store,5305,gmaps_v2,1489985970.0,1687847039,2.6811742334213307e-05
ChIJcx5ZaAE9rjsRK3AASayHGeI,The illusion Cafe,12.997389793395996,77.5482177734375,restaurant,2214,gmaps_v2,1616951355.0,1699615207,2.678316998825557e-05
ChIJMVE9iWA9rjsRLqEA5KcqN5w,Sri Gurudarshan Sweets,13.032292366027832,77.55880737304688,coffee_shop,2119,gmaps_v2,1607686244.0,1687847039,2.6434368571319682e-05
18937506,Om Meals & Paratha Junction,13.0308077943,77.5622615218,restaurant,7559,zomato,1397932200.0,1688639100,2.6002134796250106e-05
ChIJE1jxxuo9rjsRFtrS-l0yIXs,Cave-n-Dine,12.986312866210938,77.5405502319336,restaurant,5514,gmaps_v2,1485278858.0,1699615207,2.5725921084901935e-05
ChIJbT3b7Zw9rjsRuMBLy88Mixc,Hot Coffee,13.006217002868652,77.54850769042969,restaurant,4467,gmaps_v2,1525326329.0,1699615207,2.5629862623821584e-05
ChIJCbFs_WEXrjsRB7Nu-guxPNE,Basaveshwar Khanavali (The Original),12.999329566955566,77.57225036621094,restaurant,2469,gmaps_v2,1603015042.0,1699615207,2.5558962554567066e-05
ChIJu7j4OQQ9rjsRJtQgvCAjn0U,House Of Raadhya,12.988388061523438,77.53773498535156,clothing_store,182,gmaps_v2,1680690530.0,1687847039,2.543139399391519e-05
ChIJ1aDbcp49rjsRkupabM43oKk,Davangere Butter Dosa Hotel,13.00857639312744,77.54385375976562,restaurant,4303,gmaps_v2,1529573742.0,1699615207,2.5305592374189437e-05
ChIJxa6khY89rjsRmTG3TXrGxkU,Jalpaan,12.998848915100098,77.552490234375,restaurant,5359,gmaps_v2,1482240795.0,1699615207,2.4653315680964326e-05
55943,Soundarya Paradise,13.0427185235,77.5130624324,restaurant,7051,zomato,1397932200.0,1688639100,2.4254670253784825e-05
ChIJ1UhU1Ow9rjsRtp62CQE_bdE,"Maruti Suzuki ARENA (Mandovi Motors, Bengaluru, Basaveshwara Nagar)",12.984569549560549,77.54720306396484,coffee_shop,3624,gmaps_v2,1534478689.0,1687847039,2.362938637600261e-05
ChIJezFY_XkXrjsRtFax4I97jO4,A Blooming Onion - Yellow Box,13.00407600402832,77.55380249023438,restaurant,80,gmaps_v2,1696158032.0,1699615207,2.3140280720530492e-05
18487171,Tripti Hotel & Restaurant,13.0335597414,77.5662985817,restaurant,6704,zomato,1397932200.0,1688639100,2.3061028135211102e-05
ChIJA-atQSwWrjsRjAlLxuXrxIE,WallPlays Wallpaper,12.997588157653809,77.57246398925781,home_decor,1753,gmaps_v2,1619114951.0,1695212099,2.3036342965179193e-05
ChIJf7Re8X49rjsRiSmwhlnOzGE,Mathura silks and sarees,13.010955810546877,77.5505142211914,clothing_store,507,gmaps_v2,1665823533.0,1687847039,2.3020857805292218e-05
18426395,Sultan Rolls & Sandwiches,13.030082647,77.5629293919,restaurant,6655,zomato,1397932200.0,1688639100,2.2892473484461498e-05
ChIJaQKjvpU9rjsRIrMVoigCfY4,Basaveshwaranagar Benne Dose Corner,12.991209030151367,77.54071807861328,restaurant,4927,gmaps_v2,1483676599.0,1699615207,2.2816670189890268e-05
ChIJ00TElAw9rjsRK8FetE3TiHM,Brahmins thatte idli,12.986205101013184,77.54153442382812,restaurant,3066,gmaps_v2,1564280392.0,1699615207,2.265492438143134e-05
ChIJIX47M-MXrjsRwACeNJ66MOk,Cotton Candy Station,12.981293678283691,77.56309509277344,restaurant,13,gmaps_v2,1687261031.0,1687847039,2.21839974880889e-05
ChIJH3nBqic9rjsRIlUAw-f5kHU,Savi Sagar (Pure Veg),13.040122032165527,77.5188980102539,restaurant,3573,gmaps_v2,1537957979.0,1699615207,2.2102321338826868e-05
18688104,Nando's,13.0113175808,77.555010505,restaurant,6373,zomato,1397932200.0,1688639100,2.192242426994337e-05
ChIJR2UarWE9rjsRfjN9VwgTyUs,Sri Guru Darshan Sweets And Chats,13.0303955078125,77.5595932006836,restaurant,1827,gmaps_v2,1616254701.0,1699615207,2.1916853527736503e-05
ChIJERJ4i4wXrjsRELyqYLI2Q7c,Mahaveer Gift & Home Gallery,12.999629020690918,77.57063293457031,home_decor,520,gmaps_v2,1671345058.0,1695212099,2.17873677763406e-05
ChIJQ3TL_Gc9rjsRViYNQR-WP3A,TKS Iyengars Restaurant,12.991666793823242,77.53694152832031,restaurant,2911,gmaps_v2,1565405627.0,1699615207,2.1689956857029132e-05
19476422,Kadak Biryanis & Grill,13.02926,77.56132,restaurant,6171,zomato,1397932200.0,1688639100,2.1227566321955207e-05
ChIJYTZqxO09rjsRNghCRQUplz4,1947 Restaurant,12.983565330505373,77.54876708984375,restaurant,4796,gmaps_v2,1472413742.0,1699615207,2.1109018817286234e-05
ChIJVclKFW8XrjsR4jaor_D48Vw,The LightHouse Restaurant,13.02814483642578,77.57213592529297,restaurant,3125,gmaps_v2,1549035931.0,1699615207,2.0753187842396056e-05
ChIJm8ZSvGg9rjsRHpI3UEFnTk4,Cafe kannadathi,12.972200393676758,77.53895568847656,coffee_shop,40,gmaps_v2,1685900256.0,1687847039,2.054671732802269e-05
ChIJAbUUDI89rjsRBJo0nkxADK8,Shree Sai Dosa Center,12.997451782226562,77.55377197265625,restaurant,3256,gmaps_v2,1540787187.0,1699615207,2.050016111766677e-05
50948,Swathi,12.9978983449,77.5501781702,restaurant,5959,zomato,1397932200.0,1688639100,2.0498309465650797e-05
ChIJ-zXh6y8WrjsRooiiXVMuhQs,Shuchi Ruchi Veg,13.001180648803713,77.57237243652344,restaurant,4484,gmaps_v2,1478998986.0,1699615207,2.0324888077926055e-05
51310,Food Zone,12.9880103493,77.5379684195,restaurant,5895,zomato,1397932200.0,1688639100,2.0278156452426824e-05
ChIJeRiDtF49rjsROryabg3tHPk,New Agarwal Bhavan,13.030433654785156,77.5602035522461,restaurant,4532,gmaps_v2,1476012492.0,1699615207,2.02680902152731e-05
ChIJ57wCQY49rjsR1Rr26UAuA2w,Sri Maruthi Hotel,12.994950294494627,77.55210876464844,restaurant,3504,gmaps_v2,1523677604.0,1699615207,1.9916151750686294e-05
ChIJj32hHqg9rjsRuwW-eMpt1nY,Sri Krishna Bhavan Laggere,13.008848190307615,77.52645874023438,restaurant,3351,gmaps_v2,1530419766.0,1699615207,1.9805498187152692e-05
ChIJOY55h5o9rjsRS4IfDatxyxo,Costume bank,12.986288070678713,77.55412292480469,jewelry_store,1057,gmaps_v2,1634401105.0,1687847039,1.9776995570888518e-05
ChIJx5cV9zMWrjsRhBg0619cyH4,Mint Masala,13.006962776184082,77.57891082763672,restaurant,3913,gmaps_v2,1501304405.0,1699615207,1.973165334685097e-05
ChIJvzM0HHA9rjsRIPH9cBs24AM,Hotel NGT Nonveg,12.972601890563965,77.53884887695312,restaurant,522,gmaps_v2,1672989091.0,1699615207,1.960481205745517e-05
ChIJ4048brYXrjsRc1DdDMy0YDM,Swa Diamonds Bengaluru,12.98161506652832,77.56318664550781,jewelry_store,32,gmaps_v2,1686210626.0,1687847039,1.955496564742519e-05
ChIJOatuti0WrjsRwdj9oZrG5D4,Malleshwaram Dose Corner,13.007076263427734,77.57096862792969,restaurant,3282,gmaps_v2,1530517600.0,1699615207,1.9408908607441145e-05
ChIJNTptIjkWrjsRHAmI3yRH5qc,Gullu's Chaats,12.992464065551758,77.57816314697266,restaurant,4782,gmaps_v2,1448957754.0,1699615207,1.9077828896633684e-05
ChIJEzJXCdg9rjsRk4P28JliJes,Raj Benne Dose,13.00924301147461,77.53663635253906,restaurant,165,gmaps_v2,1690952132.0,1699615207,1.9046354787416707e-05
18541087,Shahi Taj,13.0434593118,77.5116502494,restaurant,5494,zomato,1397932200.0,1688639100,1.8898760228945376e-05
ChIJt0lw4WE9rjsRtraHplE4spc,Udupi Garden,13.028868675231934,77.56178283691406,restaurant,3687,gmaps_v2,1504169400.0,1699615207,1.8864564334194183e-05
ChIJM8wMmSUWrjsRFedJCH71RW4,Iyer Mess,12.998804092407228,77.5700912475586,restaurant,3947,gmaps_v2,1487911006.0,1699615207,1.864393801046962e-05
ChIJARvbhz89rjsRwCiv29rWdl0,The Walkin 'Wardrobe,13.024553298950195,77.55723571777344,clothing_store,30,gmaps_v2,1686235290.0,1687847039,1.8613320064104275e-05
ChIJoRt-4GE9rjsRxlufDZNyu2s,Chandrappa Hotel,13.02924346923828,77.56175231933594,restaurant,4009,gmaps_v2,1482846551.0,1699615207,1.849437125264088e-05
ChIJ-ZD1ybAXrjsRwZqDo5JWRVA,"Isha's- Jockey , Enamor, Amante and Speedo",13.0279541015625,77.5723876953125,clothing_store,184,gmaps_v2,1677834298.0,1687847039,1.8376586391278872e-05
19154908,TKS Iyengars,12.9916784963,77.5368690491,restaurant,5326,zomato,1397932200.0,1688639100,1.8320858569232447e-05
ChIJJQtHaYAXrjsRgmsCioLrhxE,Restaurant1179,12.993618965148926,77.5809097290039,restaurant,1029,gmaps_v2,1643121929.0,1699615207,1.8214556429173752e-05
ChIJj6Qhx789rjsRFkdNaprir5E,"Shanthi Sagar, Basaveshwara nagar",12.988896369934082,77.53787994384766,restaurant,3700,gmaps_v2,1495721892.0,1699615207,1.8146745026927438e-05
ChIJtxy6kIAXrjsRHu1hTEBEii0,IDC Kitchen,13.027929306030272,77.57295989990234,restaurant,1564,gmaps_v2,1612407860.0,1699615207,1.7934268772102425e-05
ChIJ02FpnOEXrjsRS3GiiKa-APc,Akshaya Deluxe,13.03740692138672,77.56542205810547,restaurant,3887,gmaps_v2,1481118365.0,1699615207,1.7789730800777432e-05
56680,Bombay Vada Pav Corner,12.990413534,77.5745520741,restaurant,5149,zomato,1397932200.0,1688639100,1.7711997892034897e-05
ChIJz-Z9HPYXrjsRPG0daJR5_SM,The Goofy's Cafe,13.02869987487793,77.57179260253906,restaurant,63,gmaps_v2,1696010984.0,1699615207,1.747949558060087e-05
ChIJx16fj3o9rjsREDa02BJgz7U,HOTEL AASARE,13.01919651031494,77.55099487304688,restaurant,2446,gmaps_v2,1559450418.0,1699615207,1.7450887754698506e-05
18418561,Absolute Chinese,13.0070434183,77.5547198206,restaurant,5070,zomato,1397932200.0,1688639100,1.744024651633656e-05
ChIJI1WYDD0WrjsRRws2KRDujNY,Chikkanna Tiffin Room,12.99061679840088,77.57585144042969,restaurant,3354,gmaps_v2,1505619230.0,1699615207,1.7289018318147905e-05
ChIJn4J9d9c8rjsRu5uAAqOo5Fc,New Agarwal Bhavan,13.041831970214844,77.51543426513672,restaurant,3796,gmaps_v2,1479575074.0,1699615207,1.7251398407398707e-05
ChIJyRSTjSUWrjsRRn-tfe-e5Gs,Sai Shakti Vegetarian,12.999273300170898,77.56810760498047,restaurant,3790,gmaps_v2,1479577571.0,1699615207,1.722432611482883e-05
ChIJ4zF0lOc9rjsRNfaJAGw9Kvg,Shyamji's Chole Bhature - Rajajinagar,12.987220764160156,77.55094909667969,restaurant,816,gmaps_v2,1651642193.0,1699615207,1.700956291801887e-05
ChIJGTHhXlYXrjsR1Z_hrBIRT5o,Shyamji's Chole Bhature - Malleshwaram,13.001079559326172,77.57205200195312,restaurant,289,gmaps_v2,1682360268.0,1699615207,1.6748827683482393e-05
ChIJeQfyntwXrjsRl-wJmINrw0k,Leon's Burgers & Wings - New BEL Road,13.02843952178955,77.57180786132812,restaurant,2948,gmaps_v2,1522646877.0,1699615207,1.6658347852409524e-05
ChIJL-ENcCUWrjsR-Ai7qF8DRWg,Hotel Janatha,12.999115943908691,77.5711441040039,restaurant,3325,gmaps_v2,1498988832.0,1699615207,1.6573095137665722e-05
ChIJeay0qic9rjsRvimlcztvpZc,Grill Biryanis,13.040061950683594,77.5189437866211,restaurant,3202,gmaps_v2,1505099784.0,1699615207,1.6461419617096377e-05
ChIJb4DkRyoWrjsRBpez9WqmJJA,Sri Sai Ram Chats and Juice(since 2002),13.005456924438477,77.57237243652344,restaurant,3654,gmaps_v2,1473055326.0,1699615207,1.612818643738606e-05
ChIJbbBa2HA9rjsRiFI1ridaJdA,Dakshin Delicacy,13.031956672668455,77.53380584716797,restaurant,2321,gmaps_v2,1555510292.0,1699615207,1.610632087045747e-05
ChIJq7ZtCvE9rjsR0mK1ZbQBhu8,Malgudi's Donne Biryani Mathikere,13.03007984161377,77.55950927734375,restaurant,2075,gmaps_v2,1570554403.0,1699615207,1.607769311587428e-05
ChIJ192RM_M9rjsRb0GLPfZKug8,FOOD CAMP VEG RESTAURANT & PARTY HALL,12.987605094909668,77.5544662475586,restaurant,3395,gmaps_v2,1487236801.0,1699615207,1.5985617671506583e-05
ChIJW26e-r4XrjsRBUbAqenMdZc,Papa Pho,13.034647941589355,77.5678939819336,restaurant,137,gmaps_v2,1691042168.0,1699615207,1.598033089549692e-05
61649,Punjab Mail,12.9984465231,77.5694226846,restaurant,4626,zomato,1397932200.0,1688639100,1.591293498709525e-05
ChIJO-HQRbkXrjsR9dghF3pguXo,Bengalore Cafe,12.98711109161377,77.57846069335938,restaurant,699,gmaps_v2,1654505483.0,1699615207,1.549555036071602e-05
18856915,UBQ By Barbeque Nation,12.9832921204,77.5601382181,restaurant,4504,zomato,1397932200.0,1688639100,1.5493268305637052e-05
19291884,Mandya Nati Style,12.96906077,77.5443373248,restaurant,4491,zomato,1397932200.0,1688639100,1.5448549724825934e-05
ChIJTYzAXCoWrjsRhH5AYjDN_D4,Bun World,13.009057998657228,77.56279754638672,coffee_shop,2601,gmaps_v2,1517915186.0,1687847039,1.53061356895814e-05
19286677,Udupi Ruchi Grand,13.0219788189,77.5333134457,restaurant,4445,zomato,1397932200.0,1688639100,1.5290314746571204e-05
18581089,Punjab Grill,13.0108435849,77.554223612,restaurant,4445,zomato,1397932200.0,1688639100,1.5290314746571204e-05
ChIJBzFXUfY9rjsRDTvfLINIZhQ,Shree Janani Veg,12.998261451721191,77.55084228515625,restaurant,866,gmaps_v2,1642217225.0,1699615207,1.5087638446940521e-05
ChIJw3pgyJs9rjsRhNoiivQv0-U,The Delhi Ritual,13.002317428588867,77.55267333984375,restaurant,1012,gmaps_v2,1631448786.0,1699615207,1.4846019273917872e-05
18732665,Barbecue By Punjab Grill,12.9913008378,77.5704563409,restaurant,4225,zomato,1397932200.0,1688639100,1.4533538763613798e-05
ChIJfWxLMyA9rjsRZi-w5D57cFc,Crepito,12.997391700744627,77.54486846923828,restaurant,1365,gmaps_v2,1605444698.0,1699615207,1.4494983774591257e-05
ChIJF_rAstU_rjsREsu01_WjXao,Ride Adventure Bike Accessories Bangalore,12.96753215789795,77.54519653320312,shoe_store,517,gmaps_v2,1652019816.0,1687847039,1.4430367656460564e-05
ChIJMUVg6VQ9rjsRFp2N-JaL3c8,Apmc Market,13.015931129455566,77.54524993896484,supermarket,2461,gmaps_v2,1515001746.0,1687847039,1.4238166150118998e-05
ChIJj5EFv_8XrjsRwm3n_NxMdh4,Bhavani Koffee (Roastery),12.998908042907717,77.57052612304688,coffee_shop,195,gmaps_v2,1674118905.0,1687847039,1.4204406804304211e-05
ChIJszSXRyoWrjsRh7m8fjz5R94,Sri Sairam's Chats & Juice Centre,13.003750801086426,77.56539154052734,restaurant,2031,gmaps_v2,1556277252.0,1699615207,1.416931056397449e-05
ChIJDRPAZDkWrjsRa-bvwYCo9J4,Sagarfab International,12.996732711791992,77.5795669555664,clothing_store,936,gmaps_v2,1621746507.0,1687847039,1.4160249118721162e-05
ChIJQ8nRqGE9rjsRQ73Srv2-Qbo,New Swathi Grand Mathikere,13.02992057800293,77.55940246582031,restaurant,2535,gmaps_v2,1518977258.0,1699615207,1.4033596008112337e-05
ChIJ3yfg0vY9rjsRPfqcwWUdWNk,namma oora cafe,12.98607349395752,77.54541015625,restaurant,13,gmaps_v2,1698684774.0,1699615207,1.397198938558714e-05
ChIJLR2L7JMXrjsRDuqOjLK1D44,Pind Balluchi Mantri Square Mall Malleshwaram Bangalore,12.991962432861328,77.57048034667969,restaurant,387,gmaps_v2,1671897000.0,1699615207,1.3961942054909974e-05
ChIJH9vkT1EXrjsRHtHiOGSxhn4,Santa Banta Ke Parathey - Mathikere,13.03018856048584,77.5628433227539,restaurant,123,gmaps_v2,1690801359.0,1699615207,1.3955312140622348e-05
ChIJ9wB3_n0WrjsRVZLJfdrH9Xc,Hotel Moon Light,12.996585845947266,77.56890869140625,restaurant,2813,gmaps_v2,1495862114.0,1699615207,1.3805925390295793e-05
18487189,Cream Stone Ice Cream,13.027880081,77.5740897283,restaurant,3996,zomato,1397932200.0,1688639100,1.3745803763171772e-05
ChIJ2dnNaZM9rjsRnqh5mBFOwKo,South Spicy Bites,12.988910675048828,77.54572296142578,restaurant,2938,gmaps_v2,1484805389.0,1699615207,1.3677214697886854e-05
ChIJ3-QuEfM9rjsR1OJjMvnS-h0,New Shanti Sagar,12.98605251312256,77.5543441772461,restaurant,2944,gmaps_v2,1483278237.0,1699615207,1.3608399895773709e-05
19466150,Srinivasa Miltry Hotel,13.0415903523,77.5144705921,restaurant,3955,zomato,1397932200.0,1688639100,1.3604768239075164e-05
18989809,Antarastriya,12.9992844688,77.5493165106,restaurant,3931,zomato,1397932200.0,1688639100,1.3522210859116175e-05
ChIJUfeY__sXrjsRVpZsCfpt9ho,Scoops Of Mangalore,13.006793022155762,77.5643539428711,coffee_shop,45,gmaps_v2,1684513162.0,1687847039,1.3497798509063172e-05
ChIJM-Y6GuEXrjsR_llw_wl7SFs,Shanthi Sagar,13.036905288696287,77.56590270996094,restaurant,2908,gmaps_v2,1482718379.0,1699615207,1.3407296117765263e-05
ChIJJwodOrk9rjsRE85-hQJY0r8,Hanumanthu Palav Biryani Restaurants - Basaveshwaranagar,12.986978530883787,77.53721618652344,restaurant,1924,gmaps_v2,1556011024.0,1699615207,1.3397938415206193e-05
ChIJjXFkpr49rjsRtIlC_35H2Cg,ayodhya sagar,12.99241542816162,77.53397369384766,restaurant,2334,gmaps_v2,1522816780.0,1699615207,1.3201474920362273e-05
ChIJ-V2_kO89rjsRXNJX4_YssjI,Cafe 363,13.003437042236328,77.54983520507812,coffee_shop,140,gmaps_v2,1677162771.0,1687847039,1.3103377788726378e-05
ChIJ_Znegx0VrjsRZGyRfKozL_I,North Wind Restaurant,12.99816608428955,77.58151245117188,restaurant,2838,gmaps_v2,1481642322.0,1699615207,1.3019968057036085e-05
ChIJXZgbtyIWrjsR1Ac98wCit2k,Tasty Paradise - Veg and Non Veg Restaurant in Malleswaram,12.989962577819824,77.57272338867188,restaurant,1839,gmaps_v2,1558169802.0,1699615207,1.3001482798257038e-05
ChIJ2ZOJXjwWrjsRgw_LR_qOcQc,HVR VEG,12.99386978149414,77.57752227783203,restaurant,2255,gmaps_v2,1525749079.0,1699615207,1.2969748771307543e-05
ChIJByMbvz8XrjsR0N0N5AGRObE,Eat Raja Juice Bar,13.00479221343994,77.57127380371094,restaurant,1651,gmaps_v2,1570693252.0,1699615207,1.2806197361806994e-05
ChIJs8wwWdcXrjsRi4Ku3h5KT5w,Nesara Restaurant,13.016630172729492,77.56504821777344,restaurant,2794,gmaps_v2,1480351595.0,1699615207,1.2742652437924812e-05
ChIJ5aHubbY9rjsRRAp9IDlkaxY,SHRI KRISHNA VAIBHAVA,12.988388061523438,77.5349349975586,restaurant,36,gmaps_v2,1696770576.0,1699615207,1.2655419982415996e-05
ChIJwfsoiYA9rjsR_mKZO5iK2tY,Frozen Coast,13.00759506225586,77.56089782714844,coffee_shop,2309,gmaps_v2,1501684670.0,1687847039,1.240315114382757e-05
55570,Have More,13.0271408793,77.5717857108,restaurant,3604,zomato,1397932200.0,1688639100,1.2397366557174942e-05
54663,Sattvam,13.0058324358,77.5808408484,restaurant,3585,zomato,1397932200.0,1688639100,1.2332008631374075e-05
ChIJa0ILduc9rjsR_qS3BmeMyQI,Hotel Prakruti,12.972304344177246,77.54084014892578,restaurant,2269,gmaps_v2,1513491333.0,1699615207,1.219080578561351e-05
ChIJYajq0qc9rjsRzODwgG24faI,Sri Shivanandi Mushroom Donne Biriyani House,12.991118431091309,77.54142761230469,restaurant,160,gmaps_v2,1686474786.0,1699615207,1.2176170002467958e-05
ChIJ51KTU8E9rjsRfYSB1Rm-R9Q,Rajanna Military Hotel vijayanagar,12.98158359527588,77.53350830078125,restaurant,2150,gmaps_v2,1522953371.0,1699615207,1.2170144093826808e-05
ChIJ8TLdqO09rjsRG6Z1LkuKUIY,Naren Electrix Company,12.980668067932127,77.54629516601562,coffee_shop,777,gmaps_v2,1623895075.0,1687847039,1.2149744142337834e-05
ChIJ7S_SzxUWrjsRQKx41ijncvo,Sea Rock,12.986772537231444,77.57952880859375,restaurant,2584,gmaps_v2,1485762525.0,1699615207,1.208308437300777e-05
ChIJ60l58209rjsRTRq7HRAUhzA,Sri Raghavendra Vaibhava,13.028841972351074,77.56121826171875,restaurant,84,gmaps_v2,1692645871.0,1699615207,1.2052798143180354e-05
ChIJsaNvOekXrjsRKlsuKU75Mm0,M. S. Dose Corner,13.027873992919922,77.57170867919922,restaurant,319,gmaps_v2,1673070264.0,1699615207,1.2017354868684404e-05
ChIJSavsw-g9rjsRj1lH0N13bjg,Cariappa Curry Company,13.004449844360352,77.55325317382812,restaurant,170,gmaps_v2,1685370857.0,1699615207,1.1934556508369985e-05
ChIJMQWSQIwXrjsRIkM1m9ajJIQ,Grub Monkeys New BEL Road,13.029147148132324,77.57117462158203,restaurant,791,gmaps_v2,1632142949.0,1699615207,1.172333672307217e-05
ChIJwU6gtW49rjsRWLODyUkDOPc,Raithana Aramane,13.042901039123535,77.51439666748047,restaurant,581,gmaps_v2,1649691640.0,1699615207,1.1637790224404439e-05
ChIJGxokyYcXrjsR8RMwuarJHys,Ulta Tawa,13.031869888305664,77.5698013305664,restaurant,791,gmaps_v2,1631531471.0,1699615207,1.1618046342227754e-05
ChIJ7wRLYMY9rjsRBlZ-ey3daq0,Attire,12.99773406982422,77.55158996582031,clothing_store,79,gmaps_v2,1681041944.0,1687847039,1.160894888315299e-05
ChIJN3K3XCUWrjsR3xeBpx9svIM,Chandus Deluxe Hotel,12.999199867248535,77.57227325439453,restaurant,2448,gmaps_v2,1486972222.0,1699615207,1.1512253743051999e-05
ChIJfQhSczkWrjsRKtJL-EhCG7o,Prashanth Grand,12.99722671508789,77.58064270019531,restaurant,2320,gmaps_v2,1496989911.0,1699615207,1.144970566754903e-05
ChIJq6qqqpY9rjsR1aQuiUuu2Xw,Nisarga,12.988988876342772,77.53791046142578,restaurant,2531,gmaps_v2,1478017848.0,1699615207,1.1421616265742589e-05
ChIJocLqnCQWrjsRxKZBW8o4kao,Donne Biryani House,12.99465274810791,77.5713882446289,restaurant,2057,gmaps_v2,1518800796.0,1699615207,1.1376305619799298e-05
ChIJS5dJlZA9rjsRKpxUeEtPSDU,Kadai Restaurant,12.997364044189451,77.54566192626953,restaurant,2170,gmaps_v2,1506499728.0,1699615207,1.1236799925292369e-05
ChIJUSlY_PI9rjsR0T-blgHecuU,Shantala Icecreams - ಶಾಂತಲಾ ಐಸ್ ಕ್ರೀಮ್ಸ್,12.98547649383545,77.55310821533203,coffee_shop,935,gmaps_v2,1604408461.0,1687847039,1.1205847731489383e-05
ChIJ_____4w9rjsRz78L9FC-Y2E,"Bulwark(Authorized dealer for mt helmets, Viaterra, Korda & Solace jackets & gloves, Riding Gear)",12.990527153015137,77.55801391601562,clothing_store,1737,gmaps_v2,1532530212.0,1687847039,1.118359184610435e-05
ChIJUf5TWecXrjsRERm0JlZ6boM,Itsy Bitsy,13.030244827270508,77.57048034667969,jewelry_store,1860,gmaps_v2,1520005444.0,1687847039,1.1081877528630493e-05
ChIJ0U-nvUc9rjsRpvGczRHcONA,Maruti Dresses,13.00826644897461,77.52567291259766,clothing_store,18,gmaps_v2,1686222445.0,1687847039,1.107969129517898e-05
ChIJb7IbxjAWrjsRM3BNm1pza-U,Hotel Ayodhya Upahar,13.00197410583496,77.57832336425781,restaurant,2007,gmaps_v2,1517644471.0,1699615207,1.1029245933258192e-05
52310,The Fast Food,13.008878338,77.5632770732,restaurant,3205,zomato,1397932200.0,1688639100,1.102485011535674e-05
18892261,Paradise Cafe,13.0153045331,77.5292535871,restaurant,3193,zomato,1397932200.0,1688639100,1.0983571425377244e-05
ChIJBVxm4Jg9rjsRITfbMzPu_44,Karnataka Biryani Point,13.000999450683594,77.53697204589844,restaurant,1509,gmaps_v2,1561375401.0,1699615207,1.091581392988934e-05
18515580,Frozenheit⁶,13.0042656959,77.5492732599,restaurant,3162,zomato,1397932200.0,1688639100,1.0876934809596883e-05
ChIJy9IiU9sXrjsRgIkOtfCkHGs,Smoke - The Sizzler House,13.027888298034668,77.57334899902344,restaurant,1878,gmaps_v2,1525874369.0,1699615207,1.0809203072912542e-05
ChIJDRkmgRAXrjsRhqNa3k9gRXo,Kamat Aahaar Veg Restaurant - Malleshwaram,12.994159698486328,77.5711669921875,restaurant,464,gmaps_v2,1656475028.0,1699615207,1.0755634555897415e-05
ChIJb0fMPSwWrjsRdpbRbGluIT0,Chung's Chinese Corner,13.00655746459961,77.56929016113281,restaurant,2643,gmaps_v2,1452280529.0,1699615207,1.0685925731773043e-05
52713,1522 - The Pub,13.0079443829,77.5571096689,restaurant,3088,zomato,1397932200.0,1688639100,1.0622382888056665e-05
ChIJW_EnO3Q9rjsRUHgdPw7JUB4,SAI GURU VEG,13.013792037963867,77.54388427734375,restaurant,1538,gmaps_v2,1554702467.0,1699615207,1.0613283552571016e-05
ChIJS9eNdt0XrjsRVzdLQOA9jR4,Pulusu Bengaluru,13.035791397094728,77.56690216064453,restaurant,632,gmaps_v2,1640014440.0,1699615207,1.0603890382820074e-05
ChIJJQWAICo9rjsRCpMipsfa6Xs,GOT Café,13.000571250915527,77.54932403564453,coffee_shop,261,gmaps_v2,1663160458.0,1687847039,1.0572545465084857e-05
ChIJ7WgUesMXrjsR9pbUmigTNg0,Mulbagal Dosa Vasavi Food Point,13.000995635986328,77.57183074951172,restaurant,331,gmaps_v2,1668262114.0,1699615207,1.055717214247411e-05
ChIJGYOBbzQ9rjsRSGgZNK8QpmE,Thalassery restaurant,13.04106330871582,77.51764678955078,restaurant,176,gmaps_v2,1682771426.0,1699615207,1.0448960361097072e-05
ChIJA2nT54E9rjsRVLFOPFd4qIA,Aadhunik Packers and Movers,13.021766662597656,77.53712463378906,home_decor,61,gmaps_v2,1689326090.0,1695212099,1.0363558737337983e-05
ChIJaWOrpDEWrjsRS7ua0baF-wI,Pakwan,13.003518104553224,77.57831573486328,restaurant,2569,gmaps_v2,1448782173.0,1699615207,1.0241872687311193e-05
ChIJkcHLqDkWrjsRh_wh1UaxkOQ,Gundappa Donne Biryani,12.997796058654783,77.58141326904297,restaurant,1800,gmaps_v2,1511350284.0,1687847039,1.0198487785228685e-05
ChIJa74DQqE9rjsRazEjcdJe4ZQ,MANGALORE LUNCH HOME,12.998245239257812,77.54644775390625,restaurant,1220,gmaps_v2,1579446446.0,1699615207,1.0152388939085425e-05
ChIJm10ysS57tzsRmKvqfY28oEo,Aura Jewels,13.003982543945312,77.55075073242188,jewelry_store,965,gmaps_v2,1590933035.0,1687847039,9.95728130271039e-06
ChIJ0w1Liz0WrjsR68XTCPGJpVo,Amma's Brahmin Cafe (Popularly known as ABC),12.989221572875977,77.57764434814453,restaurant,1897,gmaps_v2,1509033787.0,1699615207,9.953751000491024e-06
ChIJrVVxZ-Y9rjsRuOtwx8Z_OeM,Hot Coffee,12.973706245422363,77.54338073730469,restaurant,1997,gmaps_v2,1498829240.0,1699615207,9.945914198276616e-06
ChIJC-FO0pc9rjsR30Stz09GXl4,Nammura Upachara,12.99578094482422,77.53963470458984,restaurant,1991,gmaps_v2,1499257934.0,1699615207,9.937248447177658e-06
ChIJU8WwPj0WrjsRGgtWeJd_uDk,Sri Ganesh Bombay Vada Pav Corner,12.990233421325684,77.5743637084961,restaurant,1915,gmaps_v2,1504677265.0,1699615207,9.823639155890956e-06
ChIJGfB7XIY9rjsR18OeuobriE4,Rao's Mushroom Donne Biriyani,12.99345588684082,77.5461654663086,restaurant,256,gmaps_v2,1673541539.0,1699615207,9.818334727588002e-06
ChIJ4Zqyup09rjsRjhXIUMQUx-c,Sri Mahalakshmi Refreshments,13.007994651794434,77.54686737060547,restaurant,2129,gmaps_v2,1482056131.0,1699615207,9.785847775893293e-06
ChIJVVVVVSoWrjsRSKxzam-jn6A,"Latest Creations ""Design that match your imagination """,13.003490447998049,77.57229614257812,clothing_store,479,gmaps_v2,1638785443.0,1687847039,9.763237217150457e-06
ChIJISjwkioWrjsR2nJowf5K4oA,The Fast Food (Parota Point),13.00883960723877,77.56338500976562,restaurant,2084,gmaps_v2,1485446714.0,1699615207,9.730656320208594e-06
ChIJRxf5LIg9rjsRgw-8-NxBG5U,Malgudi's Donne Biriyani,12.99687671661377,77.56146240234375,restaurant,1682,gmaps_v2,1525689451.0,1699615207,9.670793094037205e-06
18313528,Donne Biryani Angadi Mane,13.0289263268,77.561487034,restaurant,2778,zomato,1397932200.0,1688639100,9.556016730253049e-06
ChIJCephlHE9rjsRZkccrUFlm-w,SOCIALIZE,12.992478370666504,77.53914642333984,coffee_shop,726,gmaps_v2,1611858144.0,1687847039,9.554027598374736e-06
ChIJDWHpQs09rjsR_m5QbRGe9Tw,Sri Krishna Vaibhava,13.002923011779783,77.55003356933594,restaurant,501,gmaps_v2,1647081352.0,1699615207,9.536707329016688e-06
ChIJAdQVQyoXrjsRY1w6-S5HtOg,SGS Non Veg Gundu Palav - Malleshwaram,12.996596336364746,77.56858825683594,restaurant,135,gmaps_v2,1673601350.0,1687847039,9.476551116622018e-06
ChIJmQd8yK89rjsRJ03JynqhdGs,Nandini Swadista Loka,13.012500762939451,77.55255126953125,restaurant,1534,gmaps_v2,1537629838.0,1699615207,9.469991082960092e-06
ChIJHXOfAzQWrjsR9RURacpvHRQ,Angadi Galleria,13.005623817443848,77.57975006103516,clothing_store,1576,gmaps_v2,1520669296.0,1687847039,9.427092217652442e-06
ChIJhYCNhZAXrjsROabgmR0yjZQ,ASE Restro Bar,13.005643844604492,77.57868194580078,restaurant,445,gmaps_v2,1652123554.0,1699615207,9.370067620093156e-06
ChIJDYX-8-A9rjsRGPrK5AO2TWE,Bon Aroma,12.997496604919434,77.54447174072266,restaurant,232,gmaps_v2,1674827790.0,1699615207,9.359587568160087e-06
19365884,Fit Feast,13.025871,77.561251,restaurant,2720,zomato,1397932200.0,1688639100,9.356503062018823e-06
ChIJPYpfwjo9rjsRqvpsXRB3Es4,UDUPI RUCHI GRAND- Yeshwanthapura,13.022075653076172,77.53350067138672,restaurant,935,gmaps_v2,1599578673.0,1699615207,9.346585318519732e-06
ChIJp3jrhvMXrjsRBcYLbq1Q1E0,Tea Park,12.995553970336914,77.5687255859375,coffee_shop,183,gmaps_v2,1667908391.0,1687847039,9.178154907995767e-06
ChIJU8ZR3WsXrjsRI5J9gEyRkHo,The Bell Curve - A Rooftop Cafe | Restaurant,13.039007186889648,77.56413269042969,restaurant,237,gmaps_v2,1673790155.0,1699615207,9.177135441973165e-06
ChIJefvfmx49rjsRxZvKZgXqXJg,7 COLORS FASHION BEGINS,12.997658729553224,77.55122375488281,clothing_store,312,gmaps_v2,1653823478.0,1687847039,9.170115967579054e-06
ChIJEY8H-pE9rjsRJwv6abLQGfc,Patiala lassi,13.008917808532717,77.55573272705078,restaurant,11,gmaps_v2,1698410080.0,1699615207,9.127668702136787e-06
ChIJdS3mdsoXrjsRith6__A58Mk,Taki Taki,12.997495651245115,77.584228515625,restaurant,455,gmaps_v2,1649703123.0,1699615207,9.116028895928289e-06
19062995,Happy Platter,12.9960878457,77.5546162203,restaurant,2644,zomato,1397932200.0,1688639100,9.095071358815356e-06
ChIJS8y8pd0XrjsRNT5PuEkfLts,Kargeens,13.031784057617188,77.56986999511719,restaurant,2209,gmaps_v2,1455672338.0,1699615207,9.055398950809256e-06
ChIJ4W27sfw9rjsRH36o-9StJ7I,Swagat Restaurant ( Basaveshwar Nagar ),12.987971305847168,77.53580474853516,restaurant,262,gmaps_v2,1670589440.0,1699615207,9.026462590979939e-06
ChIJO5w3R_Q9rjsR0GU7qE9Aclk,Gobi Corner,12.983898162841797,77.5580825805664,restaurant,1381,gmaps_v2,1546611577.0,1699615207,9.025929646244342e-06
ChIJL0P26m8XrjsRi62edUm6xEQ,Rajesh Veg,13.003462791442873,77.57836151123047,restaurant,38,gmaps_v2,1695393501.0,1699615207,9.00110050297202e-06
ChIJeavRQFQ9rjsRd651h7qNr5o,Nati Prashanth hotel,12.980006217956545,77.55545806884766,restaurant,331,gmaps_v2,1662801403.0,1699615207,8.991192542884186e-06
ChIJzT2_hz09rjsRo3AgEWLWA-4,Coffee Santhe,13.02733039855957,77.5585708618164,restaurant,1199,gmaps_v2,1565091089.0,1699615207,8.912899915835166e-06
ChIJuYwCfOkXrjsRq_3M2rb7Gmc,Kesariya Restaurant,13.00510025024414,77.58386993408203,restaurant,1397,gmaps_v2,1542796023.0,1699615207,8.908348866296869e-06
ChIJ3de7cd8XrjsRpDs2CgrLksE,Delhi Mess,13.030137062072754,77.56290435791016,restaurant,1957,gmaps_v2,1479552737.0,1699615207,8.89292935774101e-06
ChIJ2YVZ3kQ9rjsRgZhJIcurUXY,Hariyali Restro,13.02190399169922,77.53433990478516,restaurant,85,gmaps_v2,1690033493.0,1699615207,8.871064195821333e-06
ChIJmxxNeYA9rjsRD4AkJgfoIQA,Sash Sky,13.0167818069458,77.5490493774414,coffee_shop,303,gmaps_v2,1653658198.0,1687847039,8.862540850682829e-06
ChIJZbpDQCwWrjsRT9ZvCRSe4vM,Sri Rajarajeshwari Iyer Mess ( New),13.006680488586426,77.56929779052734,restaurant,1373,gmaps_v2,1544590485.0,1699615207,8.856651908719437e-06
ChIJUx1_EOEXrjsR7GanFYbRTPc,Maha Bazaar/ಮಹಾ ಬಜಾರ್,13.037083625793455,77.565673828125,supermarket,2177,gmaps_v2,1452643687.0,1699615207,8.814781558618581e-06
ChIJSciIwng9rjsRKyOoikfNWjo,Feast,13.012465476989746,77.55499267578125,restaurant,1513,gmaps_v2,1527653937.0,1699615207,8.798492823413087e-06
ChIJpfiKOJw9rjsRGCQvyAcPJaI,GURUDARSHAN SWEETS,13.041056632995604,77.55735778808594,coffee_shop,270,gmaps_v2,1657035025.0,1687847039,8.762815699097111e-06
ChIJZ91TdO09rjsRT_7bJCra_vY,The Higher Taste Restaurant,13.009345054626465,77.55132293701172,restaurant,2145,gmaps_v2,1453666050.0,1699615207,8.721314706518795e-06
ChIJg8RoOt4XrjsRClrQ2zkrKzQ,Shahi Darbar Rolls Center,13.032681465148926,77.56559753417969,restaurant,1655,gmaps_v2,1508671654.0,1699615207,8.667483002162424e-06
ChIJY-a-CyUWrjsRoTgOm33qpqE,Antarastriya,12.998230934143066,77.57073974609375,restaurant,1938,gmaps_v2,1475216008.0,1699615207,8.63639446413532e-06
ChIJW03gp7A9rjsRq2dBXNvuwow,NAATI DELIGHTS,12.99842357635498,77.55365753173828,restaurant,327,gmaps_v2,1661683425.0,1699615207,8.620739199650572e-06
ChIJJcJ7qpM9rjsRpiVryI6KF5Q,Uru coffee,13.002253532409668,77.55313110351562,restaurant,58,gmaps_v2,1692887132.0,1699615207,8.620593557592625e-06
ChIJOwu467w9rjsRWk1PVUsHZvU,THE COASTAL KITCHEN,12.998974800109863,77.55760955810547,restaurant,23,gmaps_v2,1696946175.0,1699615207,8.617356404868882e-06
ChIJ612c4Gs9rjsRA6mZDEj9sOg,Mahadevanna Egg Rice Centre,13.00444221496582,77.5430908203125,restaurant,1180,gmaps_v2,1562352542.0,1699615207,8.596656636383973e-06
ChIJQ7tC6689rjsRvpIcL25bhBE,DONNE BIRYANI PALACE,12.991562843322754,77.53787231445312,restaurant,400,gmaps_v2,1653042677.0,1699615207,8.588753928549727e-06
18568312,La Heaven,13.0073560449,77.5711822137,restaurant,2483,zomato,1397932200.0,1688639100,8.541248934923802e-06
ChIJsdHINj0WrjsRBTa8cEDneL4,New Bhimas Garden,12.993703842163086,77.57704162597656,restaurant,1750,gmaps_v2,1491969152.0,1699615207,8.427802781998435e-06
ChIJTXBH6mE9rjsRh7z3FIorsLQ,Holige Mane,13.029024124145508,77.56077575683594,restaurant,1511,gmaps_v2,1519870503.0,1699615207,8.40636728857391e-06
ChIJCeTmfd8XrjsR2fCiQUH8ufM,Calicut Restaurant,13.030229568481444,77.56204986572266,restaurant,1735,gmaps_v2,1492324444.0,1699615207,8.369885733885788e-06
18624160,Amrut,12.9982893875,77.570146881,restaurant,2420,zomato,1397932200.0,1688639100,8.324535812531454e-06
ChIJJYOgV8A9rjsRacRyaSIg198,Roots Cafe,12.989980697631836,77.54563903808594,coffee_shop,46,gmaps_v2,1682304488.0,1687847039,8.299427465800495e-06
ChIJa2pCQnA9rjsR9qnRtmGJP2s,Mystique Palate - Dr. Rajkumar Road Rajajinagar,13.004109382629396,77.5538101196289,restaurant,448,gmaps_v2,1645632666.0,1699615207,8.298979479309801e-06
ChIJgV7rho89rjsRl-emXr6ajvs,Navrang Kabab corner,12.990812301635742,77.55782318115234,restaurant,1966,gmaps_v2,1462036030.0,1699615207,8.275135998135055e-06
ChIJrUVK7jA9rjsR9LrMccgM2Sk,Srinivasa family restaurant,13.008384704589844,77.52644348144531,restaurant,1270,gmaps_v2,1544278101.0,1699615207,8.175767095854098e-06
ChIJDXH-KioXrjsRP1JzuT3xNzo,Koriken,13.032198905944824,77.56978607177734,restaurant,197,gmaps_v2,1675513254.0,1699615207,8.173611491151776e-06
ChIJAx0sBVIXrjsRxOrlBxWgazo,Sunkish Cafe,12.973313331604004,77.55107116699219,coffee_shop,66,gmaps_v2,1679759846.0,1687847039,8.161051677634008e-06
ChIJ0ehe60Q9rjsRGG0WFgWh5c8,MADHUR CHAI,13.029829025268556,77.56192779541016,coffee_shop,19,gmaps_v2,1685512394.0,1687847039,8.138282265612116e-06
19534481,Between 2 Buns,13.0307104526,77.5699453294,restaurant,2360,zomato,1397932200.0,1688639100,8.118142362633979e-06
19727521,Glen's Bakehouse,13.0280504,77.5729675,restaurant,2358,zomato,1397932200.0,1688639100,8.111262580970731e-06
ChIJ_SKmP3s9rjsRYdy7AyM_lXo,Paris Restaurant,13.019712448120115,77.55547332763672,restaurant,1400,gmaps_v2,1526956156.0,1699615207,8.108465741538219e-06
19793146,Gabru Bistro & Cafe,13.0337387394,77.5680182129,restaurant,2334,zomato,1397932200.0,1688639100,8.02870520101174e-06
ChIJbcjZx789rjsReR4Qt15p_G4,Roop Sangam,12.989206314086914,77.53760528564453,clothing_store,1065,gmaps_v2,1554911371.0,1687847039,8.011393902199371e-06
ChIJ-TR-ERcXrjsRgPCnXODV3rk,Mohaa Bel Road,13.03007984161377,77.57083892822266,restaurant,688,gmaps_v2,1613470488.0,1699615207,7.986560383347469e-06
ChIJ-doM0PE9rjsRDUtFranPCb8,Ganesh Green Tea,12.986793518066406,77.5420913696289,coffee_shop,338,gmaps_v2,1645416434.0,1687847039,7.96594816406695e-06
18777147,Jetlag,13.0124501366,77.5543094426,restaurant,2310,zomato,1397932200.0,1688639100,7.946147821052751e-06
ChIJJWVgaJs9rjsRJxbWwEZUzw4,Navrathan Jewellers,13.00375270843506,77.54887390136719,jewelry_store,1340,gmaps_v2,1518854232.0,1687847039,7.929331572082829e-06
ChIJRWSW-489rjsRPfJYXRfylus,New Prashanth Hotel,12.99855613708496,77.55095672607422,restaurant,1598,gmaps_v2,1497925651.0,1699615207,7.923067667420519e-06
ChIJx6dx2fIXrjsRRNyMVzLb42w,Mantara Studio,13.01415729522705,77.57367706298828,home_decor,22,gmaps_v2,1692431432.0,1695212099,7.9117708089462e-06
ChIJrevFD409rjsRn1kYclO5euU,New Sagar Fast Food Party Hall,12.989819526672363,77.55266571044922,restaurant,1775,gmaps_v2,1474698336.0,1699615207,7.891804612558388e-06
ChIJsadWNGA9rjsRmf-JpDxa0Ao,Ayub's Bengaluru,12.98652458190918,77.54222869873047,restaurant,83,gmaps_v2,1677250073.0,1687847039,7.832430527756719e-06
ChIJ5eT4BzQWrjsRYOgOxeTgfBg,Pulimunchi,13.005733489990234,77.5806884765625,restaurant,2098,gmaps_v2,1431506505.0,1699615207,7.825184279173452e-06
54595,Chetty's Corner,12.9925239788,77.5783007964,restaurant,2273,zomato,1397932200.0,1688639100,7.818871860282643e-06
56758,Kadai,12.9974086424,77.5453444943,restaurant,2252,zomato,1397932200.0,1688639100,7.746634152818526e-06
ChIJs5ogkiQWrjsRt_qLckEhoQY,Holige Mane,12.995429039001465,77.5712890625,restaurant,1382,gmaps_v2,1521214551.0,1699615207,7.746608286014374e-06
ChIJ4aE2QZ49rjsRDiyoU1jv5TA,Ragoo's Kitchen Bengaluru,13.008231163024902,77.54297637939453,restaurant,1667,gmaps_v2,1484319697.0,1699615207,7.742846100227542e-06
ChIJ-3DfB_09rjsRZaxRncqc96s,Davanagere Benne Dose (Vijayanagara),12.973088264465332,77.54290771484375,restaurant,516,gmaps_v2,1632679826.0,1699615207,7.70892751025052e-06
ChIJaXUxbCE9rjsRA8wKDZD_k8E,Udupi ruchi,12.985761642456056,77.55232238769531,restaurant,1077,gmaps_v2,1559452891.0,1699615207,7.683948373113355e-06
18856593,Kolkata Famous Kati Roll,12.9853921713,77.5451289117,restaurant,2229,zomato,1397932200.0,1688639100,7.667516663691161e-06
ChIJn0-ZR8YXrjsR8mDtddo82rI,Shree nakoda silver palace,12.9995756149292,77.57068634033203,jewelry_store,23,gmaps_v2,1684829642.0,1687847039,7.622463997942598e-06
ChIJZ6ycs5A9rjsRrkBkxqy4Cps,Kinara Lunch Home (Bar & Restaurant),12.997688293457031,77.5449447631836,restaurant,1542,gmaps_v2,1495603768.0,1699615207,7.558399703263698e-06
ChIJaxiBP2QXrjsRLYNVyKAdI6Y,Satvik Grand,12.998640060424805,77.56950378417969,restaurant,242,gmaps_v2,1667553424.0,1699615207,7.547927075671369e-06
19333632,Karnataka Biriyani Paradise,13.0450810171,77.5068902712,restaurant,2179,zomato,1397932200.0,1688639100,7.495522122109933e-06
ChIJWwLK5qE9rjsR4AjiJbO038A,BLR pizzeria,12.99747371673584,77.55093383789062,restaurant,157,gmaps_v2,1678636335.0,1699615207,7.483719811055618e-06
19530955,Le MoMo,13.0307784158,77.5699542944,restaurant,2173,zomato,1397932200.0,1688639100,7.474882777120185e-06
ChIJWfOgoeAXrjsRQ93iquwp9v4,NK NATI STYLE,13.034835815429688,77.56312561035156,restaurant,36,gmaps_v2,1694762663.0,1699615207,7.418788989857691e-06
ChIJAWdNvCg9rjsRGtTJ-H1zaMg,Swagat Restaurant,12.989409446716309,77.5540542602539,restaurant,537,gmaps_v2,1627127402.0,1699615207,7.408142652408912e-06
18728530,Mayura 1989,12.9761505732,77.5527336448,restaurant,2134,zomato,1397932200.0,1688639100,7.340727034686827e-06
ChIJ5XFLfow9rjsRL1KRb289Wjg,Sonu Chats,12.990874290466309,77.5560073852539,restaurant,1411,gmaps_v2,1505630821.0,1699615207,7.273781303202413e-06
ChIJ0wqHeuU9rjsR8JWE4nGwuTE,Hopinn cafe,12.989888191223145,77.55299377441406,coffee_shop,140,gmaps_v2,1668577418.0,1687847039,7.26532192823097e-06
ChIJV3j4CzQWrjsRU9SW8YXUdug,Justbe by Nidhi Nahata,13.007168769836426,77.57946014404297,restaurant,1419,gmaps_v2,1502802300.0,1699615207,7.209892997515656e-06
ChIJs4mBn7k9rjsRlt0oe_z0eUw,Kadai Restaurant,12.987722396850586,77.53795623779297,restaurant,136,gmaps_v2,1680530795.0,1699615207,7.1262347511676024e-06
57811,Ragoo's Kitchen,13.0083079692,77.5430267304,restaurant,2066,zomato,1397932200.0,1688639100,7.106814458136356e-06
ChIJYe5KeT0WrjsRQzVQeYSrOaY,Cafe Sanman (Sheshadripuram College Canteen),12.989251136779783,77.57598876953125,restaurant,1248,gmaps_v2,1523739380.0,1699615207,7.095915460855232e-06
18460061,1522 - The Pub,13.0328016116,77.5692342594,restaurant,2058,zomato,1397932200.0,1688639100,7.0792953314833604e-06
ChIJOaqZATw9rjsRYfslNcMo3a0,Ridhi sidhi collection,13.001455307006836,77.5343246459961,clothing_store,161,gmaps_v2,1664957813.0,1687847039,7.033876986491374e-06
ChIJoS1sTxI9rjsRJXMecHGL0qA,Chicha Bhai Hyderabadi Biryani,12.98945426940918,77.54579162597656,restaurant,33,gmaps_v2,1694884697.0,1699615207,6.975992017773982e-06
ChIJB7tvFMgXrjsRLADIUFI1rys,ROYAL AKSHAYA,13.029303550720217,77.57107543945312,restaurant,208,gmaps_v2,1669559617.0,1699615207,6.920509628990813e-06
ChIJmQNpwds9rjsRPbnjij4-PSQ,Domino's Pizza,13.0116548538208,77.55479431152344,restaurant,139,gmaps_v2,1679474187.0,1699615207,6.90133866110058e-06
ChIJZ0ZBKX4XrjsRmb_u2p8nV8g,Griiham,12.996535301208496,77.58132934570312,jewelry_store,516,gmaps_v2,1613029620.0,1687847039,6.896789636648653e-06
ChIJq8M2ZGU9rjsRG8Jpzuo_k6w,Dakshen Pure Veg Restaurant,13.02344036102295,77.55098724365234,restaurant,1243,gmaps_v2,1519349929.0,1699615207,6.895393354675879e-06
ChIJiaW92co9rjsRd9w1SYpuYYM,Sicilia point (Italian restaurant). Pure Veg,12.98577117919922,77.55194854736328,restaurant,590,gmaps_v2,1613796129.0,1699615207,6.874928206523029e-06
ChIJaTlqMGIXrjsR8T2Og8Qb--g,Ajs KITCHEN,13.033781051635742,77.56514739990234,restaurant,83,gmaps_v2,1687539444.0,1699615207,6.873271693059892e-06
ChIJmatYSw4XrjsRYSo8rPbSsyo,THE BIG BELLYZ,13.002507209777832,77.57217407226562,restaurant,1132,gmaps_v2,1533617456.0,1699615207,6.819369498566278e-06
ChIJ6-bMfPA9rjsRZLacD8_d-eo,Hotel Rajaatithya - Yeshwanthpur,13.019031524658203,77.5577163696289,restaurant,577,gmaps_v2,1614868102.0,1699615207,6.808492160292673e-06
ChIJZ_iwXsI9rjsRa-IpRKRj6EA,Just Nature,13.007697105407717,77.54800415039062,restaurant,24,gmaps_v2,1696088928.0,1699615207,6.806041155563698e-06
52677,Hotel Nalapaka,12.9984305155,77.5522951037,restaurant,1973,zomato,1397932200.0,1688639100,6.786904610795272e-06
ChIJqS2WjpI9rjsRxZzRQTQb9ww,Rajasthani Bhojan,12.987333297729492,77.55563354492188,restaurant,627,gmaps_v2,1606749821.0,1699615207,6.751708327578588e-06
ChIJtwLfpow9rjsRIqIftP_cUOc,Karigiri Refreshments,12.988896369934082,77.55610656738281,restaurant,1219,gmaps_v2,1518928594.0,1699615207,6.746487632705805e-06
ChIJ3y3tlFg9rjsRUMFmEFt9S4s,DWINKS Resto Bar and Lounge,12.999305725097656,77.54955291748047,restaurant,629,gmaps_v2,1606301376.0,1699615207,6.740694206414053e-06
ChIJifX3LZY9rjsRAypRnhcY_Rc,Shree Guru Sagar,12.995217323303224,77.53956604003906,restaurant,1038,gmaps_v2,1545290139.0,1699615207,6.726062158611847e-06
18562416,Hotel New Panchavati,12.9727354043,77.5379315391,restaurant,1945,zomato,1397932200.0,1688639100,6.690587667509784e-06
ChIJOzC2o3g9rjsR24LJIXlhSKI,Subway,13.011567115783691,77.5548095703125,restaurant,1335,gmaps_v2,1493008077.0,1699615207,6.461538863639411e-06
ChIJJ5rEy809rjsRqG4nA_4fELY,Bengaluru Tiffin Room (btr),12.999252319335938,77.55081176757812,restaurant,35,gmaps_v2,1694193756.0,1699615207,6.455836269662864e-06
ChIJrV78TzEXrjsRaCDrRjGLoTQ,Fat Unicorn,13.032196998596191,77.5698013305664,coffee_shop,765,gmaps_v2,1568902632.0,1687847039,6.431576055526512e-06
18313533,Rolls Kitchen,13.0294861955,77.5619238988,restaurant,1864,zomato,1397932200.0,1688639100,6.411956510148194e-06
ChIJ7a1jYp4XrjsRGhQS495FQvQ,Kerbside Bistro,13.00780200958252,77.57796478271484,coffee_shop,158,gmaps_v2,1662960495.0,1687847039,6.34881243454294e-06
ChIJG0Q3z-Y9rjsRpyBjgK2KWe4,Padmavathi Jewellers,12.98137664794922,77.55506896972656,jewelry_store,605,gmaps_v2,1591436028.0,1687847039,6.2752168421924336e-06
ChIJy5GF1qM9rjsRz9OH9BZ2-uQ,NS VARIAR BAKERY,13.00369358062744,77.53572845458984,coffee_shop,1069,gmaps_v2,1517224131.0,1687847039,6.265278282562152e-06
ChIJ06Kxo3g9rjsRKUFkPlhNah4,Kailash Parbath,13.010821342468262,77.55492401123047,restaurant,427,gmaps_v2,1630762388.0,1699615207,6.2016342424556355e-06
ChIJAxSVy_k9rjsRSyHFUZPY3I0,New Udupi Grand,12.975628852844238,77.5588150024414,restaurant,1063,gmaps_v2,1528168550.0,1699615207,6.200179219592482e-06
54686,1947,13.005654071,77.5690495219,restaurant,1796,zomato,1397932200.0,1688639100,6.178043933597723e-06
ChIJ5TjrGMg9rjsRpjrpwZu_Qs0,Sri Venkateswara Textiles,12.975954055786133,77.5628433227539,clothing_store,1015,gmaps_v2,1523358575.0,1687847039,6.170645498884348e-06
ChIJ7VeCWecXrjsRxeztr8WRXPw,Casino Restaurant,13.028947830200195,77.57123565673828,restaurant,1403,gmaps_v2,1471473992.0,1699615207,6.149699869004379e-06
ChIJi9RtN_g9rjsRGFduI_rlSjc,Bettaiah Military,12.975536346435549,77.5605697631836,restaurant,944,gmaps_v2,1545978711.0,1699615207,6.144373404610842e-06
ChIJt5fPVtQXrjsRbod3fYsouTI,noc Biryani and catering service,13.03582763671875,77.56645202636719,restaurant,34,gmaps_v2,1694072995.0,1699615207,6.134734651074337e-06
ChIJ88u6gpAXrjsRMBOkIIzg498,Swan Designer Studio,13.00761890411377,77.56370544433594,clothing_store,30,gmaps_v2,1682948455.0,1687847039,6.124218753827637e-06
ChIJ9xPIOw49rjsRTJRTQqhKky4,Veg Brooo,12.996113777160645,77.55464935302734,restaurant,859,gmaps_v2,1558361721.0,1699615207,6.081265845715128e-06
19565126,Combos Jumbos Mumbos,13.0193237604,77.5618531555,restaurant,1760,zomato,1397932200.0,1688639100,6.054207863659239e-06
ChIJ4wIpXA4XrjsRxAT51PbsuBw,Brahmin’s Thatte Idly,13.00358772277832,77.57839965820312,restaurant,809,gmaps_v2,1565676972.0,1699615207,6.0400975121107126e-06
ChIJJ4HgBaA9rjsRYfBwXHctr4o,Sannidhi Grand,13.009331703186035,77.53834533691406,restaurant,1080,gmaps_v2,1520425700.0,1699615207,6.0271386315048015e-06
ChIJwxts71E9rjsRlJFrA3coxzI,Pavilion Family Restaurant & Bar,13.029339790344238,77.56098175048828,restaurant,1294,gmaps_v2,1482723692.0,1699615207,5.96611628629179e-06
ChIJ08NGtAQ9rjsRgnjz_EUmp9M,The Circus Canteen,13.013803482055664,77.54804229736328,restaurant,314,gmaps_v2,1646594458.0,1699615207,5.922209812615057e-06
ChIJIXQ6PWAXrjsRX4IeQCBMmtw,Chai Theory-New Bell Road,13.03378963470459,77.56858825683594,coffee_shop,143,gmaps_v2,1663697282.0,1687847039,5.921384633394034e-06
ChIJf6llBrgXrjsRFUeShnkK4Sc,Hotel Emirates,13.02243709564209,77.58472442626953,restaurant,1298,gmaps_v2,1468513603.0,1687847039,5.917930360604026e-06
ChIJB216y8E9rjsRxcyxZks4QcE,Sri Raghavendra kitchen,13.018799781799316,77.55880737304688,restaurant,23,gmaps_v2,1695719065.0,1699615207,5.903275599297973e-06
ChIJf9yI4CQWrjsRTzZrk_e8a8A,Kanti Sweets Malleshwara,13.004761695861816,77.57109069824219,coffee_shop,1102,gmaps_v2,1500443714.0,1687847039,5.880365249656056e-06
ChIJIWLyjy8WrjsRm7JShXZXmxk,Sri Krishna Bhavan,13.000606536865234,77.57127380371094,restaurant,809,gmaps_v2,1561963503.0,1699615207,5.877152091048578e-06
ChIJW_5ezjsWrjsRnlMUuAEJE98,Samudra Bar & Restaurant,12.988922119140623,77.57505798339844,restaurant,1250,gmaps_v2,1485454727.0,1699615207,5.836744482455399e-06
ChIJI6cLG-Q9rjsRLEU5wtoetTo,Davanagere Fast Food and mirchi masala,12.971284866333008,77.5451889038086,restaurant,1062,gmaps_v2,1516164967.0,1699615207,5.789035762504317e-06
ChIJD-nm9NwXrjsRXDeFxRaiYkM,The Belstreet,13.030001640319824,77.57054901123047,restaurant,1267,gmaps_v2,1477918573.0,1699615207,5.715016854969481e-06
ChIJdR6R3YU9rjsR0qHeJqZ_IoE,Green Chilly,13.000225067138672,77.55570220947266,restaurant,1031,gmaps_v2,1518957036.0,1699615207,5.7069104280924e-06
ChIJx_6EuFs9rjsRiF_x-34a7-I,Suguna Kabab Corner,12.969135284423828,77.54426574707031,restaurant,729,gmaps_v2,1571631832.0,1699615207,5.696052319295377e-06
ChIJB1EvZt09rjsRiHYW7xvLY-8,Hotel New Panchavati Restaurant,12.972670555114746,77.5379409790039,restaurant,1039,gmaps_v2,1516547930.0,1699615207,5.675509118978156e-06
ChIJcz4yyuMXrjsRSJZuaqjj27k,Kitchen On Table,13.0049409866333,77.58428192138672,restaurant,1315,gmaps_v2,1467543707.0,1699615207,5.66635713562415e-06
ChIJw2sVGWs9rjsR_-FDRfxvTuo,HONNASSIRI -NISSAN,13.02304744720459,77.54135131835938,coffee_shop,609,gmaps_v2,1579870035.0,1687847039,5.640089810234038e-06
ChIJuzQv98QXrjsRg4QBaCO4uX0,Cloth Garment,12.987650871276855,77.5636215209961,clothing_store,643,gmaps_v2,1573717163.0,1687847039,5.633932345637526e-06
ChIJHRlHfDgXrjsR_p8nDejfnUo,PIZZA BREW HOUSE (PBH),13.030232429504396,77.57057189941406,restaurant,355,gmaps_v2,1636468211.0,1699615207,5.621803450476092e-06
ChIJMUUbX-A9rjsRBm1IqHjLxMg,Rajajinagar Donne Biryani,12.995036125183104,77.5523910522461,restaurant,127,gmaps_v2,1676990885.0,1699615207,5.613427885264363e-06
ChIJPWIfd-c9rjsR96K1-__JSi4,Hotel Karavali,12.972765922546388,77.5398941040039,restaurant,1094,gmaps_v2,1504430126.0,1699615207,5.604936578118899e-06
ChIJQXUeInQ9rjsRjD1k4d6-wz4,OTP - Open Tasty Pandora | Rajajinagar,12.990239143371582,77.55811309814453,restaurant,174,gmaps_v2,1668358673.0,1699615207,5.566836041385779e-06
53673,Fish Corner,13.0284588975,77.5616724417,restaurant,1618,zomato,1397932200.0,1688639100,5.56574336556855e-06
ChIJZ8_NCz89rjsRNe_UAwYJBhw,SN Rental Jewellers / bridal jewellery rental store Bangalore (bridal jewellery for rent),12.973268508911133,77.55107879638672,jewelry_store,33,gmaps_v2,1681909446.0,1687847039,5.557807684022802e-06
ChIJH8ulds0XrjsRn6f9GxFJ9Fo,Amman parrota plaza,12.991853713989258,77.56362915039062,restaurant,156,gmaps_v2,1659757139.0,1687847039,5.553597556417075e-06
ChIJKcyyb4A9rjsRwZeGg6_DQnI,KFDC sea food,12.993045806884766,77.5527114868164,restaurant,345,gmaps_v2,1637345572.0,1699615207,5.5404211057283375e-06
ChIJDdEHnN8XrjsRSw0i0EAUPZo,Malabar Cafe,13.030132293701172,77.56246185302734,coffee_shop,798,gmaps_v2,1542680672.0,1687847039,5.497141083650595e-06
ChIJ5TRXDyE9rjsRaX4rb0FnPHw,Udupi Ahara,13.00851821899414,77.54341125488281,restaurant,649,gmaps_v2,1581230884.0,1699615207,5.4821447937832105e-06
ChIJ1SOMq4w9rjsRre0rJTX-iXo,Ambika Vegetarian,12.98784065246582,77.55584716796875,restaurant,1162,gmaps_v2,1483939360.0,1699615207,5.387715018455451e-06
ChIJ08y8IGoXrjsRbwxkBFfAIOc,La Pino’z Pizza,13.006097793579102,77.5646743774414,restaurant,105,gmaps_v2,1680099197.0,1699615207,5.380198104018188e-06
ChIJ-2G2_I89rjsR-BzNzHYdq0M,The Happy Vegetarian,12.998210906982422,77.55078125,restaurant,2126,gmaps_v2,1302022050.0,1699615207,5.3471745239317585e-06
ChIJ3QfILXU_rjsRYdko_aFFXCU,Gully Treats,12.997518539428713,77.54115295410156,restaurant,737,gmaps_v2,1561558767.0,1699615207,5.3383963833921836e-06
ChIJu6M2vSUWrjsROXoGYJrV4sY,Karavali Lunch Home,12.998371124267578,77.5698471069336,restaurant,954,gmaps_v2,1517911198.0,1699615207,5.250296926580194e-06
ChIJd-Nzlvc9rjsRQsxtBSqryFE,Sam'z coffee,12.989724159240724,77.53807830810547,coffee_shop,378,gmaps_v2,1615769769.0,1687847039,5.24437176935253e-06
ChIJqe7LeSM9rjsRXnVwvj4_chs,Kaiyas Jean's,13.025527954101562,77.55726623535156,clothing_store,100,gmaps_v2,1668768885.0,1687847039,5.241597274033955e-06
ChIJPwXCucI9rjsR5mV6lnEDYLk,Humdost,13.021683692932127,77.53746032714844,home_decor,54,gmaps_v2,1684907818.0,1695212099,5.2405403152340274e-06
19075860,Sai Ram Juice And Chats,13.0055413679,77.5706109032,restaurant,1517,zomato,1397932200.0,1688639100,5.218314391574469e-06
ChIJU2CR4ow9rjsR5spV4FhLH08,Donne biriyani angadi mane,12.989892959594728,77.55326843261719,restaurant,913,gmaps_v2,1524386885.0,1699615207,5.210344934992872e-06
18305630,Hatch,12.9938098386,77.5714997202,restaurant,1512,zomato,1397932200.0,1688639100,5.201114937416346e-06
ChIJ6zY-Fcs9rjsRzbMiqcH1FOQ,Nani's Hyderabad Dum Biryani,12.997774124145508,77.55940246582031,restaurant,475,gmaps_v2,1607924610.0,1699615207,5.180465778840986e-06
ChIJ45XAlOw9rjsR_EHpoyCIb3c,Ajji Hotel,12.985783576965332,77.54610443115234,restaurant,236,gmaps_v2,1653935464.0,1699615207,5.166403847762454e-06
ChIJE9BPgeAXrjsRYXvLjcUFw1s,Bihar Bhojnalaya,13.033865928649902,77.56525421142578,restaurant,927,gmaps_v2,1508131523.0,1687847039,5.158152287752383e-06
ChIJ6Vr7p8MXrjsRTXNCI9BpWZg,TadkaBowl,13.02443027496338,77.54866790771484,restaurant,138,gmaps_v2,1672750552.0,1699615207,5.136861054050387e-06
ChIJfQnT1NwXrjsRqmfEAem1NCg,Kobe Sizzlers,13.028215408325195,77.57320404052734,restaurant,1840,gmaps_v2,1339622691.0,1699615207,5.111217367641054e-06
ChIJPbmhOTgXrjsRChk27vFcXew,"Sailors16 , Euro Cafe",13.030355453491213,77.57018280029297,restaurant,706,gmaps_v2,1561361041.0,1699615207,5.106536898135858e-06
ChIJn08eCScWrjsRGB1815lQ68I,Savi Sagar Fastfood,12.996542930603027,77.56390380859375,restaurant,1029,gmaps_v2,1497376850.0,1699615207,5.088055575926183e-06
ChIJKTZxvZc9rjsRqXTHjQc5jPs,Shivanna's Chicken Corner,12.997197151184082,77.54110717773438,restaurant,1098,gmaps_v2,1483462880.0,1699615207,5.079751003559633e-06
ChIJeynMQywWrjsRDNVrazhpk5s,Ganesha Darshini,13.007353782653809,77.56929779052734,restaurant,1080,gmaps_v2,1486996445.0,1699615207,5.079514102334957e-06
ChIJVVVVFdkXrjsRkHtWaLyYovo,Classic Electronics,13.031257629394531,77.55950164794922,home_decor,957,gmaps_v2,1506504919.0,1695212099,5.071349166470507e-06
18734046,New Sagar Fast Food,13.0182366417,77.5578184426,restaurant,1474,zomato,1397932200.0,1688639100,5.0703990858146125e-06
ChIJRew7i5A9rjsRUUKPur5I1M8,FurnAffair Homestore - Basaveshwara Nagar,12.997344017028809,77.5471420288086,home_decor,836,gmaps_v2,1529902784.0,1695212099,5.057186281365935e-06
ChIJtX894PY9rjsReFzvLArg4Bs,Raj Donne Biriyani Mane,12.99732780456543,77.5470199584961,restaurant,543,gmaps_v2,1591809643.0,1699615207,5.036845779128802e-06
55660,Tasty Paradise,12.9899581199,77.5727620348,restaurant,1458,zomato,1397932200.0,1688639100,5.015360832508619e-06
ChIJF3Jy1hw9rjsRSjsEis93vTE,Kadegowda Miltry hotel,12.986008644104004,77.54212951660156,restaurant,443,gmaps_v2,1610879749.0,1699615207,4.992367312737598e-06
19798074,Little Owl Chinese,13.0307784158,77.5699542944,restaurant,1448,zomato,1397932200.0,1688639100,4.980961924192374e-06
51366,The Higher Taste,13.0092942469,77.5513363195,restaurant,1444,zomato,1397932200.0,1688639100,4.967202360865876e-06
ChIJefbVSGA9rjsRZrbOUI0DKyM,Mathikere Tiffin Center,13.031021118164062,77.56013488769531,restaurant,857,gmaps_v2,1526902516.0,1699615207,4.961997841837806e-06
ChIJseFb190XrjsRvqwOE8JRrb4,Snow Lion Tibet Kitchen,13.03041934967041,77.56918334960938,restaurant,1068,gmaps_v2,1484191000.0,1699615207,4.957660120341072e-06
ChIJs3XQis49rjsR8UfBGWYKlkk,Jawa Yezdi Showroom Rajaji Nagar - Skanda Motors,12.985852241516112,77.55987548828125,shoe_store,723,gmaps_v2,1541579428.0,1687847039,4.9429945225535955e-06
19170081,Biryani Canteen,12.9987411928,77.5569634885,restaurant,1425,zomato,1397932200.0,1688639100,4.901844435065009e-06
ChIJ1VAPv3A9rjsRys6DuvPaw7c,Dr Sheesha Rajajinagar,13.008575439453123,77.5490493774414,restaurant,934,gmaps_v2,1508595072.0,1699615207,4.889536906672168e-06
ChIJMWjZiXw9rjsRP-kCOdxmjQU,Karavali Deluxe Restaurant,13.019033432006836,77.55711364746094,restaurant,1052,gmaps_v2,1484105100.0,1699615207,4.8814415928993996e-06
ChIJ7WRx3QE9rjsRLirf3Sm0uYA,Fiery pit,12.99577522277832,77.54008483886719,restaurant,40,gmaps_v2,1691406668.0,1699615207,4.8729743502467366e-06
ChIJeyFCgJ89rjsRjrPZ3oraTbA,Chapathi Mane.,13.00724983215332,77.5392074584961,restaurant,916,gmaps_v2,1499786271.0,1687847039,4.870766028138309e-06
60426,Shahi Chicken Biriyani,12.9946994171,77.5552985072,restaurant,1413,zomato,1397932200.0,1688639100,4.860565745085514e-06
ChIJXTZjvlc9rjsRCVoZSmdSSWM,Wood Fire Fish Tawa Fry,12.992542266845703,77.54578399658203,restaurant,257,gmaps_v2,1646497379.0,1699615207,4.838300240740265e-06
55050,O.G. Variar & Sons,12.991535731,77.5545823574,restaurant,1405,zomato,1397932200.0,1688639100,4.8330466184325175e-06
ChIJJ4pIGsc9rjsRdbGYt0TyejA,Sri Vintage Clothing,12.975679397583008,77.5523452758789,clothing_store,97,gmaps_v2,1667666694.0,1687847039,4.806657170628153e-06
ChIJzy_dwDYWrjsRCaVMJ2OExQU,Chinese Nalapaka,13.004534721374512,77.58026885986328,restaurant,1126,gmaps_v2,1465123546.0,1699615207,4.801876515344399e-06
ChIJg-LuvU49rjsRt0m1uIhpY_0,Vrindavan Kitchen,12.99886417388916,77.55290985107422,restaurant,82,gmaps_v2,1682519860.0,1699615207,4.7966268248313415e-06
ChIJrZuj5v4XrjsRmI-IKbaCxMY,Egg Adda Upahara,12.992773056030272,77.56273651123047,restaurant,289,gmaps_v2,1639300389.0,1699615207,4.791525691083077e-06
19366208,Tarbouch Roll and Grills,13.0287855428,77.5716425478,restaurant,1392,zomato,1397932200.0,1688639100,4.788328037621398e-06
ChIJvXrmV9wXrjsRUAXP4Naknh8,Sangria Lounge,13.030466079711914,77.57035827636719,restaurant,1057,gmaps_v2,1478759357.0,1699615207,4.785927110375388e-06
19842560,Kapoor's Chaat Bhandaar,12.9989548445,77.5521006435,restaurant,1391,zomato,1397932200.0,1688639100,4.784888146789773e-06
51957,Upsouth,12.9914743125,77.5704888627,restaurant,1391,zomato,1397932200.0,1688639100,4.784888146789773e-06
ChIJScjUgOs9rjsRCsWa8725J3o,ANDHRA PARADISE,12.992047309875488,77.55462646484375,restaurant,158,gmaps_v2,1666522122.0,1699615207,4.774411330947236e-06
ChIJHW_yTsE9rjsRcroPJPwUQso,Anand Jewellers,13.034281730651855,77.55924987792969,jewelry_store,234,gmaps_v2,1638715013.0,1687847039,4.762677606659249e-06
ChIJmc7hs_Y9rjsRooq_5UsQeCc,Thatte Idli Point,13.025022506713867,77.5589828491211,restaurant,956,gmaps_v2,1498181286.0,1699615207,4.745973246482155e-06
ChIJ65eS-DMWrjsRO5ry2tm1ewA,Donne Biriyani Angadi Mane,13.006513595581056,77.57908630371094,restaurant,1000,gmaps_v2,1488852344.0,1699615207,4.744668893589665e-06
ChIJr6WRPtc9rjsR5HRqkiu8mL8,RK's Davangere and Mulbagal dosa,12.99998378753662,77.5387191772461,restaurant,105,gmaps_v2,1677429256.0,1699615207,4.7327247770447166e-06
ChIJA_wzk4s9rjsRUoKlKSWtdGs,Chikpet Donne Biryani House,12.991995811462402,77.55734252929688,restaurant,868,gmaps_v2,1516123524.0,1699615207,4.730459636146015e-06
18254571,The Green Path - Forgotten Food,12.990297557,77.5718339905,restaurant,1375,zomato,1397932200.0,1688639100,4.729849893483781e-06
ChIJT7j37Qs9rjsRDoBSRD98ha8,Raj Biryani,12.980883598327637,77.53694915771484,restaurant,437,gmaps_v2,1606817076.0,1699615207,4.709146566755747e-06
ChIJLXwYf409rjsRtEPA7kPsPnM,New City Fashion Jeans Alternation,12.995326042175291,77.55229187011719,clothing_store,1151,gmaps_v2,1443365828.0,1687847039,4.707928250568098e-06
ChIJlwFhKiQXrjsRWHA0ylhNayw,The Waffling Station,13.028104782104492,77.57267761230469,restaurant,148,gmaps_v2,1667843661.0,1699615207,4.658256164179106e-06
ChIJh6aQodEXrjsROqcLsKJfz40,Computech Laptop Sales & Service Centre,12.99848747253418,77.56935119628906,home_decor,148,gmaps_v2,1663242407.0,1695212099,4.629384605894858e-06
ChIJa_8CB7QXrjsRd7OTojncjUs,Vijaya Lakshmi Pure Veg,13.001018524169922,77.56922149658203,restaurant,645,gmaps_v2,1560012026.0,1699615207,4.620238560323349e-06
ChIJKZNrzPo9rjsRSUR7zxB48PE,Bhojaraj Tiffin Centre,13.001084327697754,77.55802917480469,restaurant,37,gmaps_v2,1679803796.0,1687847039,4.600134547719123e-06
ChIJr0o8fd8XrjsRyw7VHFwbEUQ,Bhavani Vada Pav,13.030030250549316,77.56205749511719,restaurant,949,gmaps_v2,1493112183.0,1699615207,4.595574348586779e-06
ChIJN4y9YS4WrjsRrNGYWo0KXto,Clean Slate Café,13.00440502166748,77.57067108154297,restaurant,868,gmaps_v2,1510138488.0,1699615207,4.581037736884182e-06
ChIJJfTyJpA9rjsRxJSn3afU1Q4,Hotel Savajis Rajajinagar,13.000102043151855,77.55252838134766,restaurant,819,gmaps_v2,1519413146.0,1699615207,4.544898074167975e-06
ChIJ1-2YqZUXrjsRRnxt5C4HIwo,Big Cup Café Bangalore,13.027887344360352,77.57333374023438,restaurant,486,gmaps_v2,1592611869.0,1699615207,4.541914384016693e-06
20030011,Kapoor's Cafe,12.9996685181,77.5525352956,restaurant,1319,zomato,1397932200.0,1688639100,4.537216006912804e-06
ChIJeR2UJ-I9rjsRzMpPm-SnWwU,Savji's Roll 'N' Biryani,12.971564292907717,77.54702758789062,restaurant,982,gmaps_v2,1483008014.0,1699615207,4.5335521244670765e-06
ChIJZ48f7SU9rjsRhdgKiM7sD-s,Yummy Sip N Bites,12.975542068481444,77.54158782958984,restaurant,271,gmaps_v2,1639393303.0,1699615207,4.500023778723436e-06
ChIJpbRUBA09rjsRauYSCrOEWTY,Vijaya Krishna Bakery & Sweets,13.009963035583496,77.53862762451172,coffee_shop,142,gmaps_v2,1656073862.0,1687847039,4.469178514946742e-06
ChIJjQZXK1QXrjsRCGlvr9pl2rc,Tea Fusion,13.004741668701172,77.57115173339844,coffee_shop,74,gmaps_v2,1671280447.0,1687847039,4.466820936979676e-06
ChIJ0SG3qjYWrjsRuyjoAsvuIiA,Sri Ganesh Diamonds & Jewellery,13.005877494812012,77.5793228149414,jewelry_store,1240,gmaps_v2,1409851851.0,1687847039,4.4605088631965815e-06
ChIJT1gg-kU9rjsRzOVGerrCasY,Rajanna Military Hotel,12.988443374633787,77.54798126220703,restaurant,535,gmaps_v2,1579401098.0,1699615207,4.450392757143008e-06
ChIJkyVkEo0XrjsR03mb_wUjz5M,World brew cafe,13.029934883117676,77.56317901611328,restaurant,335,gmaps_v2,1623487559.0,1699615207,4.40050374339688e-06
19046709,Chicken County Restaurant,12.9877483367,77.53787186,restaurant,1274,zomato,1397932200.0,1688639100,4.382420919489699e-06
ChIJZVAEr5E9rjsRpwf2x6mPbAc,Bites & Beverages,13.02664279937744,77.56169128417969,restaurant,116,gmaps_v2,1673109090.0,1699615207,4.376348297262855e-06
ChIJzUc533AXrjsRcwOddiJ42C0,Women's Wear,13.001269340515137,77.57134246826172,clothing_store,344,gmaps_v2,1608981085.0,1687847039,4.361831469127984e-06
ChIJBWBWgCo9rjsRbBKVEtGN4gE,Tealicious,13.00732135772705,77.54851531982422,coffee_shop,88,gmaps_v2,1667647822.0,1687847039,4.356604515907721e-06
ChIJZ43QzrQ9rjsRu3LuYuW9pns,Punyashree Hotel (Naati Style Family Restaurant),12.97248077392578,77.5386962890625,restaurant,260,gmaps_v2,1639815594.0,1699615207,4.347854224407773e-06
ChIJn85fVt8XrjsRCvyZHURaAFE,Thatte Idli Point,13.028239250183104,77.56211853027344,restaurant,872,gmaps_v2,1497858969.0,1699615207,4.322047281631014e-06
ChIJ3-YDxCYWrjsRimqkxymvYe0,Savi sagar,12.996803283691406,77.56300354003906,restaurant,117,gmaps_v2,1660630801.0,1687847039,4.298904205643704e-06
ChIJW6m3J8o9rjsRxGC3hqlWGFY,Shree Swathi Cafe,13.002375602722168,77.55301666259766,restaurant,177,gmaps_v2,1658234125.0,1699615207,4.277316866678353e-06
18927721,The Light House Restaurant,13.02831648,77.572192736,restaurant,1239,zomato,1397932200.0,1688639100,4.262024740382839e-06
50588,Kim Lee Restaurant,12.984771763,77.5536482781,restaurant,1232,zomato,1397932200.0,1688639100,4.237945504561467e-06
18422883,Biriyani Fest,13.032852894,77.5673453137,restaurant,1229,zomato,1397932200.0,1688639100,4.227625832066593e-06
ChIJSW625fI9rjsRHSRneGXrJOk,"Jai Mataji Farsan and Sweets, Rajajinagar",12.98544979095459,77.55287170410156,restaurant,666,gmaps_v2,1541691697.0,1699615207,4.217231493904866e-06
53568,1947,12.9836126178,77.5486278534,restaurant,1225,zomato,1397932200.0,1688639100,4.2138662687400955e-06
ChIJNWCgHyUWrjsRVRgb7P4W7Bw,New Fish Land Restaurant,12.997398376464844,77.57192993164062,restaurant,936,gmaps_v2,1477124207.0,1699615207,4.206911740250167e-06
ChIJbVzmYRo9rjsR5Rv4N_GZ5yk,Rolls N Snacks,12.971595764160156,77.54702758789062,restaurant,118,gmaps_v2,1659770762.0,1687847039,4.202836437323937e-06
ChIJu28QYxU9rjsRJPJ5quchCNM,Old Ajji Pork Hotel,13.019242286682127,77.551513671875,coffee_shop,123,gmaps_v2,1658389696.0,1687847039,4.175529340850599e-06
ChIJAQAAAPM9rjsRhsjIVCE0pkc,Sri Ganesh Diamonds And Jewellery,13.004033088684082,77.551025390625,jewelry_store,828,gmaps_v2,1489505238.0,1687847039,4.174611684603993e-06
ChIJN2nnoyI9rjsRgNL9yOsBEHs,Jolada rotti kanavali,12.982658386230469,77.53746795654297,restaurant,53,gmaps_v2,1686898474.0,1699615207,4.167737106692419e-06
ChIJ1US3c98XrjsRfq7CtiEqf7M,Flavors of North,13.03012466430664,77.56316375732422,restaurant,962,gmaps_v2,1468569895.0,1699615207,4.163685433271202e-06
ChIJa4Ahsyc9rjsRwFHXTo3mttc,Patil Vegetarian,13.040672302246094,77.51866912841797,restaurant,1218,gmaps_v2,1406447926.0,1699615207,4.1546246083306955e-06
ChIJVVVVVSoWrjsR8lGi2ZSnOKI,Shree Vinayaka Jewellery,12.995816230773926,77.57140350341797,jewelry_store,16,gmaps_v2,1683980701.0,1687847039,4.138282788519783e-06
ChIJoUtrOBQ9rjsRMfX2dVaWytw,Mishra Pedha's Big Foods,13.03207302093506,77.53366088867188,restaurant,849,gmaps_v2,1493462027.0,1699615207,4.1182968897205464e-06
ChIJm38Q4qQ9rjsRvYvImgoLmi8,H D tyres,12.999839782714844,77.53045654296875,shoe_store,149,gmaps_v2,1651584060.0,1687847039,4.108873680786126e-06
ChIJ3Wj8Fus9rjsR3Ixy-oiJkYI,CHOPSTICK WORLD,12.985831260681152,77.54251098632812,restaurant,969,gmaps_v2,1463362844.0,1699615207,4.101546277444006e-06
ChIJveh4dJPPADsRaFruPTDle3s,"Woodsify-3D Wooden World Maps Wall Decor, Office & Home Decor, birthday anniversary gifts",12.99114227294922,77.57052612304688,home_decor,18,gmaps_v2,1690809904.0,1695212099,4.08886930270013e-06
19815317,E2P Italian Pizza & Burger,12.9867326238,77.5399783679,restaurant,1188,zomato,1397932200.0,1688639100,4.086590307969986e-06
ChIJJdY3l4U9rjsRVME8JH-0nDk,Friends Chinese Corner,13.000273704528809,77.55404663085938,restaurant,639,gmaps_v2,1542984500.0,1699615207,4.079659807702968e-06
ChIJe1iV8fYXrjsRzP8CgOqdHGQ,SANKALPA 92.5 antique silver jewellery,12.998250961303713,77.57170104980469,jewelry_store,13,gmaps_v2,1684659109.0,1687847039,4.07788125837142e-06
ChIJoQo9vsM9rjsRhNrV6TAkSAc,Fries Adda,12.992039680480955,77.55667877197266,restaurant,58,gmaps_v2,1685377982.0,1699615207,4.073827589294965e-06
ChIJIXlrFzoWrjsRwPZDkJjw83g,Ayodhya Sagar,12.99912166595459,77.5780029296875,restaurant,855,gmaps_v2,1488705186.0,1699615207,4.0538614331653785e-06
ChIJSeo3hiE9rjsRc3uMRT1FxGY,Mo Made Patisserie,13.002689361572266,77.54306030273438,coffee_shop,22,gmaps_v2,1682406092.0,1687847039,4.043413766022716e-06
19288221,Geometry Gastropub,13.008025071,77.5570546836,restaurant,1175,zomato,1397932200.0,1688639100,4.041871727158867e-06
ChIJSaCbflUXrjsRE4jhsyu02jE,Swathi Residency,12.989190101623535,77.57218933105469,restaurant,6857,gmaps_v2,0.0,1699615207,4.034442603101515e-06
18275010,Asha Food Camp,12.9875581977,77.5544640049,restaurant,1167,zomato,1397932200.0,1688639100,4.01435260050587e-06
ChIJix2cepU9rjsR-6CzciE-yjo,Tie Knot Fashion Boutique,12.998433113098145,77.54326629638672,clothing_store,47,gmaps_v2,1676121379.0,1687847039,4.008303157348926e-06
ChIJ9RcV-TMWrjsRsopiwSXcj8k,Swadishta,13.005577087402344,77.57877349853516,restaurant,899,gmaps_v2,1475147242.0,1699615207,4.005025839656006e-06
19727916,Ajji Pork Hotel,13.0190434881,77.5510512292,restaurant,1161,zomato,1397932200.0,1688639100,3.993713255516123e-06
ChIJbYemhUA9rjsROaJ33CNjIHs,Jay Mataji farsan And sweets,12.989222526550291,77.5413589477539,coffee_shop,662,gmaps_v2,1522058146.0,1687847039,3.993029858761407e-06
ChIJbz3me_A9rjsRLXmGc1n-Ibw,Kabab Palace,12.978352546691896,77.5534439086914,restaurant,795,gmaps_v2,1499362708.0,1699615207,3.969987910113422e-06
ChIJ_y5awpA9rjsR3XJpyLAS0nA,Byrava gowdru Military Hotel,13.04162311553955,77.51437377929688,restaurant,567,gmaps_v2,1556722399.0,1699615207,3.968009362654557e-06
ChIJ9dVdPL4XrjsRSQ-Yr9KInb8,Raaj's Dakshin Ruchi,12.99289321899414,77.56256866455078,restaurant,329,gmaps_v2,1616696014.0,1699615207,3.967718306182743e-06
ChIJR-dOV6U9rjsR2hjMV2YGRwU,Vidya_Naveen_Kesh_n_Vastrakala,12.988211631774902,77.55752563476562,clothing_store,125,gmaps_v2,1656259142.0,1687847039,3.9572118397119e-06
ChIJufkU44w9rjsR8l-3VPszM9U,Brahmins Thatte Idli,12.999614715576172,77.54966735839844,restaurant,848,gmaps_v2,1484975828.0,1699615207,3.950812772338482e-06
ChIJfTPp55Q9rjsRi_9lk7timv0,Brahmins Thatte Idli,13.029406547546388,77.559814453125,restaurant,374,gmaps_v2,1604913329.0,1699615207,3.9492353044994525e-06
ChIJ89Af_yc9rjsRF9q2Ap4gnN8,Venky Kabab - Street Food Non Veg,13.042498588562012,77.51639556884766,restaurant,397,gmaps_v2,1598685937.0,1699615207,3.933447651013428e-06
ChIJiQclacA9rjsRWn7iRP4JXHM,PAVITHRA JEWELS,12.985862731933594,77.5370864868164,jewelry_store,207,gmaps_v2,1635164378.0,1687847039,3.929186492686845e-06
ChIJB8KkVSM9rjsRt3Z1jTNn2J4,Bangalore Creative Circus,13.01388931274414,77.54811096191406,restaurant,464,gmaps_v2,1581314168.0,1699615207,3.922197166839761e-06
ChIJV2NCrvM9rjsRmOKBAi7uHyg,Shawarma Grill House,12.99237823486328,77.55674743652344,restaurant,516,gmaps_v2,1567704926.0,1699615207,3.911749683862776e-06
ChIJQyotoVMXrjsR8DAqXzaSoFE,SARVAM UPAHAR,13.002397537231444,77.57129669189453,restaurant,25,gmaps_v2,1693200774.0,1699615207,3.8974606173297e-06
ChIJi90-a309rjsRueZVU6H_2a8,Arihant Jewellers,12.973487854003906,77.54978942871094,jewelry_store,322,gmaps_v2,1605104553.0,1687847039,3.89159204136071e-06
ChIJr-5kR-g9rjsR8Q3LZGLPKN4,Subbanna Military Hotel,13.025004386901855,77.55999755859375,restaurant,381,gmaps_v2,1601254781.0,1699615207,3.873509047225964e-06
ChIJXQ1YRC4WrjsRE8K4he6GLDw,Kalmane Koffees,12.991662979125977,77.57081604003906,coffee_shop,544,gmaps_v2,1546741253.0,1687847039,3.855263596348912e-06
ChIJAQAAAPM9rjsRuvZQD5dPB_Q,Namma Fish Palace,13.008065223693848,77.55461883544922,restaurant,939,gmaps_v2,1451405065.0,1699615207,3.7830847379314583e-06
ChIJ95YnMYI9rjsRNiiFf6onvsg,S L V Tiffin Center,13.008101463317873,77.555908203125,restaurant,844,gmaps_v2,1475822676.0,1699615207,3.771350170752571e-06
ChIJTdfWTy4WrjsRLYeT6BkMU9M,Rangachari Textiles Private Limited,12.994449615478516,77.57170104980469,clothing_store,665,gmaps_v2,1511329976.0,1687847039,3.7673411776628076e-06
ChIJyUvDu68XrjsREIYDxjUGIag,Kenzai,13.02782917022705,77.57330322265625,restaurant,541,gmaps_v2,1556001353.0,1699615207,3.767046040001127e-06
ChIJIaOtjAsXrjsRGBwSyIERock,Sahasra Jewelss,12.999959945678713,77.5712890625,jewelry_store,95,gmaps_v2,1662570589.0,1687847039,3.7584391795525084e-06
ChIJtfxjrmE9rjsRdeqbwOg2XdQ,Naidu's Biryani Hut,13.03011417388916,77.55970001220703,restaurant,751,gmaps_v2,1498740090.0,1699615207,3.7386412573937667e-06
ChIJS06OrvM9rjsRESe8uP69eAk,Saraswati Book Centre,12.98559856414795,77.5543212890625,supermarket,650,gmaps_v2,1525617358.0,1699615207,3.7356783646216226e-06
ChIJU1qVqiI9rjsRBsRwMyYjaFI,New Aatithya Restaurant,12.987027168273926,77.53997802734375,restaurant,337,gmaps_v2,1609093338.0,1699615207,3.722857290982359e-06
ChIJHUYGDIU9rjsR6Y8QTLse-Jo,Halli Mane Donne Biriyani,13.00082302093506,77.5531005859375,restaurant,705,gmaps_v2,1509618054.0,1699615207,3.710581915930077e-06
ChIJuQg8Fak9rjsRjFTsvH3-7S0,Bombay bitess,12.996087074279783,77.55388641357422,restaurant,252,gmaps_v2,1631173765.0,1699615207,3.6819796987912676e-06
ChIJzclIxJ09rjsRh77w-_rAzp8,Athulya Biryanis ( Kadak Biryanis ),13.029186248779297,77.5614013671875,restaurant,364,gmaps_v2,1600510546.0,1699615207,3.6728847697688003e-06
ChIJTdfWTy4WrjsRes9DKY8Xteo,Sunil Jewel Palace,12.997347831726074,77.5715103149414,jewelry_store,684,gmaps_v2,1501587830.0,1687847039,3.672301647109432e-06
ChIJ-76KUfM9rjsR5tU4m6YY9n8,Sri Annapoorneshwari Dose Center- Original,12.987557411193848,77.55558776855469,restaurant,645,gmaps_v2,1523180867.0,1699615207,3.655750915609739e-06
ChIJ7YtXqOE9rjsRskd8wgQVh0w,Sri Durga Chats & Juice Centre,12.972419738769531,77.53885650634766,restaurant,820,gmaps_v2,1474957752.0,1699615207,3.650001287515698e-06
19525518,Kunafa World,13.0282828355,77.5716740638,restaurant,1057,zomato,1397932200.0,1688639100,3.635964609027168e-06
ChIJOVe20U09rjsRRFTtjIfxNqg,ELEGANT CHAIRS SOLUTIONS : Office Chairs Repairs and Services in Bangalore,13.02894687652588,77.56024169921875,home_decor,335,gmaps_v2,1602937980.0,1695212099,3.630487114160364e-06
ChIJ50ydWZE9rjsRx0a_bZja56Q,Chandus,12.993401527404783,77.54562377929688,restaurant,1070,gmaps_v2,1404271975.0,1699615207,3.6229034020999676e-06
ChIJtShTzsMXrjsRffNvRwgVUjU,PlanB Sankey Road,12.997486114501951,77.58417510986328,restaurant,110,gmaps_v2,1669208305.0,1699615207,3.617599714696354e-06
ChIJnwW92mM9rjsRM4720Sm1d5o,Sha E Darbaar,13.0269136428833,77.55833435058594,restaurant,737,gmaps_v2,1495795951.0,1699615207,3.615948828701445e-06
ChIJ58SGhnw9rjsRYwZ7aWJffc0,New Sagar Fast Food Center,13.01881504058838,77.55738067626953,restaurant,789,gmaps_v2,1481119245.0,1699615207,3.6110507158937795e-06
19551760,Gracy Kitchen,13.0323998443,77.5665275753,restaurant,1049,zomato,1397932200.0,1688639100,3.6084454823741714e-06
ChIJH7UXPWoXrjsRl1cRgn3B1_g,Aheli Antique Craft,12.999016761779783,77.570068359375,home_decor,133,gmaps_v2,1658244053.0,1695212099,3.597701647525541e-06
ChIJocgFIpA9rjsRK8yO_icwffQ,"Rolls kitchen, Manjunath nagar",12.997490882873535,77.54991912841797,restaurant,739,gmaps_v2,1494059972.0,1699615207,3.5951407416113727e-06
ChIJXY5dei4WrjsRWUikfbxGk5k,Sunil's,13.00560188293457,77.57134246826172,clothing_store,113,gmaps_v2,1656398082.0,1687847039,3.593123930946263e-06
ChIJJ_Vc4Y49rjsR4uQBHXra2Hw,KUDLA BEACH,12.99043083190918,77.55845642089844,restaurant,723,gmaps_v2,1498051807.0,1699615207,3.5869607279893075e-06
ChIJa4EJFhY9rjsRdoZfi_UyV-k,1992 Chats Space,13.002363204956056,77.55298614501953,restaurant,14,gmaps_v2,1695708704.0,1699615207,3.583767886521526e-06
ChIJ9TF6KqM9rjsRjn-dUecn5jA,Simha Jewellers,12.98805046081543,77.53632354736328,jewelry_store,590,gmaps_v2,1522863604.0,1687847039,3.5761165961903995e-06
ChIJawcbwy4WrjsRsuypj4Ok27g,Ganesh Food Joint,13.003341674804688,77.5652084350586,restaurant,720,gmaps_v2,1498133627.0,1699615207,3.5735276644147816e-06
ChIJIxepv2MXrjsRtjnEV6hiijM,ABUBAKAR SIDDIQ HOTEL,12.996129989624023,77.56857299804688,restaurant,351,gmaps_v2,1601315950.0,1699615207,3.570728922193176e-06
18412445,Namma Kudla,12.9999574369,77.5724009424,restaurant,1038,zomato,1397932200.0,1688639100,3.5706066832263013e-06
ChIJ8yuTNmg9rjsRZv8TqO9kXno,Tea Time Cafe,12.985180854797363,77.54530334472656,coffee_shop,97,gmaps_v2,1660632678.0,1687847039,3.564294601662703e-06
ChIJfxbVW-AXrjsRSDeyL1ojsUg,Delhi Mess,13.035510063171388,77.56437683105469,restaurant,595,gmaps_v2,1520418264.0,1687847039,3.5537499453125664e-06
ChIJkRjdPicWrjsRleK61SYTrrs,Manjunatha Juice And Chats Centre,12.995084762573242,77.56359100341797,restaurant,650,gmaps_v2,1513781917.0,1699615207,3.4977586631544864e-06
ChIJ8bs8S2A9rjsRcRqJuna_nvU,Roy Hotel and Restaurant,13.030145645141602,77.56348419189453,restaurant,935,gmaps_v2,1431860697.0,1699615207,3.49200467248899e-06
ChIJM9i_J5Q9rjsRZDUGWMJ-og8,Prashanth Impex Wallpaper Distributors,12.992854118347168,77.54269409179688,home_decor,126,gmaps_v2,1659080817.0,1695212099,3.4872828481425045e-06
ChIJNcE_mdwXrjsRne52OJuWe6I,Queens Restaurant,13.02870273590088,77.57191467285156,restaurant,246,gmaps_v2,1628938646.0,1699615207,3.480644735954258e-06
ChIJ3ytCfQIWrjsRJukGPoC-BT4,Shital Silver,12.973877906799316,77.56262969970703,jewelry_store,410,gmaps_v2,1569425753.0,1687847039,3.4622153993497417e-06
56353,Kava - Fairfield By Marriott,12.9833254444,77.5601445884,restaurant,1002,zomato,1397932200.0,1688639100,3.4467706132878165e-06
ChIJpds7eGE9rjsRu7lmnNOkC18,Cinders Rooftop,13.028206825256348,77.55895233154297,restaurant,649,gmaps_v2,1511250640.0,1699615207,3.445446297763634e-06
ChIJt0SaCPU9rjsRicKj-n0olrk,Kerala Hotel,13.020784378051758,77.5557861328125,restaurant,58,gmaps_v2,1682780600.0,1699615207,3.445283872679653e-06
18582660,Mantap Ice Cream,12.9888574843,77.5722326669,restaurant,997,zomato,1397932200.0,1688639100,3.4295711591296937e-06
ChIJM6DSGJM9rjsRdNWc2JAXxx8,HOYSALA SPORTS,12.974868774414062,77.55186462402344,shoe_store,748,gmaps_v2,1469712704.0,1687847039,3.4290796082148186e-06
ChIJVzNu7Zc9rjsRju7caW12MKo,kool joint,12.997686386108398,77.5401840209961,restaurant,624,gmaps_v2,1517224110.0,1699615207,3.4212196223590892e-06
ChIJD07K8GI9rjsRNMKrinQG114,Loki Kabab Centre,13.024434089660645,77.55996704101562,restaurant,511,gmaps_v2,1549817813.0,1699615207,3.4112742976022668e-06
ChIJ966G97EXrjsRZTT0UYl0s_A,Kadamba Sports,13.022709846496582,77.58476257324219,shoe_store,419,gmaps_v2,1564896485.0,1687847039,3.4078740304008715e-06
ChIJo41Bdrs9rjsRLyrf9j6qAD0,The vintage diner - Rajajinagar,12.997742652893066,77.54969787597656,restaurant,27,gmaps_v2,1691689040.0,1699615207,3.4064384462250164e-06
ChIJKYaZfNU9rjsR-u7mcQUyrJk,KS Bakery And Sweets,13.01791000366211,77.54170989990234,coffee_shop,271,gmaps_v2,1608221108.0,1687847039,3.4034138954055056e-06
18738797,Chin Lung Resto Bar,13.0300111121,77.5705529004,restaurant,985,zomato,1397932200.0,1688639100,3.388292469150199e-06
ChIJl2NyF-E9rjsRLQOWgn8Ux7E,Lassi Bistro,12.99679183959961,77.55136108398438,restaurant,535,gmaps_v2,1540553494.0,1699615207,3.3634744019134258e-06
ChIJ_armPCc9rjsRkFDcTB2U2cg,Hotel Soude Ole ( ಹೋಟೆಲ್ ಸೌದೆ ಒಲೆ ),12.9924898147583,77.54570007324219,restaurant,76,gmaps_v2,1676962477.0,1699615207,3.355004010554136e-06
ChIJy6l8_Us9rjsRxijWjoCRkRc,Siliguri Hyderabadi Irani Tea,13.00014305114746,77.53627014160156,coffee_shop,433,gmaps_v2,1558628053.0,1687847039,3.3509007724298347e-06
ChIJyRSTjSUWrjsR1jv_30Q-MbA,Bright Novelty House,12.999211311340332,77.57128143310547,home_decor,297,gmaps_v2,1606491981.0,1695212099,3.3476060074672126e-06
17946097,New Ootada Mane,13.0274031,77.5588861,restaurant,971,zomato,1397932200.0,1688639100,3.3401339975074553e-06
ChIJJZU-6zAWrjsRZjU0o7qnPoQ,Honey BEE,13.001755714416504,77.57745361328125,coffee_shop,367,gmaps_v2,1577940954.0,1687847039,3.3392145666911893e-06
ChIJ_bLAg-EXrjsRxLKVxMO58FQ,Goji Nuts & Chocolates,13.038814544677734,77.56463623046875,coffee_shop,565,gmaps_v2,1518641201.0,1687847039,3.3391282870511834e-06
ChIJX4sQxzAWrjsRy_L6M4iSGdw,Atithi's,13.00178050994873,77.578125,restaurant,680,gmaps_v2,1495308412.0,1699615207,3.32832787083758e-06
ChIJtX_WzvAXrjsRcE8kIkwf2OQ,Sri Sagar Veg,12.991113662719728,77.57296752929688,restaurant,79,gmaps_v2,1675754037.0,1699615207,3.3108183714377796e-06
ChIJua4f2N8XrjsRm0Ewe-aH7Cc,Siperb Cafe,13.033461570739746,77.56414794921875,restaurant,825,gmaps_v2,1449030805.0,1699615207,3.292303884102092e-06
ChIJDX-aTt4XrjsR_kOE_9IS_p8,Hasana Jille Keralapura Abhiruchi Hindu Military,13.007824897766112,77.5712890625,restaurant,474,gmaps_v2,1554479191.0,1699615207,3.265901966056447e-06
59797,Hotel Prashanth,12.9882893499,77.5542655215,restaurant,942,zomato,1397932200.0,1688639100,3.2403771633903426e-06
ChIJw9WGxss9rjsRKRRa0kgxDno,Al Taj,12.972448348999023,77.54776763916016,restaurant,323,gmaps_v2,1599556043.0,1699615207,3.2280901327538575e-06
ChIJqZfX_HI9rjsRPKv2LKBvlR8,Rakshitha boutique,13.03419017791748,77.56166076660156,clothing_store,236,gmaps_v2,1614700384.0,1687847039,3.226394973221947e-06
ChIJvUwxreo9rjsRkpfpqn4OzIc,Navya Bar And Restaurant,12.987252235412598,77.53963470458984,restaurant,696,gmaps_v2,1483812355.0,1699615207,3.2251659028120723e-06
ChIJlRK33-kXrjsRJOd8x7_LzXk,SEA SPICE MULTI CUISINE FAMILY RESTAURANT MALLESHWARAM,13.007598876953123,77.57110595703125,restaurant,195,gmaps_v2,1638625601.0,1699615207,3.1972661046539634e-06
ChIJITHHZWU9rjsRvTm6eUoEDYs,DAKSHEN Pure Veg IRCTC,13.023455619812012,77.55107879638672,restaurant,425,gmaps_v2,1554602066.0,1687847039,3.1896137650161108e-06
ChIJUeZMwQkXrjsRvlTS-lYgwYM,Mango Khichdi,13.007545471191406,77.54720306396484,restaurant,233,gmaps_v2,1626269942.0,1699615207,3.1767558546553756e-06
ChIJyd2TELg9rjsRxHEZM5u_ODM,Mathsya Darshini KFDC,13.005895614624023,77.54161834716797,restaurant,437,gmaps_v2,1561712535.0,1699615207,3.168901614901269e-06
19448629,Fish Land KSCFF,13.0120852497,77.5357750431,restaurant,910,zomato,1397932200.0,1688639100,3.1303006567783565e-06
ChIJkzqcJyEXrjsRczWxapB2XVU,The Asian Curry House,12.992013931274414,77.57075500488281,restaurant,540,gmaps_v2,1526819994.0,1699615207,3.1250865728554643e-06
ChIJi8T82YsXrjsRoDfoEeFacYQ,Tarangini Restaurant,13.031255722045898,77.57011413574219,restaurant,162,gmaps_v2,1647697257.0,1699615207,3.120308101533285e-06
ChIJ0_8PdGM9rjsRD2wqhY9Ygqo,Usha Kids Shoppe,13.024563789367676,77.55742645263672,shoe_store,145,gmaps_v2,1641371952.0,1687847039,3.119951125642863e-06
ChIJE2v0QWI9rjsRUeRGnkjtric,Ammbari Restaurant Basaveshwaranagar,12.98179531097412,77.53294372558594,restaurant,179,gmaps_v2,1641983218.0,1699615207,3.1059139742687e-06
ChIJhYG0cOc9rjsRHqDoKmY2WC0,Park View,12.972846031188965,77.53941345214844,restaurant,780,gmaps_v2,1447854862.0,1699615207,3.0981845055860564e-06
ChIJUaY6tv89rjsR4GoFI_ad5Ew,Malnad Donne Biryanis,13.042510986328123,77.51342010498047,restaurant,76,gmaps_v2,1663310720.0,1687847039,3.0974491324472915e-06
ChIJR9mr6e09rjsRpDJI5VZrLsA,Thirumala Bar & Restaurant,12.982952117919922,77.54933166503906,restaurant,539,gmaps_v2,1525062056.0,1699615207,3.087884675310158e-06
ChIJT3aWIDAWrjsRZ45anpSK1Lo,BUQOO | SOFA CLEANING SERVICES | OFFICE CHAIR REPAIR SERVICES | CARPET CLEANING SERVICES,13.000961303710938,77.5733871459961,home_decor,219,gmaps_v2,1624244460.0,1695212099,3.0859135668864507e-06
19709878,Malleswaram Thatte Idly Cafe & By 2 Coffee Point,13.0066958372,77.5639187917,restaurant,893,zomato,1397932200.0,1688639100,3.071822512640739e-06
ChIJ0Z3enPQ9rjsRGN2OlQOQ3I0,Bangarpet Chats,12.98594856262207,77.55644226074219,restaurant,405,gmaps_v2,1567693596.0,1699615207,3.0700049592329494e-06
55011,The Studio Bar,13.0108138581,77.5542514399,restaurant,892,zomato,1397932200.0,1688639100,3.0683826218091143e-06
ChIJn2uN7S8WrjsRZz-1dUjZtH0,Mumbai Spice,12.99933624267578,77.57554626464844,restaurant,763,gmaps_v2,1450780876.0,1699615207,3.0662971501307834e-06
ChIJY5s07Zc9rjsRP5J1cjbcWhQ,Chats Mane,12.99688720703125,77.5390853881836,restaurant,558,gmaps_v2,1517139643.0,1699615207,3.057943692668899e-06
ChIJgzZYeKA9rjsRac2E7WCaDOY,Manoj's Kitchen (formerly Rudraiah hotel),13.009478569030762,77.53668975830078,restaurant,533,gmaps_v2,1524924960.0,1699615207,3.051114811234997e-06
ChIJbVs8CNA9rjsRLGTel5n5FWk,DOSE MANE,13.008221626281738,77.55500793457031,restaurant,268,gmaps_v2,1611667936.0,1699615207,3.047280455126345e-06
18641875,Five Star Chicken,12.9686546521,77.545459494,restaurant,882,zomato,1397932200.0,1688639100,3.0339837134928688e-06
ChIJq7S5VHI9rjsR-wUMVAauZSo,Joy's Kuttanadu Restaurant,13.028364181518556,77.56166076660156,restaurant,481,gmaps_v2,1539958399.0,1699615207,3.0127121168550483e-06
ChIJJVMX6BM9rjsR00LsuO10RIk,Modern Bread Factory Outlet,13.025068283081056,77.53406524658203,coffee_shop,465,gmaps_v2,1533113019.0,1687847039,3.0051568491531466e-06
ChIJdx3VzjkXrjsR6dL1n8FzEFo,Madhu Foods ( Veg & Non Veg ),13.031028747558594,77.5596923828125,restaurant,175,gmaps_v2,1641381749.0,1699615207,3.0051452551555497e-06
ChIJUwjzjSUWrjsRlEfgTsB3_nU,LV Venkatesh Jolada Rotti Oota,12.99932861328125,77.57255554199219,restaurant,493,gmaps_v2,1535188917.0,1699615207,2.9983039816807884e-06
ChIJmzfT4tsXrjsRQRXDoKIWji0,Junkiez Cafe,13.02999782562256,77.56346893310547,coffee_shop,45,gmaps_v2,1672826875.0,1687847039,2.9959726138809137e-06
ChIJfZaagew9rjsRkoBg3Klq8rQ,Darjeeling Momos,12.98487377166748,77.54489135742188,restaurant,477,gmaps_v2,1540366029.0,1699615207,2.9953058847186013e-06
ChIJn9s4-vE9rjsR2c43LZTwH5Y,Reliance Smart Point,13.034502983093262,77.55397033691406,supermarket,253,gmaps_v2,1614948772.0,1699615207,2.9881971527441776e-06
ChIJURkNc7I9rjsRhGhfuJnXNGA,STAR BIRYANI Family Restaurant,12.980376243591309,77.55772399902344,restaurant,428,gmaps_v2,1556288344.0,1699615207,2.9861813134080803e-06
ChIJa_pvoik9rjsRpG3YuIbvr68,New Spice Tandoori,12.992000579833984,77.53651428222656,restaurant,258,gmaps_v2,1612861611.0,1699615207,2.973940123473383e-06
ChIJmyAB9RAWrjsRojkhK2kUilE,Hotel Ksheer Sagar Veg,12.980436325073242,77.57500457763672,restaurant,661,gmaps_v2,1477318135.0,1699615207,2.97349845435661e-06
ChIJRUVStbo9rjsRF4tGwgr3Iuc,Malnad donne biryani,13.002923965454102,77.53596496582031,restaurant,61,gmaps_v2,1679068645.0,1699615207,2.968866518885252e-06
ChIJ0T4yqXY9rjsR-m3Bezr_2mw,Kabab Station,13.00578784942627,77.54246520996094,restaurant,460,gmaps_v2,1544516707.0,1699615207,2.9658571810816996e-06
ChIJ82SEaJA9rjsRx-DBxD9tuSM,Aruna Silks,12.997777938842772,77.54835510253906,clothing_store,536,gmaps_v2,1507086277.0,1687847039,2.9652453003047197e-06
ChIJpUmoCYQ9rjsRJg_RKbLNh9c,Vaibhav Biryani,12.998594284057615,77.55030822753906,restaurant,106,gmaps_v2,1663862816.0,1699615207,2.9648366734409454e-06
ChIJT1C8cqUXrjsR5iemmfOUDO0,Canyin Restaurant,13.027350425720217,77.57177734375,restaurant,259,gmaps_v2,1612111529.0,1699615207,2.959875583744034e-06
ChIJ29zi6ooXrjsRdooaIWurFKc,Happy Hours -MASTANI Cafe,12.986851692199709,77.57931518554688,restaurant,554,gmaps_v2,1511524475.0,1699615207,2.945387016729777e-06
ChIJ9RrLy3I9rjsR64FkcvQ6yXQ,TARAN SAGAR punjabi Dhaba restaurant,13.019427299499512,77.53926849365234,restaurant,590,gmaps_v2,1498113271.0,1699615207,2.928011570072458e-06
ChIJd_9fHtwXrjsRNAV-D_Uvv0Y,Kitchens@BEL,13.038978576660156,77.56415557861328,restaurant,245,gmaps_v2,1615902642.0,1699615207,2.926681317195334e-06
18811064,Flodeis,12.9735969605,77.5446152687,restaurant,845,zomato,1397932200.0,1688639100,2.9067077527227595e-06
ChIJb4fzuQM9rjsRmY61e1eQ7ZM,Amir Handloom (Yeswantpur),13.022547721862791,77.55651092529297,clothing_store,33,gmaps_v2,1676458941.0,1687847039,2.897762207525787e-06
ChIJ-9vsScAXrjsRRQXPsKMjSdE,Ananyas Hyderabad dum biryani restaurant,13.029741287231444,77.56243896484375,restaurant,65,gmaps_v2,1677157710.0,1699615207,2.894356392433226e-06
ChIJZ5rgr34XrjsRBg6dlHkEpEc,THE DAILY DOSE cafe n chats,13.030077934265137,77.56209564208984,coffee_shop,55,gmaps_v2,1668786820.0,1687847039,2.8855911886426907e-06
60977,Cake Gallery,13.0285686504,77.5617052987,restaurant,838,zomato,1397932200.0,1688639100,2.8826285169013877e-06
ChIJPSKBd9gXrjsRyVyZE8oVSuM,THE Wokchow,13.029993057250977,77.5625991821289,restaurant,389,gmaps_v2,1564592869.0,1699615207,2.8810047712253363e-06
ChIJ60OIfl49rjsRETu2zDuwzXg,Ganesh Bhavan,13.00650119781494,77.52715301513672,restaurant,23,gmaps_v2,1691593324.0,1699615207,2.867157249737998e-06
ChIJaU4Tkx8WrjsRXSNvYR4kxug,Ramachandrapura Market,12.987327575683594,77.56348419189453,supermarket,523,gmaps_v2,1516965486.0,1699615207,2.86340431913389e-06
ChIJoyLMQFc9rjsRS8NfDKj8boQ,Bike Innovations - International Bicycle store,12.995555877685549,77.53897094726562,shoe_store,127,gmaps_v2,1643464480.0,1687847039,2.8614843952553524e-06
ChIJwSUmRxE9rjsRK_WVRIut-fM,S k events,12.993552207946776,77.53663635253906,home_decor,22,gmaps_v2,1687518110.0,1695212099,2.8593750264004796e-06
ChIJhwhbDrk9rjsRO6gcVly_ETI,"Led Display Mart, Led Signage Manufacturer in Bengaluru, Glow Sign Board, Backlit Sign Board",12.99874496459961,77.55548095703125,home_decor,173,gmaps_v2,1634663429.0,1695212099,2.8572056165725854e-06
ChIJPeVlpfM9rjsRZIV4ysJ__eU,Suman Shudha Abharana Pvt Ltd,12.996066093444824,77.57154846191406,jewelry_store,432,gmaps_v2,1536420366.0,1687847039,2.8528659544676124e-06
ChIJnzQyhSI9rjsRx9Im8GZIIHU,Scholar Clothing Co,13.032148361206056,77.52559661865234,shoe_store,724,gmaps_v2,1434011752.0,1687847039,2.8522433132001855e-06
ChIJibtdliIXrjsRCjzaZqaFB7E,Uttara Karnataka Foods,13.00096035003662,77.57266998291016,restaurant,51,gmaps_v2,1669921616.0,1687847039,2.845121144421529e-06
ChIJR7GP9H09rjsRvulNeK0WhKU,Baf's Cafe,12.99811840057373,77.54082489013672,restaurant,205,gmaps_v2,1615611983.0,1687847039,2.837957237826465e-06
ChIJKy2eBwQ9rjsR0N0N8A-hKkY,Naidu's Sakath Utta,12.997347831726074,77.54822540283203,restaurant,326,gmaps_v2,1584724257.0,1699615207,2.8374732735694152e-06
ChIJi9PA9WEXrjsRCRhRFv43WZQ,The mozzarella house,13.027742385864258,77.57176971435547,restaurant,43,gmaps_v2,1672682031.0,1687847039,2.8354749301813753e-06
ChIJTdyR8g49rjsR2W_QmzucHrM,Maarish Food Joint. Veg & NoN Veg family restaurant,13.017248153686523,77.53166198730469,restaurant,627,gmaps_v2,1478196071.0,1699615207,2.8317335679604496e-06
52058,The Persian Terrace - Sheraton Grand Bangalore Hotel at Brigade Gateway,13.0122551165,77.5546993688,restaurant,823,zomato,1397932200.0,1688639100,2.831030154427019e-06
ChIJU5qKYNgWrjsRoaNk25hQlqs,The Higher Taste Stores,13.008418083190918,77.57044219970703,restaurant,704,gmaps_v2,1450685604.0,1699615207,2.8281087966865878e-06
ChIJW-XKxdI9rjsRk0v78ew2kio,Ayodhya Food Corner,12.9702787399292,77.54351043701172,restaurant,338,gmaps_v2,1568303080.0,1687847039,2.8274117975296435e-06
ChIJ08ppqW89rjsRBzuQWlADxR4,Elite Restaurant,13.023818969726562,77.54806518554688,restaurant,723,gmaps_v2,1443110630.0,1699615207,2.818663153913234e-06
ChIJu9ivPCwWrjsRbRDwestrZHk,NAKODA PAYALS,13.004484176635742,77.569091796875,jewelry_store,483,gmaps_v2,1515251184.0,1687847039,2.7984449568617974e-06
18486737,Ice Fort,12.9867362207,77.5399244204,restaurant,813,zomato,1397932200.0,1688639100,2.7966312461107734e-06
ChIJJdojHeIXrjsRPVbB9FH9ASI,Maggi Mane,12.98226261138916,77.56655883789062,restaurant,411,gmaps_v2,1552286114.0,1699615207,2.7896730484860853e-06
ChIJXauLKdc9rjsR8soqq5AH_uY,Coffee N Recharge ( The FOBE Club),12.991570472717283,77.55452728271484,restaurant,20,gmaps_v2,1692429232.0,1699615207,2.78319921792102e-06
ChIJEQl0a049rjsRVxRFrtGMqRg,Swadeshi Textiles & Garments,12.988327026367188,77.5376968383789,clothing_store,562,gmaps_v2,1485709713.0,1687847039,2.7802880898899396e-06
ChIJj71EguAXrjsRpuIOwQySuyk,Tripti Hotel,13.033533096313477,77.56635284423828,restaurant,568,gmaps_v2,1493370962.0,1699615207,2.7540162393379754e-06
19011638,New Swathi Grand Pure Veg,13.0301234775,77.5595025346,restaurant,796,zomato,1397932200.0,1688639100,2.7381531019731556e-06
ChIJk1-vz3E9rjsR2F9PVBM9zbM,Creative Wallpapers (Home wallpapers),12.9940185546875,77.5552749633789,home_decor,123,gmaps_v2,1650266917.0,1695212099,2.7366670803557987e-06
ChIJmeZ3h7Q9rjsRa8cSI7fqrMw,Spicy CLub,13.014259338378906,77.53165435791016,restaurant,92,gmaps_v2,1665596512.0,1699615207,2.7043953332131052e-06
ChIJQzyvDLQ9rjsRsrn-XTuGHew,TANDOORI TEA ( BENAKA ) ಬೆನಕ ತಂದೂರಿ ಟೀ,13.007776260375977,77.54574584960938,restaurant,235,gmaps_v2,1612712487.0,1699615207,2.7041731259965166e-06
ChIJVylzRCg9rjsRK0cZ_m7YJ0A,Underworld pub,13.03346824645996,77.5579833984375,restaurant,221,gmaps_v2,1617855983.0,1699615207,2.7030589233576874e-06
ChIJLc16vQ89rjsRavG-uFkFQTE,Bites Of Bengaluru (BOB),12.989055633544922,77.54566955566406,restaurant,71,gmaps_v2,1673314545.0,1699615207,2.699551821167087e-06
ChIJTdfWTy4WrjsRkHfZoIwJqXo,New brindavan Grand,12.99623966217041,77.57133483886719,restaurant,641,gmaps_v2,1461834371.0,1699615207,2.695759720518436e-06
ChIJv2Gq0P09rjsR0D1CEisL7vI,Sri Ayodhya hotel and party hall,12.987905502319336,77.53697204589844,restaurant,434,gmaps_v2,1538316413.0,1699615207,2.6906586790723307e-06
ChIJI4e4bFY9rjsR7RaiH6UTeeg,Mr Coffee with Cafe,12.991830825805664,77.55924224853516,coffee_shop,55,gmaps_v2,1667381783.0,1687847039,2.6874816518298133e-06
ChIJiYPWA_E9rjsRZ_OSNfSwVkE,Donne Biryani House,12.979530334472656,77.55377197265625,restaurant,494,gmaps_v2,1515319203.0,1699615207,2.6804704892027937e-06
ChIJX8WE6Jw9rjsR1S2pXqZ7GoU,Masti Masala,13.00165843963623,77.54927825927734,restaurant,744,gmaps_v2,1422036014.0,1699615207,2.680316171968985e-06
ChIJySKiHfQ9rjsRO7aG5XoJY0g,Nema Auto Spares Rajajinagar,12.982587814331056,77.55691528320312,shoe_store,484,gmaps_v2,1506867636.0,1687847039,2.674337476955872e-06
18855933,Omleterian,13.027145,77.561011,restaurant,777,zomato,1397932200.0,1688639100,2.672795176172289e-06
ChIJE52MZb49rjsRSE0xpcWDhmo,Donne Biryani Mane,12.99186897277832,77.53836059570312,restaurant,632,gmaps_v2,1463049092.0,1699615207,2.6715575897249697e-06
ChIJz1NXAQg9rjsRG-502-zjLWQ,Halftea and Mr.Girmit,13.000155448913574,77.55195617675781,coffee_shop,303,gmaps_v2,1573995084.0,1687847039,2.6613508744755416e-06
ChIJQ8tEccYXrjsRVz882YMnVZY,Yum Yum chai,12.993934631347656,77.56632995605469,coffee_shop,13,gmaps_v2,1682945436.0,1687847039,2.6521935783048933e-06
ChIJXz5XQjAWrjsR985_hPszfMI,L V Venkateshwara Malleshwaram,12.999354362487791,77.57257843017578,restaurant,478,gmaps_v2,1519138088.0,1699615207,2.648535186335726e-06
ChIJQ4O139EXrjsRyTKik49IQ70,GAJRAJ JEWELLERS,12.999234199523926,77.5838851928711,jewelry_store,119,gmaps_v2,1642788823.0,1687847039,2.6410277761551855e-06
ChIJOZrFdqgirjsRpWXBiIOUR4U,Banashankari Restaurant,13.034185409545898,77.56827545166016,restaurant,875,gmaps_v2,1368117892.0,1699615207,2.6395387244690053e-06
ChIJuzaAVLo9rjsRxg56Sz9jy6U,NORTH INDIAN RASOI,12.996904373168944,77.55138397216797,restaurant,80,gmaps_v2,1669264921.0,1699615207,2.6358894937596305e-06
19906703,DNA Cuisine - Doctor Nutri Ambrosia,12.999954,77.560134,restaurant,766,zomato,1397932200.0,1688639100,2.634956377024419e-06
ChIJHxyDIw4ZrjsRbqy_2Pow5_k,Donne Biryani@trafic jam,13.019009590148926,77.5512466430664,restaurant,377,gmaps_v2,1556273879.0,1699615207,2.6300858605133058e-06
18533361,Justbe Resto Cafe,13.0072103486,77.5794424117,restaurant,761,zomato,1397932200.0,1688639100,2.6177569228662957e-06
ChIJE9vRTZs9rjsRpusPFbNXqxI,SK Melting Point,12.989191055297852,77.55948638916016,restaurant,39,gmaps_v2,1684690211.0,1699615207,2.613066026952369e-06
ChIJcxYizNg9rjsRwKXIw2iXr9U,S N Jewellers / Bridal jewellery rental store Bangalore,12.973349571228027,77.55106353759766,clothing_store,11,gmaps_v2,1683631548.0,1687847039,2.6094231964912273e-06
ChIJ6-g6q-09rjsRW-0BWjG1Yn4,Westin Restaurant & Bar,12.984478950500488,77.54768371582031,restaurant,459,gmaps_v2,1523241777.0,1699615207,2.60243280407939e-06
