id,name,lat,lng,cid,number_of_votes,place_url,source,category,created_at,date,new_num_reviews
ChIJxcW_wk49rjsRlNFdkWhTh7k,Coastal Connect Enterprises,12.989842414855955,77.55390167236328,0x3bae3d4ec2bfc5c5:0xb9875368915dd194,16,https://www.google.com/maps/place/?q=place_id:ChIJxcW_wk49rjsRlNFdkWhTh7k,gmaps_v2,supermarket,1699615207,1644411855.0,16.0
ChIJTRzluME9rjsR_3WGMMzNxK0,M V Traders,13.020917892456056,77.54885864257812,0x3bae3dc1b8e51c4d:0xadc4cdcc308675ff,27,https://www.google.com/maps/place/?q=place_id:ChIJTRzluME9rjsR_3WGMMzNxK0,gmaps_v2,supermarket,1699615207,1560010284.0,28.0
ChIJsSrWoPM9rjsRgEGjL-G0fPE,R V Badrayya Bale Yele Merchant,12.985180854797363,77.5541000366211,0x3bae3df3a0d62ab1:0xf17cb4e12fa34180,232,https://www.google.com/maps/place/?q=place_id:ChIJsSrWoPM9rjsRgEGjL-G0fPE,gmaps_v2,supermarket,1699615207,1498337454.0,233.0
ChIJ3bqc2Us9rjsR9gLjLVrD598,Smart Groceries (Wholesale & Retail Grocery Store),13.020150184631348,77.54800415039062,0x3bae3d4bd99cbadd:0xdfe7c35a2de302f6,109,https://www.google.com/maps/place/?q=place_id:ChIJ3bqc2Us9rjsR9gLjLVrD598,gmaps_v2,supermarket,1699615207,1636117319.0,109.0
ChIJIeCJKoU9rjsRr_cMt6V5e98,Akshaya Mini Bazar,13.001673698425291,77.55061340332031,0x3bae3d852a89e021:0xdf7b79a5b70cf7af,135,https://www.google.com/maps/place/?q=place_id:ChIJIeCJKoU9rjsRr_cMt6V5e98,gmaps_v2,supermarket,1699615207,1448694123.0,136.0
ChIJpf2u1XE9rjsRTidHMI5RegU,RMC Yard,13.020758628845217,77.54691314697266,0x3bae3d71d5aefda5:0x57a518e3047274e,11378,https://www.google.com/maps/place/?q=place_id:ChIJpf2u1XE9rjsRTidHMI5RegU,gmaps_v2,supermarket,1699615207,1494272364.0,11505.0
ChIJE8oTp_M9rjsRtxHjPnUlMAs,Janatha Bazaar,12.984917640686035,77.55435180664062,0x3bae3df3a713ca13:0xb3025753ee311b7,22,https://www.google.com/maps/place/?q=place_id:ChIJE8oTp_M9rjsRtxHjPnUlMAs,gmaps_v2,supermarket,1699615207,1486193397.0,22.0
ChIJDRV4Efg9rjsR1Pg2Lb1PVfo,Corporation Market,12.97585678100586,77.56104278564453,0x3bae3df81178150d:0xfa554fbd2d36f8d4,39,https://www.google.com/maps/place/?q=place_id:ChIJDRV4Efg9rjsR1Pg2Lb1PVfo,gmaps_v2,supermarket,1687847039,1485791508.0,41.0
ChIJT0eqezAXrjsRzNJv2U_z--g,Reliance Smart Point,13.038775444030762,77.56441497802734,0x3bae17307baa474f:0xe8fbf34fd96fd2cc,147,https://www.google.com/maps/place/?q=place_id:ChIJT0eqezAXrjsRzNJv2U_z--g,gmaps_v2,supermarket,1699615207,1618808508.0,155.0
ChIJjWWmXiUWrjsR4Rd-xX51IZc,Kiran Agencies,12.999553680419922,77.57223510742188,0x3bae16255ea6658d:0x9721757ec57e17e1,506,https://www.google.com/maps/place/?q=place_id:ChIJjWWmXiUWrjsR4Rd-xX51IZc,gmaps_v2,supermarket,1699615207,1450104233.0,510.0
ChIJjfCcuL89rjsRZsI4Q7c_PgA,SHOPPERS' CITY,12.988883018493652,77.53751373291016,0x3bae3dbfb89cf08d:0x3e3fb74338c266,103,https://www.google.com/maps/place/?q=place_id:ChIJjfCcuL89rjsRZsI4Q7c_PgA,gmaps_v2,supermarket,1699615207,1418564550.0,104.0
ChIJy8y1aB8XrjsRJm8NHZUArtQ,Helios Watch Store & Titan World,12.981101989746094,77.56382751464844,0x3bae171f68b5cccb:0xd4ae00951d0d6f26,27,https://www.google.com/maps/place/?q=place_id:ChIJy8y1aB8XrjsRJm8NHZUArtQ,gmaps_v2,supermarket,1687847039,1644131359.0,28.0
ChIJH7NnZgk9rjsRaWtl7gAeuvA,Sri Vasavi Provision Stores,13.013386726379396,77.53265380859375,0x3bae3d096667b31f:0xf0ba1e00ee656b69,158,https://www.google.com/maps/place/?q=place_id:ChIJH7NnZgk9rjsRaWtl7gAeuvA,gmaps_v2,supermarket,1699615207,1481343162.0,162.0
ChIJLzKwZXA9rjsRowKI1GgtEEI,R K MART,13.005809783935549,77.52626037597656,0x3bae3d7065b0322f:0x42102d68d48802a3,75,https://www.google.com/maps/place/?q=place_id:ChIJLzKwZXA9rjsRowKI1GgtEEI,gmaps_v2,supermarket,1699615207,1577019644.0,76.0
ChIJtffXKeg9rjsRynId3oTBy5M,Pawan Super Market,12.97815227508545,77.53901672363281,0x3bae3de829d7f7b5:0x93cbc184de1d72ca,78,https://www.google.com/maps/place/?q=place_id:ChIJtffXKeg9rjsRynId3oTBy5M,gmaps_v2,supermarket,1699615207,1486472570.0,78.0
ChIJP6sh38oXrjsR9rTk4UTkfGw,Cookie Man - Global Malls,12.98147201538086,77.56353759765625,0x3bae17cadf21ab3f:0x6c7ce444e1e4b4f6,15,https://www.google.com/maps/place/?q=place_id:ChIJP6sh38oXrjsR9rTk4UTkfGw,gmaps_v2,supermarket,1687847039,1650107600.0,16.0
ChIJKaYTAcQXrjsR0Dd_jiExVlo,Hopcoms Stall 156,13.02807903289795,77.57386779785156,0x3bae17c40113a629:0x5a5631218e7f37d0,35,https://www.google.com/maps/place/?q=place_id:ChIJKaYTAcQXrjsR0Dd_jiExVlo,gmaps_v2,supermarket,1687847039,1500924262.0,38.0
ChIJ1dBBp3g9rjsRaQN4aWJKrVQ,NIKE,13.010873794555664,77.55462646484375,0x3bae3d78a741d0d5:0x54ad4a6269780369,205,https://www.google.com/maps/place/?q=place_id:ChIJ1dBBp3g9rjsRaQN4aWJKrVQ,gmaps_v2,shoe_store,1687847039,1549293202.0,243.0
ChIJQVK0vNo9rjsRyKlk2C8jJ4k,Pari Cycle House,12.988262176513672,77.54859161376953,0x3bae3ddabcb45241:0x8927232fd864a9c8,54,https://www.google.com/maps/place/?q=place_id:ChIJQVK0vNo9rjsRyKlk2C8jJ4k,gmaps_v2,shoe_store,1687847039,1575202967.0,53.0
ChIJg_L-8jkWrjsRa2wkbA9h75M,A N A Hardware & Paints,12.999130249023438,77.5796890258789,0x3bae1639f2fef283:0x93ef610f6c246c6b,23,https://www.google.com/maps/place/?q=place_id:ChIJg_L-8jkWrjsRa2wkbA9h75M,gmaps_v2,shoe_store,1687847039,1488813466.0,26.0
ChIJ4_b0xYc9rjsR6jy77I1Jq6U,Golden Goal Sports,13.043952941894531,77.5111312866211,0x3bae3d87c5f4f6e3:0xa5ab498decbb3cea,30,https://www.google.com/maps/place/?q=place_id:ChIJ4_b0xYc9rjsR6jy77I1Jq6U,gmaps_v2,shoe_store,1687847039,1649268151.0,35.0
ChIJiaI5i4g9rjsR4Xe0dXmb26k,Bismilla Cycle Mart,12.998332023620604,77.55799102783203,0x3bae3d888b39a289:0xa9db9b7975b477e1,41,https://www.google.com/maps/place/?q=place_id:ChIJiaI5i4g9rjsR4Xe0dXmb26k,gmaps_v2,shoe_store,1687847039,,
ChIJQc-Y2CMWrjsRnIlJHlE8vHY,Pool Masters - Swimming Pool Contractors | Pool Construction | Pool Builders In Bangalore,12.997337341308594,77.56804656982422,0x3bae1623d898cf41:0x76bc3c511e49899c,40,https://www.google.com/maps/place/?q=place_id:ChIJQc-Y2CMWrjsRnIlJHlE8vHY,gmaps_v2,shoe_store,1687847039,,
ChIJ8aU_SDEWrjsRxJZPFsBRalM,Rakhra The Sports House,13.006230354309082,77.57425689697266,0x3bae1631483fa5f1:0x536a51c0164f96c4,153,https://www.google.com/maps/place/?q=place_id:ChIJ8aU_SDEWrjsRxJZPFsBRalM,gmaps_v2,shoe_store,1687847039,1452161350.0,161.0
ChIJrVGT9Iw9rjsRljVNTcAb43M,LIDKAR,12.989554405212402,77.55450439453125,0x3bae3d8cf49351ad:0x73e31bc04d4d3596,81,https://www.google.com/maps/place/?q=place_id:ChIJrVGT9Iw9rjsRljVNTcAb43M,gmaps_v2,shoe_store,1687847039,1467567403.0,85.0
ChIJ69se8ug9rjsRDlc9bCXXgMY,ASR marketing,12.977143287658691,77.54232025146484,0x3bae3de8f21edbeb:0xc680d7256c3d570e,171,https://www.google.com/maps/place/?q=place_id:ChIJ69se8ug9rjsRDlc9bCXXgMY,gmaps_v2,shoe_store,1687847039,1561865324.0,186.0
ChIJcRuy0-c9rjsRvczgKG6O0m0,Olympia Sports And Fitness,12.975460052490234,77.5423583984375,0x3bae3de7d3b21b71:0x6dd28e6e28e0ccbd,444,https://www.google.com/maps/place/?q=place_id:ChIJcRuy0-c9rjsRvczgKG6O0m0,gmaps_v2,shoe_store,1687847039,1493314377.0,461.0
ChIJExAzMaM9rjsRXdVZI_KKqoI,Babu Garage,12.998867988586426,77.53495788574219,0x3bae3da331331013:0x82aa8af22359d55d,13,https://www.google.com/maps/place/?q=place_id:ChIJExAzMaM9rjsRXdVZI_KKqoI,gmaps_v2,shoe_store,1687847039,1478512287.0,14.0
ChIJ95JiOYA9rjsRIKFT13rFHRQ,HB MOTORS,12.999834060668944,77.53034210205078,0x3bae3d80396292f7:0x141dc57ad753a120,11,https://www.google.com/maps/place/?q=place_id:ChIJ95JiOYA9rjsRIKFT13rFHRQ,gmaps_v2,shoe_store,1687847039,1545070596.0,11.0
ChIJT17_9n0XrjsRv5pQjWgcv68,Pk Sports Studio,13.034260749816896,77.5682373046875,0x3bae177df6ff5e4f:0xafbf1c688d509abf,41,https://www.google.com/maps/place/?q=place_id:ChIJT17_9n0XrjsRv5pQjWgcv68,gmaps_v2,shoe_store,1687847039,1656856493.0,62.0
ChIJI3ZCBQ8-rjsROkuwYmvCDvU,Samurai Exports Pvt Ltd,12.982601165771484,77.55702209472656,0x3bae3e0f05427623:0xf50ec26b62b04b3a,135,https://www.google.com/maps/place/?q=place_id:ChIJI3ZCBQ8-rjsROkuwYmvCDvU,gmaps_v2,shoe_store,1687847039,1503996848.0,134.0
ChIJRfEI2DoWrjsRknzICVhGETE,Brand Factory Malleshwaram,12.99717903137207,77.57417297363281,0x3bae163ad808f145:0x3111465809c87c92,13102,https://www.google.com/maps/place/?q=place_id:ChIJRfEI2DoWrjsRknzICVhGETE,gmaps_v2,shoe_store,1687847039,1476090829.0,13240.0
ChIJCfVkzGk9rjsR_TTDUwZmtx8,Sport & Nix Apparel's Pvt ltd,12.98117733001709,77.53266143798828,0x3bae3d69cc64f509:0x1fb7660653c334fd,24,https://www.google.com/maps/place/?q=place_id:ChIJCfVkzGk9rjsR_TTDUwZmtx8,gmaps_v2,shoe_store,1687847039,,
ChIJq6qq6pUVrjsRgA860FXf9X0,M City Shoes,12.997486114501951,77.55103302001953,0x3bae1595eaaaaaab:0x7df5df55d03a0f80,14,https://www.google.com/maps/place/?q=place_id:ChIJq6qq6pUVrjsRgA860FXf9X0,gmaps_v2,shoe_store,1687847039,1454334037.0,15.0
ChIJUx1_EOEXrjsR7GanFYbRTPc,Maha Bazaar/ಮಹಾ ಬಜಾರ್,13.037083625793455,77.565673828125,0x3bae17e1107f1d53:0xf74cd18615a766ec,2177,https://www.google.com/maps/place/?q=place_id:ChIJUx1_EOEXrjsR7GanFYbRTPc,gmaps_v2,supermarket,1699615207,1452643687.0,2189.0
ChIJx2L7Fx4WrjsRohN2vjWYGrM,Golden Villa Boys Pg GENTS,12.984817504882812,77.562744140625,0x3bae161e17fb62c7:0xb31a9835be7613a2,91,https://www.google.com/maps/place/?q=place_id:ChIJx2L7Fx4WrjsRohN2vjWYGrM,gmaps_v2,supermarket,1687847039,1515141847.0,101.0
ChIJ9RwZhuY9rjsRX807c6hnCTI,SANGAM TIMES,12.97290325164795,77.54420471191406,0x3bae3de686191cf5:0x320967a8733bcd5f,103,https://www.google.com/maps/place/?q=place_id:ChIJ9RwZhuY9rjsRX807c6hnCTI,gmaps_v2,shoe_store,1687847039,1539329485.0,103.0
ChIJO7uX_U4XrjsRG5vD31pWyqM,Classic car spa - Lulu Hypermarket,12.980798721313477,77.56393432617188,0x3bae174efd97bb3b:0xa3ca565adfc39b1b,43,https://www.google.com/maps/place/?q=place_id:ChIJO7uX_U4XrjsRG5vD31pWyqM,gmaps_v2,supermarket,1687847039,1699592738.0,159.0
ChIJXy2_Alk9rjsRrFUZlS4Bm1k,Sasyavedha Naturals,13.00014305114746,77.56967163085938,0x3bae3d5902bf2d5f:0x599b012e951955ac,84,https://www.google.com/maps/place/?q=place_id:ChIJXy2_Alk9rjsRrFUZlS4Bm1k,gmaps_v2,supermarket,1699615207,1550466652.0,84.0
ChIJJVGYo4Q9rjsRSsBErmsuuog,Adishwar Electro world - Premium Rajajinagar,13.00424861907959,77.55152130126953,0x3bae3d84a3985125:0x88ba2e6bae44c04a,310,https://www.google.com/maps/place/?q=place_id:ChIJJVGYo4Q9rjsRSsBErmsuuog,gmaps_v2,supermarket,1699615207,1461948628.0,312.0
ChIJtSKBpak9rjsRVJFwICFesp0,Shree Buy N Save,13.000469207763672,77.56041717529297,0x3bae3da9a58122b5:0x9db25e2120709154,112,https://www.google.com/maps/place/?q=place_id:ChIJtSKBpak9rjsRVJFwICFesp0,gmaps_v2,supermarket,1699615207,1563713951.0,111.0
ChIJH-4AQowXrjsRoeuJFKUNkGU,Sri Sainath PG for Mens,12.983566284179688,77.56265258789062,0x3bae178c4200ee1f:0x65900da51489eba1,111,https://www.google.com/maps/place/?q=place_id:ChIJH-4AQowXrjsRoeuJFKUNkGU,gmaps_v2,supermarket,1687847039,1572766765.0,111.0
ChIJvyZjnGg9rjsRqw4oljYsITA,Cycle World Peenya,13.04685878753662,77.50390625,0x3bae3d689c6326bf:0x30212c3696280eab,112,https://www.google.com/maps/place/?q=place_id:ChIJvyZjnGg9rjsRqw4oljYsITA,gmaps_v2,shoe_store,1687847039,,
ChIJUXW8Nhg9rjsRxS0zVrsi62Y,NEWKIKS New Kicks,13.006280899047852,77.55438995361328,0x3bae3d1836bc7551:0x66eb22bb56332dc5,29,https://www.google.com/maps/place/?q=place_id:ChIJUXW8Nhg9rjsRxS0zVrsi62Y,gmaps_v2,shoe_store,1687847039,1596620084.0,28.0
ChIJt4WjQh8WrjsRwjlSM57kYxQ,Niveda Sports Wear,12.98765754699707,77.56626892089844,0x3bae161f42a385b7:0x1463e49e335239c2,36,https://www.google.com/maps/place/?q=place_id:ChIJt4WjQh8WrjsRwjlSM57kYxQ,gmaps_v2,shoe_store,1687847039,1481006180.0,35.0
ChIJp8DfnGo9rjsR1qQNvZofVUA,Bicycle zone,13.008334159851074,77.52642822265625,0x3bae3d6a9cdfc0a7:0x40551f9abd0da4d6,92,https://www.google.com/maps/place/?q=place_id:ChIJp8DfnGo9rjsR1qQNvZofVUA,gmaps_v2,shoe_store,1687847039,,
ChIJZ3LeLlE9rjsR8lPMK1-PXYE,Gajanan Cycles,13.024614334106444,77.55787658691406,0x3bae3d512ede7267:0x815d8f5f2bcc53f2,21,https://www.google.com/maps/place/?q=place_id:ChIJZ3LeLlE9rjsR8lPMK1-PXYE,gmaps_v2,shoe_store,1687847039,1611995110.0,26.0
ChIJ0_8PdGM9rjsRD2wqhY9Ygqo,Usha Kids Shoppe,13.024563789367676,77.55742645263672,0x3bae3d63740fffd3:0xaa82588f852a6c0f,145,https://www.google.com/maps/place/?q=place_id:ChIJ0_8PdGM9rjsRD2wqhY9Ygqo,gmaps_v2,shoe_store,1687847039,1641371952.0,167.0
ChIJUZ5cbGs9rjsR2BgO2z6y-Kw,In Leather,13.02792739868164,77.54095458984375,0x3bae3d6b6c5c9e51:0xacf8b23edb0e18d8,29,https://www.google.com/maps/place/?q=place_id:ChIJUZ5cbGs9rjsR2BgO2z6y-Kw,gmaps_v2,shoe_store,1687847039,1543165688.0,29.0
ChIJ2QdsDPg9rjsRBi0QXr935iI,Joshi Jewellers,12.975777626037598,77.56153106689453,0x3bae3df80c6c07d9:0x22e677bf5e102d06,18,https://www.google.com/maps/place/?q=place_id:ChIJ2QdsDPg9rjsRBi0QXr935iI,gmaps_v2,jewelry_store,1687847039,1523873851.0,22.0
ChIJxQTN6iYWrjsRWH6dXzMF7Tg,Sri Raghavendra Diamonds And Jewellers,12.995637893676758,77.56625366210938,0x3bae1626eacd04c5:0x38ed05335f9d7e58,29,https://www.google.com/maps/place/?q=place_id:ChIJxQTN6iYWrjsRWH6dXzMF7Tg,gmaps_v2,jewelry_store,1687847039,1495869480.0,30.0
ChIJS_M072EXrjsRt9SvHSSdTPM,"ARMADIO - A Multi Designer Store @Sadashivanagar, Bangalore",13.005785942077637,77.58032989501953,0x3bae1761ef34f34b:0xf34c9d241dafd4b7,91,https://www.google.com/maps/place/?q=place_id:ChIJS_M072EXrjsRt9SvHSSdTPM,gmaps_v2,jewelry_store,1687847039,1573476049.0,94.0
ChIJc30gHScWrjsR10UBQntH0Pg,Sri Rajeshwari Costumes,12.996377944946287,77.56484985351562,0x3bae16271d207d73:0xf8d0477b420145d7,225,https://www.google.com/maps/place/?q=place_id:ChIJc30gHScWrjsR10UBQntH0Pg,gmaps_v2,jewelry_store,1687847039,1519008417.0,249.0
ChIJz9Qbd2E9rjsRcrjOA42ckDA,The Best Jewellery,13.028510093688965,77.55877685546875,0x3bae3d61771bd4cf:0x30909c8d03ceb872,55,https://www.google.com/maps/place/?q=place_id:ChIJz9Qbd2E9rjsRcrjOA42ckDA,gmaps_v2,jewelry_store,1687847039,1510232054.0,56.0
ChIJYbqySu49rjsRYTFfKhTAiKg,Akshaya Gold Company,12.99866771697998,77.54082489013672,0x3bae3dee4ab2ba61:0xa888c0142a5f3161,319,https://www.google.com/maps/place/?q=place_id:ChIJYbqySu49rjsRYTFfKhTAiKg,gmaps_v2,jewelry_store,1687847039,1526911356.0,317.0
ChIJtzj0S2A9rjsR10to5_0BX48,Sangam Flowers And Decorators,13.030587196350098,77.56027221679688,0x3bae3d604bf438b7:0x8f5f01fde7684bd7,18,https://www.google.com/maps/place/?q=place_id:ChIJtzj0S2A9rjsR10to5_0BX48,gmaps_v2,jewelry_store,1687847039,1526901147.0,21.0
ChIJK2RHCm89rjsRrZmlDfmJtV0,Chera,13.024439811706545,77.54877471923828,0x3bae3d6f0a47642b:0x5db589f90da599ad,19,https://www.google.com/maps/place/?q=place_id:ChIJK2RHCm89rjsRrZmlDfmJtV0,gmaps_v2,jewelry_store,1687847039,1496329182.0,19.0
ChIJa7xJDpM9rjsRKD7ohMoMM5Y,AMG GOLD COMPANY JALAHALLI CROSS,13.041013717651367,77.51679992675781,0x3bae3d930e49bc6b:0x96330cca84e83e28,33,https://www.google.com/maps/place/?q=place_id:ChIJa7xJDpM9rjsRKD7ohMoMM5Y,gmaps_v2,jewelry_store,1687847039,1574839750.0,34.0
ChIJe1iV8fYXrjsRzP8CgOqdHGQ,SANKALPA 92.5 antique silver jewellery,12.998250961303713,77.57170104980469,0x3bae17f6f195587b:0x641c9dea8002ffcc,13,https://www.google.com/maps/place/?q=place_id:ChIJe1iV8fYXrjsRzP8CgOqdHGQ,gmaps_v2,jewelry_store,1687847039,1684659109.0,25.0
ChIJcdDvlnw9rjsRfV-W0qitsT0,Ravi Cycle Mart,13.02039623260498,77.55719757080078,0x3bae3d7c96efd071:0x3db1ada8d2965f7d,153,https://www.google.com/maps/place/?q=place_id:ChIJcdDvlnw9rjsRfV-W0qitsT0,gmaps_v2,shoe_store,1687847039,1468748704.0,154.0
ChIJBSF1kvE9rjsRJY87_US_egY,Supad,13.040185928344728,77.55784606933594,0x3bae3df192752105:0x67abf44fd3b8f25,61,https://www.google.com/maps/place/?q=place_id:ChIJBSF1kvE9rjsRJY87_US_egY,gmaps_v2,shoe_store,1687847039,1528272202.0,74.0
ChIJDzLCbRI9rjsR8ekg35hA4cI,Metro Motors,13.020294189453123,77.53790283203125,0x3bae3d126dc2320f:0xc2e14098df20e9f1,47,https://www.google.com/maps/place/?q=place_id:ChIJDzLCbRI9rjsR8ekg35hA4cI,gmaps_v2,shoe_store,1687847039,,
ChIJySKiHfQ9rjsRO7aG5XoJY0g,Nema Auto Spares Rajajinagar,12.982587814331056,77.55691528320312,0x3bae3df41da222c9:0x4863097ae586b63b,484,https://www.google.com/maps/place/?q=place_id:ChIJySKiHfQ9rjsRO7aG5XoJY0g,gmaps_v2,shoe_store,1687847039,1506867636.0,512.0
ChIJo2-oZSUWrjsRlmqVCtPBtiY,Good Things,12.99941349029541,77.57144165039062,0x3bae162565a86fa3:0x26b6c1d30a956a96,15,https://www.google.com/maps/place/?q=place_id:ChIJo2-oZSUWrjsRlmqVCtPBtiY,gmaps_v2,shoe_store,1687847039,1472128771.0,15.0
ChIJpQRdoQIWrjsRBBCi_CDWfZ4,Vijay Gandhi Jewels & Diamonds,12.975769996643066,77.56233215332031,0x3bae1602a15d04a5:0x9e7dd620fca21004,13,https://www.google.com/maps/place/?q=place_id:ChIJpQRdoQIWrjsRBBCi_CDWfZ4,gmaps_v2,jewelry_store,1687847039,1442479890.0,14.0
ChIJG0Q3z-Y9rjsRpyBjgK2KWe4,Padmavathi Jewellers,12.98137664794922,77.55506896972656,0x3bae3de6cf37441b:0xee598aad806320a7,605,https://www.google.com/maps/place/?q=place_id:ChIJG0Q3z-Y9rjsRpyBjgK2KWe4,gmaps_v2,jewelry_store,1687847039,1591436028.0,773.0
ChIJkZmKqbEXrjsRReINnMtkKSI,Bhavani Creations,12.999786376953123,77.5622329711914,0x3bae17b1a98a9991:0x222964cb9c0de245,16,https://www.google.com/maps/place/?q=place_id:ChIJkZmKqbEXrjsRReINnMtkKSI,gmaps_v2,jewelry_store,1687847039,1612892022.0,15.0
ChIJZ0cbv0o9rjsRpC7zbG5JfY8,SILVER TRINKETS,12.987302780151367,77.53959655761719,0x3bae3d4abf1b4767:0x8f7d496e6cf32ea4,135,https://www.google.com/maps/place/?q=place_id:ChIJZ0cbv0o9rjsRpC7zbG5JfY8,gmaps_v2,jewelry_store,1687847039,1566929350.0,133.0
ChIJu9ivPCwWrjsRbRDwestrZHk,NAKODA PAYALS,13.004484176635742,77.569091796875,0x3bae162c3cafd8bb:0x79646bcb7af0106d,483,https://www.google.com/maps/place/?q=place_id:ChIJu9ivPCwWrjsRbRDwestrZHk,gmaps_v2,jewelry_store,1687847039,1515251184.0,505.0
ChIJm10ysS57tzsRmKvqfY28oEo,Aura Jewels,13.003982543945312,77.55075073242188,0x3bb77b2eb1325d9b:0x4aa0bc8d7deaab98,965,https://www.google.com/maps/place/?q=place_id:ChIJm10ysS57tzsRmKvqfY28oEo,gmaps_v2,jewelry_store,1687847039,1590933035.0,1126.0
ChIJfzV5i789rjsRAwyIkdgtNh4,Mukesh Jewellers ( Basaveshwaranagar ),12.987207412719728,77.53756713867188,0x3bae3dbf8b79357f:0x1e362dd891880c03,313,https://www.google.com/maps/place/?q=place_id:ChIJfzV5i789rjsRAwyIkdgtNh4,gmaps_v2,jewelry_store,1687847039,1476437031.0,313.0
ChIJ-3B-dzkWrjsRam0egDk8w40,The Diamond Boutique,12.997422218322754,77.57992553710938,0x3bae1639777e70fb:0x8dc33c39801e6d6a,29,https://www.google.com/maps/place/?q=place_id:ChIJ-3B-dzkWrjsRam0egDk8w40,gmaps_v2,jewelry_store,1687847039,1481636055.0,30.0
ChIJiVmAigA9rjsR5dZ79vDUNr4,Harshitha Jewels,12.999003410339355,77.55610656738281,0x3bae3d008a805989:0xbe36d4f0f67bd6e5,15,https://www.google.com/maps/place/?q=place_id:ChIJiVmAigA9rjsR5dZ79vDUNr4,gmaps_v2,jewelry_store,1687847039,1647323548.0,15.0
ChIJzbzw8qQ9rjsRj_hqFPI1ZLM,Aadyas Food Products,13.041521072387695,77.5179443359375,0x3bae3da4f2f0bccd:0xb36435f2146af88f,35,https://www.google.com/maps/place/?q=place_id:ChIJzbzw8qQ9rjsRj_hqFPI1ZLM,gmaps_v2,jewelry_store,1687847039,1583150312.0,35.0
ChIJNV1F07w9rjsRVao3XQAOgus,Sri shreedevi jewellers,12.973958015441896,77.55870819091797,0x3bae3dbcd3455d35:0xeb820e005d37aa55,59,https://www.google.com/maps/place/?q=place_id:ChIJNV1F07w9rjsRVao3XQAOgus,gmaps_v2,jewelry_store,1687847039,1604897076.0,65.0
ChIJuX72PPM9rjsRjXD8ufamhTM,Rajatha Jewellers,12.988770484924316,77.55422973632812,0x3bae3df33cf67eb9:0x3385a6f6b9fc708d,18,https://www.google.com/maps/place/?q=place_id:ChIJuX72PPM9rjsRjXD8ufamhTM,gmaps_v2,jewelry_store,1687847039,1511640742.0,19.0
ChIJOTZbjA09rjsR8a62LbJfRM0,Vendi,12.9954195022583,77.57148742675781,0x3bae3d0d8c5b3639:0xcd445fb22db6aef1,15,https://www.google.com/maps/place/?q=place_id:ChIJOTZbjA09rjsR8a62LbJfRM0,gmaps_v2,jewelry_store,1687847039,1700141977.0,55.0
ChIJF-iQfWE9rjsRslWyOESGpXA,Gokul Jewellers,13.030309677124023,77.5599594116211,0x3bae3d617d90e817:0x70a5864438b255b2,11,https://www.google.com/maps/place/?q=place_id:ChIJF-iQfWE9rjsRslWyOESGpXA,gmaps_v2,jewelry_store,1687847039,1493712683.0,11.0
ChIJL3YrtbY9rjsRH-d8QMxV-vY,A J FASHIONS,12.992295265197754,77.53292846679688,0x3bae3db6b52b762f:0xf6fa55cc407ce71f,68,https://www.google.com/maps/place/?q=place_id:ChIJL3YrtbY9rjsRH-d8QMxV-vY,gmaps_v2,jewelry_store,1687847039,1563599730.0,62.0
ChIJ4WNl23w9rjsRr7FkVd_jHLM,GIVA - Orion Mall,13.01102066040039,77.5549545288086,0x3bae3d7cdb6563e1:0xb31ce3df5564b1af,32,https://www.google.com/maps/place/?q=place_id:ChIJ4WNl23w9rjsRr7FkVd_jHLM,gmaps_v2,jewelry_store,1687847039,1705051171.0,450.0
ChIJq6qqqhUWrjsR5FvIDq6CSdc,Anand Jewels,12.991442680358888,77.57489776611328,0x3bae1615aaaaaaab:0xd74982ae0ec85be4,36,https://www.google.com/maps/place/?q=place_id:ChIJq6qqqhUWrjsR5FvIDq6CSdc,gmaps_v2,jewelry_store,1687847039,1468854047.0,38.0
ChIJ1TBAjxY7rjsR07w8djRfZ58,Designer Silver Jewellery - FLAUNT BASKET,12.973607063293455,77.55174255371094,0x3bae3b168f4030d5:0x9f675f34763cbcd3,290,https://www.google.com/maps/place/?q=place_id:ChIJ1TBAjxY7rjsR07w8djRfZ58,gmaps_v2,jewelry_store,1687847039,,
ChIJSUGskt09rjsRxmF41MaBZfI,Wild West Hi Fashion Jewellery,12.971634864807127,77.53800201416016,0x3bae3ddd92ac4149:0xf26581c6d47861c6,34,https://www.google.com/maps/place/?q=place_id:ChIJSUGskt09rjsRxmF41MaBZfI,gmaps_v2,jewelry_store,1687847039,1369212944.0,36.0
ChIJLwU4VjcWrjsRlKErOgVKngo,Mataji Bankers And Naveen Jewellers,13.000465393066406,77.57962799072266,0x3bae16375638052f:0xa9e4a053a2ba194,12,https://www.google.com/maps/place/?q=place_id:ChIJLwU4VjcWrjsRlKErOgVKngo,gmaps_v2,jewelry_store,1687847039,,
ChIJPxCj2oc9rjsROI_eoOMseZc,Vijeta Jewellers,12.98935317993164,77.5543212890625,0x3bae3d87daa3103f:0x97792ce3a0de8f38,35,https://www.google.com/maps/place/?q=place_id:ChIJPxCj2oc9rjsROI_eoOMseZc,gmaps_v2,jewelry_store,1687847039,1560779869.0,44.0
ChIJTdfWTy4WrjsRAGN87GtelFs,PIPADA JEWELLERS,12.99862289428711,77.5713119506836,0x3bae162e4fd6d74d:0x5b945e6bec7c6300,42,https://www.google.com/maps/place/?q=place_id:ChIJTdfWTy4WrjsRAGN87GtelFs,gmaps_v2,jewelry_store,1687847039,1473145056.0,47.0
ChIJXwNPAiMWrjsRboDOl1Jj0zk,Sthri Elite,12.991661071777344,77.57095336914062,0x3bae1623024f035f:0x39d3635297ce806e,15,https://www.google.com/maps/place/?q=place_id:ChIJXwNPAiMWrjsRboDOl1Jj0zk,gmaps_v2,jewelry_store,1687847039,1514885614.0,15.0
ChIJH3v9GiUWrjsRqkGLEjtDqoY,Inder Jewellery Mart,12.997897148132324,77.5712890625,0x3bae16251afd7b1f:0x86aa433b128b41aa,169,https://www.google.com/maps/place/?q=place_id:ChIJH3v9GiUWrjsRqkGLEjtDqoY,gmaps_v2,jewelry_store,1687847039,1465039539.0,171.0
ChIJiQclacA9rjsRWn7iRP4JXHM,PAVITHRA JEWELS,12.985862731933594,77.5370864868164,0x3bae3dc069250789:0x735c09fe44e27e5a,207,https://www.google.com/maps/place/?q=place_id:ChIJiQclacA9rjsRWn7iRP4JXHM,gmaps_v2,jewelry_store,1687847039,1635164378.0,234.0
ChIJZd5GPq89rjsRQRwePJfjZ1Q,Sri Shuban Fancy & Stationery Stores,13.002066612243652,77.52597045898438,0x3bae3daf3e46de65:0x5467e3973c1e1c41,28,https://www.google.com/maps/place/?q=place_id:ChIJZd5GPq89rjsRQRwePJfjZ1Q,gmaps_v2,jewelry_store,1687847039,1544240413.0,28.0
ChIJN6viGToWrjsRbyMcvYZhCl0,Samrat Jewels,12.999385833740234,77.57795715332031,0x3bae163a19e2ab37:0x5d0a6186bd1c236f,14,https://www.google.com/maps/place/?q=place_id:ChIJN6viGToWrjsRbyMcvYZhCl0,gmaps_v2,jewelry_store,1687847039,1582989632.0,15.0
ChIJ0SG3qjYWrjsRuyjoAsvuIiA,Sri Ganesh Diamonds & Jewellery,13.005877494812012,77.5793228149414,0x3bae1636aab721d1:0x2022eecb02e828bb,1240,https://www.google.com/maps/place/?q=place_id:ChIJ0SG3qjYWrjsRuyjoAsvuIiA,gmaps_v2,jewelry_store,1687847039,1409851851.0,1241.0
ChIJGZx04yQWrjsRXjDpci0xr1g,Ramlal Mohanlal Jewellers,12.99726104736328,77.57128143310547,0x3bae1624e3749c19:0x58af312d72e9305e,153,https://www.google.com/maps/place/?q=place_id:ChIJGZx04yQWrjsRXjDpci0xr1g,gmaps_v2,jewelry_store,1687847039,1509967080.0,154.0
ChIJ2-6PP549rjsRV2CO67CUomM,Sri Gokul Jewellers & Diamonds,13.008614540100098,77.54277038574219,0x3bae3d9e3f8feedb:0x63a294b0eb8e6057,94,https://www.google.com/maps/place/?q=place_id:ChIJ2-6PP549rjsRV2CO67CUomM,gmaps_v2,jewelry_store,1687847039,1470422563.0,96.0
ChIJcbTQTk8XrjsRa_99UtWEOnU,"Dr. Yaqub Abedi, Astro Gemologist",12.998351097106934,77.56685638427734,0x3bae174f4ed0b471:0x753a84d5527dff6b,18,https://www.google.com/maps/place/?q=place_id:ChIJcbTQTk8XrjsRa_99UtWEOnU,gmaps_v2,jewelry_store,1687847039,1633936495.0,17.0
ChIJH5ZBDw89rjsRgPt8gPjN__E,Aum Zone Brand Store,12.997824668884276,77.54948425292969,0x3bae3d0f0f41961f:0xf1ffcdf8807cfb80,87,https://www.google.com/maps/place/?q=place_id:ChIJH5ZBDw89rjsRgPt8gPjN__E,gmaps_v2,jewelry_store,1687847039,1556098395.0,90.0
ChIJlZUlDJgXrjsRH3kxWEszkNw,GIVA - Mantri Square Mall,12.991406440734863,77.57099151611328,0x3bae17980c259595:0xdc90334b5831791f,120,https://www.google.com/maps/place/?q=place_id:ChIJlZUlDJgXrjsRH3kxWEszkNw,gmaps_v2,jewelry_store,1687847039,1703583915.0,1187.0
ChIJAQAAAPM9rjsRhsjIVCE0pkc,Sri Ganesh Diamonds And Jewellery,13.004033088684082,77.551025390625,0x3bae3df300000001:0x47a6342154c8c886,828,https://www.google.com/maps/place/?q=place_id:ChIJAQAAAPM9rjsRhsjIVCE0pkc,gmaps_v2,jewelry_store,1687847039,1489505238.0,841.0
ChIJ2_A5xIw9rjsR42bfoVIYbe4,Roopam Silks & Sarees,12.989192008972168,77.55426025390625,0x3bae3d8cc439f0db:0xee6d1852a1df66e3,100,https://www.google.com/maps/place/?q=place_id:ChIJ2_A5xIw9rjsR42bfoVIYbe4,gmaps_v2,jewelry_store,1687847039,1480083227.0,105.0
ChIJd4TqIoY9rjsRLv6ER5vN16c,Sri Ganesh Jewellers,13.000021934509276,77.5577392578125,0x3bae3d8622ea8477:0xa7d7cd9b4784fe2e,11,https://www.google.com/maps/place/?q=place_id:ChIJd4TqIoY9rjsRLv6ER5vN16c,gmaps_v2,jewelry_store,1687847039,1506912116.0,11.0
ChIJZ4ObfuE9rjsRRhpeV9vkdnc,Sushma Jewellery Works,12.96793270111084,77.54450988769531,0x3bae3de17e9b8367:0x7776e4db575e1a46,22,https://www.google.com/maps/place/?q=place_id:ChIJZ4ObfuE9rjsRRhpeV9vkdnc,gmaps_v2,jewelry_store,1687847039,1500706965.0,22.0
ChIJGbFh7QM9rjsRFpwQpEhY7Gs,Mattress Factory,13.02072048187256,77.52885437011719,0x3bae3d03ed61b119:0x6bec5848a4109c16,102,https://www.google.com/maps/place/?q=place_id:ChIJGbFh7QM9rjsRFpwQpEhY7Gs,gmaps_v2,home_decor,1695212099,1525853293.0,102.0
ChIJeVY0OCk9rjsRSU3MOz3pj2I,SAI CURTAINS & FURNITURE,13.043904304504396,77.50990295410156,0x3bae3d2938345679:0x628fe93d3bcc4d49,11,https://www.google.com/maps/place/?q=place_id:ChIJeVY0OCk9rjsRSU3MOz3pj2I,gmaps_v2,home_decor,1695212099,1542905248.0,11.0
ChIJtZbe0B49rjsRKXAhS27YpW8,Karnataka bedding house and sofa works,12.995885848999023,77.527099609375,0x3bae3d1ed0de96b5:0x6fa5d86e4b217029,21,https://www.google.com/maps/place/?q=place_id:ChIJtZbe0B49rjsRKXAhS27YpW8,gmaps_v2,home_decor,1695212099,1663489637.0,22.0
ChIJkzbUkWE9rjsRmfbUMKcPRJg,Mahi Gourmet Foods,13.028176307678224,77.55986785888672,0x3bae3d6191d43693:0x98440fa730d4f699,12,https://www.google.com/maps/place/?q=place_id:ChIJkzbUkWE9rjsRmfbUMKcPRJg,gmaps_v2,home_decor,1695212099,1528814286.0,12.0
ChIJRdRNy4g9rjsRovtwTJa02ps,Dreamzee Bangalore Showroom,13.000296592712402,77.55017852783203,0x3bae3d88cb4dd445:0x9bdab4964c70fba2,42,https://www.google.com/maps/place/?q=place_id:ChIJRdRNy4g9rjsRovtwTJa02ps,gmaps_v2,home_decor,1695212099,1638513660.0,44.0
ChIJlYcsjN09rjsRh-Pqb00rJsM,FullHouz,12.971878051757812,77.53849029541016,0x3bae3ddd8c2c8795:0xc3262b4d6feae387,24,https://www.google.com/maps/place/?q=place_id:ChIJlYcsjN09rjsRh-Pqb00rJsM,gmaps_v2,home_decor,1695212099,1511316875.0,25.0
ChIJdxXF4Z8XrjsRu5FCq5FKMy8,Jute Pragnya,13.000194549560549,77.5694351196289,0x3bae179fe1c51577:0x2f334a91ab4291bb,13,https://www.google.com/maps/place/?q=place_id:ChIJdxXF4Z8XrjsRu5FCq5FKMy8,gmaps_v2,home_decor,1695212099,1575033301.0,14.0
ChIJa01JU9sXrjsRIK8QKSlsAgs,Anek,13.028077125549316,77.57298278808594,0x3bae17db53494d6b:0xb026c292910af20,58,https://www.google.com/maps/place/?q=place_id:ChIJa01JU9sXrjsRIK8QKSlsAgs,gmaps_v2,home_decor,1695212099,1518103298.0,69.0
ChIJgR3-JJY9rjsRtpq1G0NSuM8,MAHAVEER HOME APPLIANCES,12.994202613830566,77.53955078125,0x3bae3d9624fe1d81:0xcfb852431bb59ab6,170,https://www.google.com/maps/place/?q=place_id:ChIJgR3-JJY9rjsRtpq1G0NSuM8,gmaps_v2,home_decor,1695212099,1509357720.0,171.0
ChIJRz9gZSUWrjsRpVBSnJeZvrM,Evershine Departmental,12.999396324157717,77.57145690917969,0x3bae162565603f47:0xb3be99979c5250a5,211,https://www.google.com/maps/place/?q=place_id:ChIJRz9gZSUWrjsRpVBSnJeZvrM,gmaps_v2,home_decor,1695212099,1488815269.0,216.0
ChIJO5Iy-Ys9rjsR9FvP97mWuCM,Vakrath Furnitures,12.995098114013672,77.55520629882812,0x3bae3d8bf932923b:0x23b896b9f7cf5bf4,38,https://www.google.com/maps/place/?q=place_id:ChIJO5Iy-Ys9rjsR9FvP97mWuCM,gmaps_v2,home_decor,1695212099,1573983675.0,44.0
ChIJmTpWPqE9rjsRbmh8uCbRd1M,Gold Finch,13.005361557006836,77.53437805175781,0x3bae3da13e563a99:0x5377d126b87c686e,18,https://www.google.com/maps/place/?q=place_id:ChIJmTpWPqE9rjsRbmh8uCbRd1M,gmaps_v2,home_decor,1695212099,1546432554.0,14.0
ChIJ5SJHJxM9rjsRaXi1wbKdqKw,TTK Health Care Ltd bangalore depot,13.023879051208496,77.53800201416016,0x3bae3d13274722e5:0xaca89db2c1b57869,47,https://www.google.com/maps/place/?q=place_id:ChIJ5SJHJxM9rjsRaXi1wbKdqKw,gmaps_v2,home_decor,1695212099,1537270274.0,47.0
ChIJI11GhpQ9rjsRybVlHLrVEAw,Tarachand ceramics - Jaquar Showroom,12.977466583251951,77.54862213134766,0x3bae3d9486465d23:0xc10d5ba1c65b5c9,39,https://www.google.com/maps/place/?q=place_id:ChIJI11GhpQ9rjsRybVlHLrVEAw,gmaps_v2,home_decor,1695212099,1527520701.0,39.0
ChIJp793dmE9rjsRbf_bdiyVEM4,Sri Maari Furnitures,13.028038024902344,77.55876159667969,0x3bae3d617677bfa7:0xce10952c76dbff6d,79,https://www.google.com/maps/place/?q=place_id:ChIJp793dmE9rjsRbf_bdiyVEM4,gmaps_v2,home_decor,1695212099,1500089517.0,78.0
ChIJg_x0Ngs9rjsRGf-13tjwJG8,R.P.V Solutions Office Chairs Manufacturers and Repair and services,13.026790618896484,77.56061553955078,0x3bae3d0b3674fc83:0x6f24f0d8deb5ff19,113,https://www.google.com/maps/place/?q=place_id:ChIJg_x0Ngs9rjsRGf-13tjwJG8,gmaps_v2,home_decor,1695212099,1587999469.0,113.0
ChIJ65XCt8s9rjsRMe7gCJUTVl8,Jeevan Party Shop,12.979504585266112,77.53675842285156,0x3bae3dcbb7c295eb:0x5f56139508e0ee31,24,https://www.google.com/maps/place/?q=place_id:ChIJ65XCt8s9rjsRMe7gCJUTVl8,gmaps_v2,home_decor,1695212099,1641483126.0,25.0
ChIJqflkfqE9rjsR4_LUsiS7K6c,Jai Karnataka Bedding & Sofa Works,13.00395393371582,77.53579711914062,0x3bae3da17e64f9a9:0xa72bbb24b2d4f2e3,27,https://www.google.com/maps/place/?q=place_id:ChIJqflkfqE9rjsR4_LUsiS7K6c,gmaps_v2,home_decor,1695212099,1467205781.0,30.0
ChIJjaS2kd09rjsRAeD9zo8b2js,HAMSA FANCY STORE,12.971989631652832,77.53843688964844,0x3bae3ddd91b6a48d:0x3bda1b8fcefde001,131,https://www.google.com/maps/place/?q=place_id:ChIJjaS2kd09rjsRAeD9zo8b2js,gmaps_v2,jewelry_store,1687847039,1505465965.0,133.0
ChIJJWVgaJs9rjsRJxbWwEZUzw4,Navrathan Jewellers,13.00375270843506,77.54887390136719,0x3bae3d9b68606525:0xecf5446c0d61627,1340,https://www.google.com/maps/place/?q=place_id:ChIJJWVgaJs9rjsRJxbWwEZUzw4,gmaps_v2,jewelry_store,1687847039,1518854232.0,1394.0
ChIJTdfWTy4WrjsRKhknq4Mbka4,Srivani,13.000948905944824,77.57109832763672,0x3bae162e4fd6d74d:0xae911b83ab27192a,22,https://www.google.com/maps/place/?q=place_id:ChIJTdfWTy4WrjsRKhknq4Mbka4,gmaps_v2,jewelry_store,1687847039,1421457283.0,23.0
ChIJZZMUkSQWrjsRaHu3dfX7q40,Kanishq Jewels,12.995128631591797,77.57142639160156,0x3bae162491149365:0x8dabfbf575b77b68,15,https://www.google.com/maps/place/?q=place_id:ChIJZZMUkSQWrjsRaHu3dfX7q40,gmaps_v2,jewelry_store,1687847039,1518371507.0,16.0
ChIJIRmmidwXrjsRNTEiAuCr8J4,seasons gallery,13.029109001159668,77.57070922851562,0x3bae17dc89a61921:0x9ef0abe002223135,86,https://www.google.com/maps/place/?q=place_id:ChIJIRmmidwXrjsRNTEiAuCr8J4,gmaps_v2,jewelry_store,1687847039,1503896047.0,86.0
ChIJXcPoItYXrjsRgDF1zGkzvJc,Silver Fashions,13.001978874206545,77.57352447509766,0x3bae17d622e8c35d:0x97bc3369cc753180,14,https://www.google.com/maps/place/?q=place_id:ChIJXcPoItYXrjsRgDF1zGkzvJc,gmaps_v2,jewelry_store,1687847039,1623043927.0,13.0
ChIJGXwxx0QXrjsReDWsef_0s-Q,Janvi Silver,12.99508285522461,77.5714340209961,0x3bae1744c7317c19:0xe4b3f4ff79ac3578,13,https://www.google.com/maps/place/?q=place_id:ChIJGXwxx0QXrjsReDWsef_0s-Q,gmaps_v2,jewelry_store,1687847039,,
ChIJyRSTjSUWrjsRJ4BWnbup4ng,Mata Payals,12.998661994934082,77.57151794433594,0x3bae16258d9314c9:0x78e2a9bb9d568027,371,https://www.google.com/maps/place/?q=place_id:ChIJyRSTjSUWrjsRJ4BWnbup4ng,gmaps_v2,jewelry_store,1687847039,1378811881.0,373.0
ChIJC6uqaFQjrjsRn8-3T6TYQTM,MD Makeup Artistry,13.032114028930664,77.55929565429688,0x3bae235468aaab0b:0x3341d8a44fb7cf9f,38,https://www.google.com/maps/place/?q=place_id:ChIJC6uqaFQjrjsRn8-3T6TYQTM,gmaps_v2,jewelry_store,1687847039,1573829308.0,38.0
ChIJ3YaKHCUWrjsRyFbijsWw2P8,Navdeep Jewellers,12.9982271194458,77.57144165039062,0x3bae16251c8a86dd:0xffd8b0c58ee256c8,32,https://www.google.com/maps/place/?q=place_id:ChIJ3YaKHCUWrjsRyFbijsWw2P8,gmaps_v2,jewelry_store,1687847039,1481458590.0,31.0
ChIJFxYYiWs9rjsR72woBl5r8fM,Udaya Gold Buyers,13.004076957702637,77.52677917480469,0x3bae3d6b89181617:0xf3f16b5e06286cef,51,https://www.google.com/maps/place/?q=place_id:ChIJFxYYiWs9rjsR72woBl5r8fM,gmaps_v2,jewelry_store,1687847039,1644293953.0,58.0
ChIJc47GOOc9rjsRg5tFzV_4gpM,Vijay Jewellers,12.971929550170898,77.53815460205078,0x3bae3de738c68e73:0x9382f85fcd459b83,142,https://www.google.com/maps/place/?q=place_id:ChIJc47GOOc9rjsRg5tFzV_4gpM,gmaps_v2,jewelry_store,1687847039,1484466312.0,144.0
ChIJDQ8EEec9rjsRiO7lcMdwPKg,Prashanthi Jewellery Works,12.972100257873535,77.54075622558594,0x3bae3de711040f0d:0xa83c70c770e5ee88,21,https://www.google.com/maps/place/?q=place_id:ChIJDQ8EEec9rjsRiO7lcMdwPKg,gmaps_v2,jewelry_store,1687847039,1594833725.0,21.0
ChIJC2_Vyrg9rjsRlgArETUF3ss,prema kangans & inner garment,12.988155364990234,77.53511047363281,0x3bae3db8cad56f0b:0xcbde0535112b0096,34,https://www.google.com/maps/place/?q=place_id:ChIJC2_Vyrg9rjsRlgArETUF3ss,gmaps_v2,jewelry_store,1687847039,1541341316.0,36.0
ChIJeyE40hUWrjsR5Kob5jV8wvA,Brindavan Silver Crafts,12.986258506774902,77.57982635498047,0x3bae1615d238217b:0xf0c27c35e61baae4,14,https://www.google.com/maps/place/?q=place_id:ChIJeyE40hUWrjsR5Kob5jV8wvA,gmaps_v2,jewelry_store,1687847039,1479288215.0,12.0
ChIJd2hDZ5A9rjsRRWyP1IINS1Y,Sri Guru Raghavendra Jewellery Works,12.997406959533691,77.54976654052734,0x3bae3d9067436877:0x564b0d82d48f6c45,30,https://www.google.com/maps/place/?q=place_id:ChIJd2hDZ5A9rjsRRWyP1IINS1Y,gmaps_v2,jewelry_store,1687847039,,
ChIJyRSTjSUWrjsRamycruyjQpo,Navkar Jewellers,12.99977970123291,77.5714340209961,0x3bae16258d9314c9:0x9a42a3ecae9c6c6a,25,https://www.google.com/maps/place/?q=place_id:ChIJyRSTjSUWrjsRamycruyjQpo,gmaps_v2,jewelry_store,1687847039,1493597751.0,31.0
ChIJE8R9PncWrjsR830yCGVtUVw,Shri Ganesh Jewellers,13.03782081604004,77.5654525756836,0x3bae16773e7dc413:0x5c516d6508327df3,20,https://www.google.com/maps/place/?q=place_id:ChIJE8R9PncWrjsR830yCGVtUVw,gmaps_v2,jewelry_store,1687847039,1451307938.0,21.0
ChIJ2eKyM4s9rjsRO4yjIT7jRnY,Nithya Lakshmi Jewellers,12.993208885192873,77.56329345703125,0x3bae3d8b33b2e2d9:0x7646e33e21a38c3b,118,https://www.google.com/maps/place/?q=place_id:ChIJ2eKyM4s9rjsRO4yjIT7jRnY,gmaps_v2,jewelry_store,1687847039,1525629405.0,121.0
ChIJ8cUVxww9rjsRVniQbNCOJD0,GIVA - Sampige Road,12.994746208190918,77.57157135009766,0x3bae3d0cc715c5f1:0x3d248ed06c907856,59,https://www.google.com/maps/place/?q=place_id:ChIJ8cUVxww9rjsRVniQbNCOJD0,gmaps_v2,jewelry_store,1687847039,1695543347.0,291.0
ChIJOY55h5o9rjsRS4IfDatxyxo,Costume bank,12.986288070678713,77.55412292480469,0x3bae3d9a87798e39:0x1acb71ab0d1f824b,1057,https://www.google.com/maps/place/?q=place_id:ChIJOY55h5o9rjsRS4IfDatxyxo,gmaps_v2,jewelry_store,1687847039,1634401105.0,1150.0
ChIJbbacQVk9rjsRE9R106n98zw,Chandan Jewellers,13.040165901184082,77.55738830566406,0x3bae3d59419cb66d:0x3cf3fda9d375d413,28,https://www.google.com/maps/place/?q=place_id:ChIJbbacQVk9rjsRE9R106n98zw,gmaps_v2,jewelry_store,1687847039,1497510736.0,29.0
ChIJNWtlfWE9rjsR2haIsJmHU_s,LAKSHMI GOLD PALACE,13.028026580810549,77.55853271484375,0x3bae3d617d656b35:0xfb538799b08816da,40,https://www.google.com/maps/place/?q=place_id:ChIJNWtlfWE9rjsR2haIsJmHU_s,gmaps_v2,jewelry_store,1687847039,,
ChIJu-g5vXY9rjsRcWj0LOVzt2s,Om Jewellers,13.022994041442873,77.55690002441406,0x3bae3d76bd39e8bb:0x6bb773e52cf46871,16,https://www.google.com/maps/place/?q=place_id:ChIJu-g5vXY9rjsRcWj0LOVzt2s,gmaps_v2,jewelry_store,1687847039,1611728824.0,14.0
ChIJI8HvhGg9rjsR61Jp7RQZtR8,Arihant Traders,12.97958278656006,77.55947875976562,0x3bae3d6884efc123:0x1fb51914ed6952eb,34,https://www.google.com/maps/place/?q=place_id:ChIJI8HvhGg9rjsR61Jp7RQZtR8,gmaps_v2,home_decor,1695212099,1568297781.0,35.0
ChIJUWaCKZA9rjsRyCDco_NaGH4,Reality Furniture,12.994290351867676,77.54991149902344,0x3bae3d9029826651:0x7e185af3a3dc20c8,25,https://www.google.com/maps/place/?q=place_id:ChIJUWaCKZA9rjsRyCDco_NaGH4,gmaps_v2,home_decor,1695212099,1431505096.0,26.0
ChIJc4Wi3OA9rjsRhGP8NXNHfbc,Goyal Tile Studio,12.977239608764648,77.54635620117188,0x3bae3de0dca28573:0xb77d477335fc6384,11,https://www.google.com/maps/place/?q=place_id:ChIJc4Wi3OA9rjsRhGP8NXNHfbc,gmaps_v2,home_decor,1695212099,,
ChIJ6RTrYmM9rjsR0grQiYosf6U,Popular Furnitures,13.025035858154297,77.5600814819336,0x3bae3d6362eb14e9:0xa57f2c8a89d00ad2,17,https://www.google.com/maps/place/?q=place_id:ChIJ6RTrYmM9rjsR0grQiYosf6U,gmaps_v2,home_decor,1695212099,1553447001.0,17.0
ChIJxWFOExYWrjsRBqXFTLUExws,Ahaa,12.987750053405762,77.57826232910156,0x3bae1616134e61c5:0xbc704b54cc5a506,100,https://www.google.com/maps/place/?q=place_id:ChIJxWFOExYWrjsRBqXFTLUExws,gmaps_v2,home_decor,1695212099,1481704568.0,116.0
ChIJA-atQSwWrjsRjAlLxuXrxIE,WallPlays Wallpaper,12.997588157653809,77.57246398925781,0x3bae162c41ade603:0x81c4ebe5c64b098c,1753,https://www.google.com/maps/place/?q=place_id:ChIJA-atQSwWrjsRjAlLxuXrxIE,gmaps_v2,home_decor,1695212099,1619114951.0,2035.0
ChIJXWKvKSAWrjsRqyLkYp9RNWA,K.G Mart (Kitchenware & Pawn Brokers),12.991270065307615,77.56706237792969,0x3bae162029af625d:0x6035519f62e422ab,26,https://www.google.com/maps/place/?q=place_id:ChIJXWKvKSAWrjsRqyLkYp9RNWA,gmaps_v2,home_decor,1695212099,1537936795.0,26.0
ChIJ0ZKE0T8XrjsRez4zFlGHlBM,"Faber showroom - Electric chimney, Hob, Franke sink ,built-in oven, m.oven - Bangalore",13.028239250183104,77.57146453857422,0x3bae173fd18492d1:0x1394875116333e7b,31,https://www.google.com/maps/place/?q=place_id:ChIJ0ZKE0T8XrjsRez4zFlGHlBM,gmaps_v2,home_decor,1695212099,,
ChIJdU9UrmQ9rjsRhqylK3M52Vk,V-Fix Facility Management Services Pvt Ltd,13.02449893951416,77.55721282958984,0x3bae3d64ae544f75:0x59d939732ba5ac86,14,https://www.google.com/maps/place/?q=place_id:ChIJdU9UrmQ9rjsRhqylK3M52Vk,gmaps_v2,home_decor,1695212099,1443730532.0,14.0
ChIJFWSW6w49rjsRw5utYzQ5SHM,FLIPTOHOME,13.016680717468262,77.53170776367188,0x3bae3d0eeb966415:0x7348393463ad9bc3,17,https://www.google.com/maps/place/?q=place_id:ChIJFWSW6w49rjsRw5utYzQ5SHM,gmaps_v2,home_decor,1695212099,1544532627.0,19.0
ChIJX0A0vck9rjsRDqit4XGQFV4,"Ns Creative Events - Balloon Decorators in Banglore, Balloon decoration at home, Flower Decorators, Party Organiser",13.01331615447998,77.54634094238281,0x3bae3dc9bd34405f:0x5e159071e1ada80e,41,https://www.google.com/maps/place/?q=place_id:ChIJX0A0vck9rjsRDqit4XGQFV4,gmaps_v2,home_decor,1695212099,1646491380.0,41.0
ChIJ1SPqPPE9rjsRwbiHV_080Ac,Shakthi's - Furniture & Interior Studio,13.003934860229492,77.55350494384766,0x3bae3df13cea23d5:0x7d03cfd5787b8c1,40,https://www.google.com/maps/place/?q=place_id:ChIJ1SPqPPE9rjsRwbiHV_080Ac,gmaps_v2,home_decor,1695212099,1454843730.0,41.0
ChIJYTYpIIs9rjsR9RwucjCA1t8,Ashwini Furniture World,12.989486694335938,77.5589370727539,0x3bae3d8b20293661:0xdfd68030722e1cf5,18,https://www.google.com/maps/place/?q=place_id:ChIJYTYpIIs9rjsR9RwucjCA1t8,gmaps_v2,home_decor,1695212099,1499019099.0,18.0
ChIJMakS8889rjsRbVPF3F3qx0k,Krishna Tiles And Sanitaryware,12.993866920471191,77.5339126586914,0x3bae3dcff312a931:0x49c7ea5ddcc5536d,20,https://www.google.com/maps/place/?q=place_id:ChIJMakS8889rjsRbVPF3F3qx0k,gmaps_v2,home_decor,1695212099,1678028441.0,27.0
ChIJP_1BLlU9rjsRqYjVczoA1zg,CASTA CONSTRUCTIONS,13.013195037841797,77.53387451171875,0x3bae3d552e41fd3f:0x38d7003a73d588a9,17,https://www.google.com/maps/place/?q=place_id:ChIJP_1BLlU9rjsRqYjVczoA1zg,gmaps_v2,home_decor,1695212099,1634839412.0,17.0
ChIJmWyk2rE9rjsRKVodhFsrOLI,Pipeline,12.997544288635254,77.52313232421875,0x3bae3db1daa46c99:0xb2382b5b841d5a29,37,https://www.google.com/maps/place/?q=place_id:ChIJmWyk2rE9rjsRKVodhFsrOLI,gmaps_v2,home_decor,1695212099,1495303795.0,37.0
ChIJ2ffyNa89rjsRDRwZR8gnXak,Jai Maruthi Condiments,13.003273010253906,77.52580261230469,0x3bae3daf35f2f7d9:0xa95d27c847191c0d,29,https://www.google.com/maps/place/?q=place_id:ChIJ2ffyNa89rjsRDRwZR8gnXak,gmaps_v2,coffee_shop,1687847039,1507820521.0,29.0
ChIJQTI-_YM9rjsRwqNUgAW0ruY,Panchalingeshwara Tea Stall,13.005516052246094,77.55610656738281,0x3bae3d83fd3e3241:0xe6aeb4058054a3c2,21,https://www.google.com/maps/place/?q=place_id:ChIJQTI-_YM9rjsRwqNUgAW0ruY,gmaps_v2,coffee_shop,1687847039,1518415972.0,21.0
ChIJYRwlXDAWrjsRZPZg8sSfn4s,Surya Store,13.001776695251465,77.57579803466797,0x3bae16305c251c61:0x8b9f9fc4f260f664,18,https://www.google.com/maps/place/?q=place_id:ChIJYRwlXDAWrjsRZPZg8sSfn4s,gmaps_v2,coffee_shop,1687847039,1512658143.0,20.0
ChIJYWTtrSIWrjsR0BaeAmiRnKU,Samosa Corner,12.98941135406494,77.57328033447266,0x3bae1622aded6461:0xa59c9168029e16d0,24,https://www.google.com/maps/place/?q=place_id:ChIJYWTtrSIWrjsR0BaeAmiRnKU,gmaps_v2,coffee_shop,1687847039,1459781485.0,25.0
ChIJufjTM_M9rjsRE-_5DgJdnm4,"O.G. Variar and Sons, Variar Bakery",12.991384506225586,77.55455780029297,0x3bae3df333d3f8b9:0x6e9e5d020ef9ef13,10273,https://www.google.com/maps/place/?q=place_id:ChIJufjTM_M9rjsRE-_5DgJdnm4,gmaps_v2,coffee_shop,1687847039,1495442921.0,10740.0
ChIJB92NopQ9rjsRt06QQpT4UMA,Ira's Plate,12.995657920837402,77.57467651367188,0x3bae3d94a28ddd07:0xc050f89442904eb7,63,https://www.google.com/maps/place/?q=place_id:ChIJB92NopQ9rjsRt06QQpT4UMA,gmaps_v2,coffee_shop,1687847039,1596824997.0,62.0
ChIJmfN3k6I9rjsRwNhVVBL0sqg,Nandikeshwara Condiments,13.000188827514648,77.53771209716797,0x3bae3da29377f399:0xa8b2f4125455d8c0,13,https://www.google.com/maps/place/?q=place_id:ChIJmfN3k6I9rjsRwNhVVBL0sqg,gmaps_v2,coffee_shop,1687847039,1494783173.0,11.0
ChIJSVQqxS89rjsR92wofv4slZk,Tandoor Chai Point,12.996376037597656,77.55583190917969,0x3bae3d2fc52a5449:0x99952cfe7e286cf7,11,https://www.google.com/maps/place/?q=place_id:ChIJSVQqxS89rjsR92wofv4slZk,gmaps_v2,coffee_shop,1687847039,1551449163.0,11.0
ChIJ53uN0Js9rjsRAjg-bKd-iSY,Frozen Lake,12.973719596862791,77.55179595947266,0x3bae3d9bd08d7be7:0x26897ea76c3e3802,21,https://www.google.com/maps/place/?q=place_id:ChIJ53uN0Js9rjsRAjg-bKd-iSY,gmaps_v2,coffee_shop,1687847039,1570943691.0,21.0
ChIJoTL1-WE9rjsRjvgO0lzXkPk,Arun Ice Cream-Shambu Enterprises,13.028090476989746,77.56130981445312,0x3bae3d61f9f532a1:0xf990d75cd20ef88e,499,https://www.google.com/maps/place/?q=place_id:ChIJoTL1-WE9rjsRjvgO0lzXkPk,gmaps_v2,coffee_shop,1687847039,1466705634.0,495.0
ChIJiwgEWbc9rjsRNJxe1k88wzU,Puneri Amruttulya,12.996867179870604,77.546630859375,0x3bae3db75904088b:0x35c33c4fd65e9c34,27,https://www.google.com/maps/place/?q=place_id:ChIJiwgEWbc9rjsRNJxe1k88wzU,gmaps_v2,coffee_shop,1687847039,1667731710.0,30.0
ChIJA85zDWc9rjsRGklMnEeyg4o,Mali agencies,13.019720077514648,77.54995727539062,0x3bae3d670d73ce03:0x8a83b2479c4c491a,27,https://www.google.com/maps/place/?q=place_id:ChIJA85zDWc9rjsRGklMnEeyg4o,gmaps_v2,coffee_shop,1687847039,1584113702.0,29.0
ChIJZx2z4kY9rjsRNE8uqCYtwvs,Lassi Spot,12.972810745239258,77.54985809326172,0x3bae3d46e2b31d67:0xfbc22d26a82e4f34,24,https://www.google.com/maps/place/?q=place_id:ChIJZx2z4kY9rjsRNE8uqCYtwvs,gmaps_v2,coffee_shop,1687847039,1548707930.0,24.0
ChIJET7OLZ49rjsRIGcO3VNnd1g,Bombay Kulfis,13.028615951538086,77.55868530273438,0x3bae3d9e2dce3e11:0x58776753dd0e6720,23,https://www.google.com/maps/place/?q=place_id:ChIJET7OLZ49rjsRIGcO3VNnd1g,gmaps_v2,coffee_shop,1687847039,1576855675.0,25.0
ChIJ03Edxes9rjsRj2_lp4SVi_U,Dessert Works,13.011567115783691,77.55509185791016,0x3bae3debc51d71d3:0xf58b9584a7e56f8f,112,https://www.google.com/maps/place/?q=place_id:ChIJ03Edxes9rjsRj2_lp4SVi_U,gmaps_v2,coffee_shop,1687847039,1688140525.0,239.0
ChIJNyWgWwk9rjsR22kXpf2HgY8,New Cake Palace,13.014104843139648,77.53279113769531,0x3bae3d095ba02537:0x8f8187fda51769db,231,https://www.google.com/maps/place/?q=place_id:ChIJNyWgWwk9rjsR22kXpf2HgY8,gmaps_v2,coffee_shop,1687847039,1519456733.0,244.0
ChIJ8XCh_bs9rjsRsYePGSBNbRo,G Butter Sponge Iyenger Bakery,12.991969108581545,77.53656005859375,0x3bae3dbbfda170f1:0x1a6d4d20198f87b1,99,https://www.google.com/maps/place/?q=place_id:ChIJ8XCh_bs9rjsRsYePGSBNbRo,gmaps_v2,coffee_shop,1687847039,1555322829.0,104.0
ChIJFxr2p_I9rjsR5i3mOPIGcU4,Ambrosia Chocolates,12.993348121643066,77.5414047241211,0x3bae3df2a7f61a17:0x4e7106f238e62de6,28,https://www.google.com/maps/place/?q=place_id:ChIJFxr2p_I9rjsR5i3mOPIGcU4,gmaps_v2,coffee_shop,1687847039,1647971953.0,37.0
ChIJFanUJHc9rjsR4h8uN6MSJ64,Shiva Bakery Condiments,13.014925003051758,77.5483169555664,0x3bae3d7724d4a915:0xae2712a3372e1fe2,11,https://www.google.com/maps/place/?q=place_id:ChIJFanUJHc9rjsR4h8uN6MSJ64,gmaps_v2,coffee_shop,1687847039,1477210928.0,12.0
ChIJLf5SwIo9rjsReK2LCNc27Yo,Sri Gururaghavendra Bakery & Condiments,12.989415168762209,77.56034088134766,0x3bae3d8ac052fe2d:0x8aed36d7088bad78,12,https://www.google.com/maps/place/?q=place_id:ChIJLf5SwIo9rjsReK2LCNc27Yo,gmaps_v2,coffee_shop,1687847039,1493055636.0,12.0
ChIJtfVBuLQXrjsRDfSpZcBbq68,Nandini Cafe Moo,12.991741180419922,77.57080078125,0x3bae17b4b841f5b5:0xafab5bc065a9f40d,43,https://www.google.com/maps/place/?q=place_id:ChIJtfVBuLQXrjsRDfSpZcBbq68,gmaps_v2,coffee_shop,1687847039,1650624106.0,56.0
ChIJyVKWFpQ9rjsRNpCbgE39KH4,Sri Annapoorna Sweets And Chats,12.991844177246094,77.54322814941406,0x3bae3d94169652c9:0x7e28fd4d809b9036,35,https://www.google.com/maps/place/?q=place_id:ChIJyVKWFpQ9rjsRNpCbgE39KH4,gmaps_v2,coffee_shop,1687847039,1478081913.0,36.0
ChIJf1-qvKM9rjsRpCTxmUBoSQM,Sri Sapthagiri Condiments,13.0017728805542,77.5350570678711,0x3bae3da3bcaa5f7f:0x349684099f124a4,29,https://www.google.com/maps/place/?q=place_id:ChIJf1-qvKM9rjsRpCTxmUBoSQM,gmaps_v2,coffee_shop,1687847039,1515004074.0,29.0
ChIJU-m_-cMXrjsRVkvgNqmKM0c,PRO ELECTRONICS AND COMPUTERS,12.992546081542969,77.56687927246094,0x3bae17c3f9bfe953:0x47338aa936e04b56,13,https://www.google.com/maps/place/?q=place_id:ChIJU-m_-cMXrjsRVkvgNqmKM0c,gmaps_v2,home_decor,1695212099,1562044768.0,11.0
ChIJ-RZFfToXrjsRhr3nyqiRlEk,Maruthi Computer Home,12.995594024658203,77.57097625732422,0x3bae173a7d4516f9:0x499491a8cae7bd86,71,https://www.google.com/maps/place/?q=place_id:ChIJ-RZFfToXrjsRhr3nyqiRlEk,gmaps_v2,home_decor,1695212099,1645634250.0,102.0
ChIJhSdfywo9rjsR0jPhy4RQw6Q,S.S.B Enterprises - Water Purifier Sales & Repairs,13.011517524719238,77.53892517089844,0x3bae3d0acb5f2785:0xa4c35084cbe133d2,25,https://www.google.com/maps/place/?q=place_id:ChIJhSdfywo9rjsR0jPhy4RQw6Q,gmaps_v2,home_decor,1695212099,1514083512.0,26.0
ChIJSYNYOpg9rjsRdrshw0GMmVQ,Sri Mahalakshmi Wooden & Steel Furniture,12.999777793884276,77.5404281616211,0x3bae3d983a588349:0x54998c41c321bb76,16,https://www.google.com/maps/place/?q=place_id:ChIJSYNYOpg9rjsRdrshw0GMmVQ,gmaps_v2,home_decor,1695212099,1533697890.0,16.0
ChIJMeoIfw89rjsRL7MjAyJaanY,Weforyou Laptop & computer services,12.985605239868164,77.5394058227539,0x3bae3d0f7f08ea31:0x766a5a220323b32f,31,https://www.google.com/maps/place/?q=place_id:ChIJMeoIfw89rjsRL7MjAyJaanY,gmaps_v2,home_decor,1695212099,,
ChIJNZAM3y8WrjsRuYJpcXXLjl8,Dhanyashree Enterprises,13.001729011535645,77.57332611083984,0x3bae162fdf0c9035:0x5f8ecb75716982b9,21,https://www.google.com/maps/place/?q=place_id:ChIJNZAM3y8WrjsRuYJpcXXLjl8,gmaps_v2,home_decor,1695212099,,
ChIJQ6ITUY89rjsRMnGtCjqRnnU,"2M Sleep Care Mattress Shop, Foam, Orthocare, Spring mattress, Mattress manufacturers & Mattress Wholesale Factory Bangalore",12.998754501342772,77.55583190917969,0x3bae3d8f5113a243:0x759e913a0aad7132,47,https://www.google.com/maps/place/?q=place_id:ChIJQ6ITUY89rjsRMnGtCjqRnnU,gmaps_v2,home_decor,1695212099,1525257546.0,46.0
ChIJkSg9LJs9rjsRMMxtLr1UEKQ,The Handloom House,13.002299308776855,77.55036163330078,0x3bae3d9b2c3d2891:0xa41054bd2e6dcc30,18,https://www.google.com/maps/place/?q=place_id:ChIJkSg9LJs9rjsRMMxtLr1UEKQ,gmaps_v2,home_decor,1695212099,1522621755.0,16.0
ChIJ9b3th0sXrjsRIWN1l5_pdxU,MD DECOR,13.039024353027344,77.56454467773438,0x3bae174b87edbdf5:0x1577e99f97756321,19,https://www.google.com/maps/place/?q=place_id:ChIJ9b3th0sXrjsRIWN1l5_pdxU,gmaps_v2,home_decor,1695212099,1670922035.0,19.0
ChIJDdFMT1k9rjsRcpmabxSrRnQ,GHAR,13.039498329162598,77.55735778808594,0x3bae3d594f4cd10d:0x7446ab146f9a9972,28,https://www.google.com/maps/place/?q=place_id:ChIJDdFMT1k9rjsRcpmabxSrRnQ,gmaps_v2,home_decor,1695212099,1496123683.0,26.0
ChIJKZrhYbQ_rjsReix_Jxl7vWk,Siddhi Glass and Plywoods,13.036335945129396,77.53475189208984,0x3bae3fb461e19a29:0x69bd7b19277f2c7a,12,https://www.google.com/maps/place/?q=place_id:ChIJKZrhYbQ_rjsReix_Jxl7vWk,gmaps_v2,home_decor,1695212099,,
ChIJcV7QqI49rjsRmhkD-0_9boA,Decoressa,12.993881225585938,77.55567169189453,0x3bae3d8ea8d05e71:0x806efd4ffb03199a,24,https://www.google.com/maps/place/?q=place_id:ChIJcV7QqI49rjsRmhkD-0_9boA,gmaps_v2,home_decor,1695212099,1472061078.0,25.0
ChIJFSqwGH49rjsRSX5nFUwpar0,"VRR AV IT (Projector service for BenQ optoma Epson Infocus, Home Theater setup ) Bangalore",12.998777389526367,77.55217742919922,0x3bae3d7e18b02a15:0xbd6a294c15677e49,134,https://www.google.com/maps/place/?q=place_id:ChIJFSqwGH49rjsRSX5nFUwpar0,gmaps_v2,home_decor,1695212099,1562859269.0,134.0
ChIJwSSkVKI9rjsRCxHky_AJaEQ,My Balloons My Party,13.001006126403809,77.53306579589844,0x3bae3da254a424c1:0x446809f0cbe4110b,135,https://www.google.com/maps/place/?q=place_id:ChIJwSSkVKI9rjsRCxHky_AJaEQ,gmaps_v2,home_decor,1695212099,1488614334.0,133.0
ChIJbwPTjxQ9rjsRP6QgttuJJYM,ASIAN 3D Flooring & 3D Wallpaper and 3D Wallpainting in Bangalore,12.978641510009766,77.55601501464844,0x3bae3d148fd3036f:0x832589dbb620a43f,226,https://www.google.com/maps/place/?q=place_id:ChIJbwPTjxQ9rjsRP6QgttuJJYM,gmaps_v2,home_decor,1695212099,1495775033.0,226.0
ChIJN0_xQZw9rjsRZpHMFgXLwts,KESAR MARKETING,13.012755393981934,77.54429626464844,0x3bae3d9c41f14f37:0xdbc2cb0516cc9166,25,https://www.google.com/maps/place/?q=place_id:ChIJN0_xQZw9rjsRZpHMFgXLwts,gmaps_v2,home_decor,1695212099,1699268565.0,63.0
ChIJCaKtnR09rjsRNC-zCOpfkKA,HOMEDEC DECORATIVES AND EVENT'S,13.000515937805176,77.52806854248047,0x3bae3d1d9dada209:0xa0905fea08b32f34,17,https://www.google.com/maps/place/?q=place_id:ChIJCaKtnR09rjsRNC-zCOpfkKA,gmaps_v2,home_decor,1695212099,1606396047.0,16.0
ChIJUSquRT09rjsRS2qTLLgEyyk,J H Equipments,13.032739639282228,77.52841186523438,0x3bae3d3d45ae2a51:0x29cb04b82c936a4b,16,https://www.google.com/maps/place/?q=place_id:ChIJUSquRT09rjsRS2qTLLgEyyk,gmaps_v2,home_decor,1695212099,1678343148.0,17.0
ChIJy6XEmAoWrjsR1djcMCk6C3M,Sudha Book House,12.988213539123535,77.55587768554688,0x3bae160a98c4a5cb:0x730b3a2930dcd8d5,63,https://www.google.com/maps/place/?q=place_id:ChIJy6XEmAoWrjsR1djcMCk6C3M,gmaps_v2,home_decor,1695212099,1468830390.0,62.0
ChIJ33n30yE9rjsRTURAsOJtgp0,Meenakshi Fancy & Gift Centre,12.998974800109863,77.55760955810547,0x3bae3d21d3f779df:0x9d826de2b040444d,47,https://www.google.com/maps/place/?q=place_id:ChIJ33n30yE9rjsRTURAsOJtgp0,gmaps_v2,home_decor,1695212099,1534226631.0,46.0
ChIJiWb0tCAWrjsRLgkVobTe4sk,Bhagya Jyothi Steel Centre,12.993701934814451,77.5631103515625,0x3bae1620b4f46689:0xc9e2deb4a115092e,28,https://www.google.com/maps/place/?q=place_id:ChIJiWb0tCAWrjsRLgkVobTe4sk,gmaps_v2,home_decor,1695212099,1510754765.0,28.0
ChIJQctQhfA9rjsRDBHq0Bdc7Dk,Taj Food Solutions,12.998676300048828,77.55267333984375,0x3bae3df08550cb41:0x39ec5c17d0ea110c,51,https://www.google.com/maps/place/?q=place_id:ChIJQctQhfA9rjsRDBHq0Bdc7Dk,gmaps_v2,home_decor,1695212099,1514817509.0,51.0
ChIJa_3Z3_k9rjsRf6YDUGxzmNw,Kiran Enterprises,12.976506233215332,77.55767059326172,0x3bae3df9dfd9fd6b:0xdc98736c5003a67f,13,https://www.google.com/maps/place/?q=place_id:ChIJa_3Z3_k9rjsRf6YDUGxzmNw,gmaps_v2,home_decor,1695212099,1513942228.0,12.0
ChIJ2wqlRDs9rjsRcUMinuS-3i8,"Shubham Gifts(Customised Pillows, Mugs, Keychains, Clocks, & Frames, moon lamp, personalised gifts)Tatoo",13.033705711364746,77.55792999267578,0x3bae3d3b44a50adb:0x2fdebee49e224371,61,https://www.google.com/maps/place/?q=place_id:ChIJ2wqlRDs9rjsRcUMinuS-3i8,gmaps_v2,home_decor,1695212099,1581093797.0,76.0
ChIJdxRSaIw9rjsRrpJlI_3xstw,Sri Mahaveer Stores,12.991679191589355,77.55491638183594,0x3bae3d8c68521477:0xdcb2f1fd236592ae,274,https://www.google.com/maps/place/?q=place_id:ChIJdxRSaIw9rjsRrpJlI_3xstw,gmaps_v2,home_decor,1695212099,1512570844.0,282.0
ChIJ29iiPl49rjsRVKZC-bwIjQc,PMI,13.03440284729004,77.55792999267578,0x3bae3d5e3ea2d8db:0x78d08bcf942a654,42,https://www.google.com/maps/place/?q=place_id:ChIJ29iiPl49rjsRVKZC-bwIjQc,gmaps_v2,home_decor,1695212099,1466643876.0,43.0
ChIJWdc4ZGc9rjsR8ce5HPF45Hs,Balaji Hardware And Sanitary,13.032563209533691,77.55436706542969,0x3bae3d676438d759:0x7be478f11cb9c7f1,20,https://www.google.com/maps/place/?q=place_id:ChIJWdc4ZGc9rjsR8ce5HPF45Hs,gmaps_v2,home_decor,1695212099,1512711881.0,21.0
ChIJVVVVFdkXrjsRLJzT2CcxOvk,Mathaji Home Appliances,13.032655715942385,77.55451202392578,0x3bae17d915555555:0xf93a3127d8d39c2c,17,https://www.google.com/maps/place/?q=place_id:ChIJVVVVFdkXrjsRLJzT2CcxOvk,gmaps_v2,home_decor,1695212099,1551934262.0,14.0
ChIJwX1FhhAXrjsRG5ErjIl7ES0,HMG Stones - Marble | Granite | Travertine | Onyx | Quartzite | Limestone | Sandstone | Shellstone,12.99704647064209,77.58436584472656,0x3bae171086457dc1:0x2d117b898c2b911b,237,https://www.google.com/maps/place/?q=place_id:ChIJwX1FhhAXrjsRG5ErjIl7ES0,gmaps_v2,home_decor,1695212099,1592220158.0,250.0
ChIJ2y69JF49rjsRgUvkIYLnD8s,Eshwar Handloom- The Home Furnishing store,13.031598091125488,77.55939483642578,0x3bae3d5e24bd2edb:0xcb0fe78221e44b81,49,https://www.google.com/maps/place/?q=place_id:ChIJ2y69JF49rjsRgUvkIYLnD8s,gmaps_v2,home_decor,1695212099,1603417531.0,59.0
ChIJC2C2lno9rjsRGszqja47ylA,ARIHANT SALES,13.017013549804688,77.54619598388672,0x3bae3d7a96b6600b:0x50ca3bae8deacc1a,116,https://www.google.com/maps/place/?q=place_id:ChIJC2C2lno9rjsRGszqja47ylA,gmaps_v2,home_decor,1695212099,1514188080.0,122.0
ChIJUZ5cbGs9rjsROVQewfImubM,Rathod Build Mart Pvt. Ltd.,13.014713287353516,77.55116271972656,0x3bae3d6b6c5c9e51:0xb3b926f2c11e5439,1412,https://www.google.com/maps/place/?q=place_id:ChIJUZ5cbGs9rjsROVQewfImubM,gmaps_v2,home_decor,1695212099,,
ChIJ22W-BYs9rjsRDnloh4acH_M,"Sai Enterprises-Mosquito Net For Bed,Windows Velcro Mesh in Bengaluru",12.97456169128418,77.54066467285156,0x3bae3d8b05be65db:0xf31f9c868768790e,81,https://www.google.com/maps/place/?q=place_id:ChIJ22W-BYs9rjsRDnloh4acH_M,gmaps_v2,home_decor,1695212099,1520338682.0,81.0
ChIJS90gneo9rjsRr8X-l2M75g4,Buildx Interior Products Private Limited,12.982845306396484,77.5487060546875,0x3bae3dea9d20dd4b:0xee63b6397fec5af,12,https://www.google.com/maps/place/?q=place_id:ChIJS90gneo9rjsRr8X-l2M75g4,gmaps_v2,home_decor,1695212099,1497342804.0,11.0
ChIJo1gxkxcWrjsRNG1Ih438gtc,Karnataka Coir Mats,12.987507820129396,77.57447052001953,0x3bae1617933158a3:0xd782fc8d87486d34,12,https://www.google.com/maps/place/?q=place_id:ChIJo1gxkxcWrjsRNG1Ih438gtc,gmaps_v2,home_decor,1695212099,1554652432.0,14.0
ChIJw-91-489rjsRfiGzsRCLP3o,Dhanlakshmi Kitchen World,13.000757217407228,77.55036926269531,0x3bae3d8ffb75efc3:0x7a3f8b10b1b3217e,52,https://www.google.com/maps/place/?q=place_id:ChIJw-91-489rjsRfiGzsRCLP3o,gmaps_v2,home_decor,1695212099,1515924454.0,53.0
ChIJY8MOzeAXrjsR21YhkfeudGY,Trance Retail,13.035743713378906,77.56752014160156,0x3bae17e0cd0ec363:0x6674aef7912156db,90,https://www.google.com/maps/place/?q=place_id:ChIJY8MOzeAXrjsR21YhkfeudGY,gmaps_v2,home_decor,1695212099,1458217499.0,91.0
ChIJwZ9S12M9rjsR9tGD93tytEk,INDIAN WOOD AND STEEL FURNITURE,13.02731227874756,77.55830383300781,0x3bae3d63d7529fc1:0x49b4727bf783d1f6,148,https://www.google.com/maps/place/?q=place_id:ChIJwZ9S12M9rjsR9tGD93tytEk,gmaps_v2,home_decor,1695212099,1545709083.0,153.0
ChIJ1YLVcywWrjsR2VD1QyNGdmE,Urban Insight - Turnkey Interiors,13.00729751586914,77.56810760498047,0x3bae162c73d582d5:0x6176462343f550d9,18,https://www.google.com/maps/place/?q=place_id:ChIJ1YLVcywWrjsR2VD1QyNGdmE,gmaps_v2,home_decor,1695212099,1500792463.0,16.0
ChIJq6qqaoY9rjsRbn0ahrzHD48,J. K. Steel Center,13.000186920166016,77.56050872802734,0x3bae3d866aaaaaab:0x8f0fc7bc861a7d6e,28,https://www.google.com/maps/place/?q=place_id:ChIJq6qqaoY9rjsRbn0ahrzHD48,gmaps_v2,home_decor,1695212099,1463420270.0,30.0
ChIJfQkAzts9rjsR0P4m4UCNaWc,Maha shiv Hardware,13.020428657531738,77.5582504272461,0x3bae3ddbce00097d:0x67698d40e126fed0,13,https://www.google.com/maps/place/?q=place_id:ChIJfQkAzts9rjsR0P4m4UCNaWc,gmaps_v2,home_decor,1695212099,1606102881.0,13.0
ChIJNSeAiV49rjsRJ2T3r4doW7U,Hamara Painters,13.036213874816896,77.55723571777344,0x3bae3d5e89802735:0xb55b6887aff76427,65,https://www.google.com/maps/place/?q=place_id:ChIJNSeAiV49rjsRJ2T3r4doW7U,gmaps_v2,home_decor,1695212099,1470740447.0,65.0
ChIJJ2G4xvU9rjsRUbY1sA9-Utc,Smart Living Retail Private Limited,12.983713150024414,77.55995178222656,0x3bae3df5c6b86127:0xd7527e0fb035b651,23,https://www.google.com/maps/place/?q=place_id:ChIJJ2G4xvU9rjsRUbY1sA9-Utc,gmaps_v2,home_decor,1695212099,1492353076.0,22.0
ChIJgdHDwYs9rjsR9ufsRK74SVo,Hindustan Bedding House,12.992525100708008,77.55792999267578,0x3bae3d8bc1c3d181:0x5a49f8ae44ece7f6,13,https://www.google.com/maps/place/?q=place_id:ChIJgdHDwYs9rjsR9ufsRK74SVo,gmaps_v2,home_decor,1695212099,1472812868.0,14.0
ChIJs3lDw189rjsRWqF2uozdVjo,Shobha Home Appliances And Spares,13.034062385559082,77.56079864501953,0x3bae3d5fc34379b3:0x3a56dd8cba76a15a,25,https://www.google.com/maps/place/?q=place_id:ChIJs3lDw189rjsRWqF2uozdVjo,gmaps_v2,home_decor,1695212099,1485151639.0,28.0
ChIJbxlLTkU9rjsRy_pLsMdEf7E,KAFF Royal Kitchen World,13.040742874145508,77.51717376708984,0x3bae3d454e4b196f:0xb17f44c7b04bfacb,44,https://www.google.com/maps/place/?q=place_id:ChIJbxlLTkU9rjsRy_pLsMdEf7E,gmaps_v2,home_decor,1695212099,1617361825.0,44.0
ChIJJRs0mr89rjsRhNJxqpWKyLU,Ramakrishna Cutlery & General Stores.,12.987939834594728,77.53668212890625,0x3bae3dbf9a341b25:0xb5c88a95aa71d284,11,https://www.google.com/maps/place/?q=place_id:ChIJJRs0mr89rjsRhNJxqpWKyLU,gmaps_v2,home_decor,1695212099,,
ChIJ____P6Q9rjsRLf-2_WrwaY0,Baby Balloons,13.002306938171388,77.53184509277344,0x3bae3da43fffffff:0x8d69f06afdb6ff2d,11,https://www.google.com/maps/place/?q=place_id:ChIJ____P6Q9rjsRLf-2_WrwaY0,gmaps_v2,home_decor,1695212099,,
ChIJw-91-489rjsR66KP__VzwjU,Rajesh's Home Appliances,13.003007888793944,77.55001831054688,0x3bae3d8ffb75efc3:0x35c273f5ff8fa2eb,125,https://www.google.com/maps/place/?q=place_id:ChIJw-91-489rjsR66KP__VzwjU,gmaps_v2,home_decor,1695212099,1463633267.0,123.0
ChIJHxOycyMWrjsRlRwdVeH4eE4,Sri Vishnu's,12.993359565734863,77.5713119506836,0x3bae162373b2131f:0x4e78f8e1551d1c95,52,https://www.google.com/maps/place/?q=place_id:ChIJHxOycyMWrjsRlRwdVeH4eE4,gmaps_v2,home_decor,1695212099,1461834023.0,54.0
ChIJGT22pmE9rjsRmR8X6lPsQu4,V.A.H Furniture Gallery,13.028533935546877,77.55883026123047,0x3bae3d61a6b63d19:0xee42ec53ea171f99,26,https://www.google.com/maps/place/?q=place_id:ChIJGT22pmE9rjsRmR8X6lPsQu4,gmaps_v2,home_decor,1695212099,1539941442.0,25.0
ChIJMX2D4zwWrjsR5k9Xy68PTro,Boom Box House Rehearsal Studio,12.9921875,77.57508850097656,0x3bae163ce3837d31:0xba4e0fafcb574fe6,183,https://www.google.com/maps/place/?q=place_id:ChIJMX2D4zwWrjsR5k9Xy68PTro,gmaps_v2,home_decor,1695212099,1384962287.0,182.0
ChIJG1puTMA9rjsR_C21zI1Y1jk,Rich Wood,12.984450340270996,77.53720092773438,0x3bae3dc04c6e5a1b:0x39d6588dccb52dfc,56,https://www.google.com/maps/place/?q=place_id:ChIJG1puTMA9rjsR_C21zI1Y1jk,gmaps_v2,home_decor,1695212099,1662473122.0,91.0
ChIJUTmDzRI9rjsR4PEPBmhVbJs,Sree Balambikai Industries,13.023320198059082,77.53873443603516,0x3bae3d12cd833951:0x9b6c5568060ff1e0,33,https://www.google.com/maps/place/?q=place_id:ChIJUTmDzRI9rjsR4PEPBmhVbJs,gmaps_v2,home_decor,1695212099,1488528823.0,34.0
ChIJQyNE-ic9rjsRqQZ0Iz6J_Oc,Lotus Furniture,13.04183864593506,77.51668548583984,0x3bae3d27fa442343:0xe7fc893e237406a9,85,https://www.google.com/maps/place/?q=place_id:ChIJQyNE-ic9rjsRqQZ0Iz6J_Oc,gmaps_v2,home_decor,1695212099,1491811376.0,87.0
ChIJzWpFwIQXrjsR1VeqUmrVyc4,Sai Handlooms,12.998291969299316,77.57230377197266,0x3bae1784c0456acd:0xcec9d56a52aa57d5,35,https://www.google.com/maps/place/?q=place_id:ChIJzWpFwIQXrjsR1VeqUmrVyc4,gmaps_v2,home_decor,1695212099,1699189208.0,102.0
ChIJXRDfHGQ9rjsRVNKX0HB1On0,Bharat Carpet Emporium | Large Variety of Best Woollen and Silk Carpet Shop in Bangalore,13.029231071472168,77.55184173583984,0x3bae3d641cdf105d:0x7d3a7570d097d254,15,https://www.google.com/maps/place/?q=place_id:ChIJXRDfHGQ9rjsRVNKX0HB1On0,gmaps_v2,home_decor,1695212099,1512042467.0,12.0
ChIJBabf6x8WrjsRCNo3U080KSY,Sleepypanda,12.9871187210083,77.5630111694336,0x3bae161febdfa605:0x2629344f5337da08,17,https://www.google.com/maps/place/?q=place_id:ChIJBabf6x8WrjsRCNo3U080KSY,gmaps_v2,home_decor,1695212099,1629703216.0,18.0
ChIJk7xsrisWrjsRJRnXd_CfgPo,"Dream Home -Faber, Kaff , Hafele Chimney dealers in Bangalore",13.00668716430664,77.57131958007812,0x3bae162bae6cbc93:0xfa809ff077d71925,77,https://www.google.com/maps/place/?q=place_id:ChIJk7xsrisWrjsRJRnXd_CfgPo,gmaps_v2,home_decor,1695212099,1611232347.0,94.0
ChIJh6aQodEXrjsROqcLsKJfz40,Computech Laptop Sales & Service Centre,12.99848747253418,77.56935119628906,0x3bae17d1a190a687:0x8dcf5fa2b00ba73a,148,https://www.google.com/maps/place/?q=place_id:ChIJh6aQodEXrjsROqcLsKJfz40,gmaps_v2,home_decor,1695212099,1663242407.0,167.0
ChIJhwhbDrk9rjsRO6gcVly_ETI,"Led Display Mart, Led Signage Manufacturer in Bengaluru, Glow Sign Board, Backlit Sign Board",12.99874496459961,77.55548095703125,0x3bae3db90e5b0887:0x3211bf5c561ca83b,173,https://www.google.com/maps/place/?q=place_id:ChIJhwhbDrk9rjsRO6gcVly_ETI,gmaps_v2,home_decor,1695212099,1634663429.0,207.0
ChIJXbWt5fQ9rjsRIh2OubfPTso,NK Acoustic,12.9861478805542,77.55852508544922,0x3bae3df4e5adb55d:0xca4ecfb7b98e1d22,19,https://www.google.com/maps/place/?q=place_id:ChIJXbWt5fQ9rjsRIh2OubfPTso,gmaps_v2,home_decor,1695212099,1477591398.0,18.0
ChIJBcSs6Hk9rjsRFQZnCZpT7sw,Space Savers,13.00381851196289,77.55374908447266,0x3bae3d79e8acc405:0xccee539a09670615,22,https://www.google.com/maps/place/?q=place_id:ChIJBcSs6Hk9rjsRFQZnCZpT7sw,gmaps_v2,home_decor,1695212099,,
ChIJkzGZJUMXrjsRzUE4oZmHC3w,Ds Province,12.98695182800293,77.5674057006836,0x3bae174325993193:0x7c0b8799a13841cd,105,https://www.google.com/maps/place/?q=place_id:ChIJkzGZJUMXrjsRzUE4oZmHC3w,gmaps_v2,home_decor,1695212099,1577728798.0,109.0
ChIJtSL6wS8WrjsRP04Ovxr1dGQ,Bharath Furnitures Nilkamal,13.001468658447266,77.57235717773438,0x3bae162fc1fa22b5:0x6474f51abf0e4e3f,19,https://www.google.com/maps/place/?q=place_id:ChIJtSL6wS8WrjsRP04Ovxr1dGQ,gmaps_v2,home_decor,1695212099,1482559436.0,19.0
ChIJhw035o49rjsRlKWjFySeaf0,Sri mahadeshwara enterprises,12.995710372924805,77.55455780029297,0x3bae3d8ee6370d87:0xfd699e2417a3a594,133,https://www.google.com/maps/place/?q=place_id:ChIJhw035o49rjsRlKWjFySeaf0,gmaps_v2,home_decor,1695212099,1502183283.0,136.0
ChIJb5ebFOY9rjsRPNfcDQ9ee6o,Superior Digital,12.974745750427246,77.54361724853516,0x3bae3de6149b976f:0xaa7b5e0f0ddcd73c,31,https://www.google.com/maps/place/?q=place_id:ChIJb5ebFOY9rjsRPNfcDQ9ee6o,gmaps_v2,home_decor,1695212099,,
ChIJcag9xEk9rjsR2eZy_bnjUcw,Home Enterprises | Bird Net | Mosquito Mesh | Blinds | Pigeon Net,12.98622703552246,77.5340576171875,0x3bae3d49c43da871:0xcc51e3b9fd72e6d9,130,https://www.google.com/maps/place/?q=place_id:ChIJcag9xEk9rjsR2eZy_bnjUcw,gmaps_v2,home_decor,1695212099,,
ChIJFV1wMV49rjsRKOtJX5DCmE0,Kraze The Corner Shoppe,13.034624099731444,77.55758666992188,0x3bae3d5e31705d15:0x4d98c2905f49eb28,86,https://www.google.com/maps/place/?q=place_id:ChIJFV1wMV49rjsRKOtJX5DCmE0,gmaps_v2,home_decor,1695212099,1481251483.0,87.0
ChIJTyyKAj8XrjsRh_JoJED5vbs,Godrej Interio,12.996068000793455,77.57144927978516,0x3bae173f028a2c4f:0xbbbdf9402468f287,81,https://www.google.com/maps/place/?q=place_id:ChIJTyyKAj8XrjsRh_JoJED5vbs,gmaps_v2,home_decor,1695212099,1613201983.0,93.0
ChIJZ948JqY9rjsRCjxodY3PA2A,Royal decoratives & events,13.000167846679688,77.52583312988281,0x3bae3da6263cde67:0x6003cf8d75683c0a,208,https://www.google.com/maps/place/?q=place_id:ChIJZ948JqY9rjsRCjxodY3PA2A,gmaps_v2,home_decor,1695212099,1531051246.0,205.0
ChIJyRSTjSUWrjsR0sWhwD5kTps,Inspirations Drape Shopee Malleshwaram,12.998550415039062,77.56945037841797,0x3bae16258d9314c9:0x9b4e643ec0a1c5d2,69,https://www.google.com/maps/place/?q=place_id:ChIJyRSTjSUWrjsR0sWhwD5kTps,gmaps_v2,home_decor,1695212099,,
ChIJDyACuXQ9rjsRzo6qOVbLYjs,Sleep Factory International,13.027956008911133,77.5233154296875,0x3bae3d74b902200f:0x3b62cb5639aa8ece,42,https://www.google.com/maps/place/?q=place_id:ChIJDyACuXQ9rjsRzo6qOVbLYjs,gmaps_v2,home_decor,1695212099,1644941123.0,45.0
ChIJk1-vz3E9rjsR2F9PVBM9zbM,Creative Wallpapers (Home wallpapers),12.9940185546875,77.5552749633789,0x3bae3d71cfaf5f93:0xb3cd3d13544f5fd8,123,https://www.google.com/maps/place/?q=place_id:ChIJk1-vz3E9rjsR2F9PVBM9zbM,gmaps_v2,home_decor,1695212099,1650266917.0,152.0
ChIJ1YvMcY89rjsR20ksQjVVjcM,Seema Enterprises (Nilkamal Mattrezzz),12.99830150604248,77.55429077148438,0x3bae3d8f71cc8bd5:0xc38d5535422c49db,29,https://www.google.com/maps/place/?q=place_id:ChIJ1YvMcY89rjsR20ksQjVVjcM,gmaps_v2,home_decor,1695212099,1495846739.0,31.0
ChIJ-XLskfo9rjsR4sYA4l7m9dg,Kundan Electronics,12.97545051574707,77.55255889892578,0x3bae3dfa91ec72f9:0xd8f5e65ee200c6e2,102,https://www.google.com/maps/place/?q=place_id:ChIJ-XLskfo9rjsR4sYA4l7m9dg,gmaps_v2,home_decor,1695212099,1501654716.0,117.0
ChIJecayTZgVrjsRdBGFx7vnJuQ,iCasa Solutions LLP,13.007469177246094,77.56366729736328,0x3bae15984db2c679:0xe426e7bbc7851174,13,https://www.google.com/maps/place/?q=place_id:ChIJecayTZgVrjsRdBGFx7vnJuQ,gmaps_v2,home_decor,1695212099,1505806670.0,12.0
ChIJF7grfuc9rjsRI04yLhwLRn4,Bombay dyeing showroom,12.972784042358398,77.53902435302734,0x3bae3de77e2bb817:0x7e460b1c2e324e23,21,https://www.google.com/maps/place/?q=place_id:ChIJF7grfuc9rjsRI04yLhwLRn4,gmaps_v2,home_decor,1695212099,1513658581.0,21.0
ChIJ_0IXlWI9rjsRFxoqqHYKwPU,Wonder Chef,13.03208827972412,77.56110382080078,0x3bae3d62951742ff:0xf5c00a76a82a1a17,16,https://www.google.com/maps/place/?q=place_id:ChIJ_0IXlWI9rjsRFxoqqHYKwPU,gmaps_v2,home_decor,1695212099,,
ChIJ2zthkaE9rjsRxQe9Vn-ppxw,Balloon Brigade,13.011014938354492,77.53106689453125,0x3bae3da191613bdb:0x1ca7a97f56bd07c5,32,https://www.google.com/maps/place/?q=place_id:ChIJ2zthkaE9rjsRxQe9Vn-ppxw,gmaps_v2,home_decor,1695212099,1673703339.0,32.0
ChIJzYaGcg8YrjsRUxgMoE81wo8,Equipmart Kitchentech Pvt. Ltd,13.027812957763672,77.53814697265625,0x3bae180f728686cd:0x8fc2354fa00c1853,31,https://www.google.com/maps/place/?q=place_id:ChIJzYaGcg8YrjsRUxgMoE81wo8,gmaps_v2,home_decor,1695212099,1485825605.0,32.0
ChIJFQyZRMA9rjsR32hJr3it9Pc,Kool Night,12.985345840454102,77.53717803955078,0x3bae3dc044990c15:0xf7f4ad78af4968df,53,https://www.google.com/maps/place/?q=place_id:ChIJFQyZRMA9rjsR32hJr3it9Pc,gmaps_v2,home_decor,1695212099,1528461449.0,52.0
ChIJVVVVFdkXrjsR2K455Krfrvw,Maharaja Agencies,13.02932357788086,77.56002807617188,0x3bae17d915555555:0xfcaedfaae439aed8,25,https://www.google.com/maps/place/?q=place_id:ChIJVVVVFdkXrjsR2K455Krfrvw,gmaps_v2,home_decor,1695212099,1526905006.0,25.0
ChIJzylXZCUWrjsR6ZxOiqbM3EU,Sri Murthy Departments,12.99948787689209,77.57145690917969,0x3bae1625645729cf:0x45dccca68a4e9ce9,32,https://www.google.com/maps/place/?q=place_id:ChIJzylXZCUWrjsR6ZxOiqbM3EU,gmaps_v2,home_decor,1695212099,1546753432.0,33.0
ChIJWWdGd-AXrjsRRkBWPdGx4eA,Kitchen Lounge Inc,13.01168441772461,77.54685974121094,0x3bae17e077466759:0xe0e1b1d13d564046,35,https://www.google.com/maps/place/?q=place_id:ChIJWWdGd-AXrjsRRkBWPdGx4eA,gmaps_v2,home_decor,1695212099,1632309939.0,40.0
ChIJi6XqHI89rjsR1S9xhesTzHE,Srinath Collective,12.989815711975098,77.55883026123047,0x3bae3d8f1ceaa58b:0x71cc13eb85712fd5,22,https://www.google.com/maps/place/?q=place_id:ChIJi6XqHI89rjsR1S9xhesTzHE,gmaps_v2,home_decor,1695212099,1686335936.0,1087.0
ChIJ77ea9HE9rjsR_ekQSTW1fTk,BGS Floors & Mattress,13.008015632629396,77.5269775390625,0x3bae3d71f49ab7ef:0x397db5354910e9fd,43,https://www.google.com/maps/place/?q=place_id:ChIJ77ea9HE9rjsR_ekQSTW1fTk,gmaps_v2,home_decor,1695212099,1552551501.0,41.0
ChIJRQvNwr89rjsRGQiztUJexpk,SRl SAl INTERIORS,12.999907493591309,77.52824401855469,0x3bae3dbfc2cd0b45:0x99c65e42b5b30819,30,https://www.google.com/maps/place/?q=place_id:ChIJRQvNwr89rjsRGQiztUJexpk,gmaps_v2,home_decor,1695212099,,
ChIJDV1svl49rjsReRIrl6dq-Qk,Brindavan Plywood & Laminates,13.037556648254396,77.55731964111328,0x3bae3d5ebe6c5d0d:0x9f96aa7972b1279,26,https://www.google.com/maps/place/?q=place_id:ChIJDV1svl49rjsReRIrl6dq-Qk,gmaps_v2,home_decor,1695212099,1531747171.0,26.0
ChIJyasmZ5A9rjsRpnuxezA4AT8,Shree Venkateshwara Traders - MRF Vapocure Paints,12.997654914855955,77.54824829101562,0x3bae3d906726abc9:0x3f0138307bb17ba6,153,https://www.google.com/maps/place/?q=place_id:ChIJyasmZ5A9rjsRpnuxezA4AT8,gmaps_v2,home_decor,1695212099,1504061991.0,155.0
ChIJERJ4i4wXrjsRELyqYLI2Q7c,Mahaveer Gift & Home Gallery,12.999629020690918,77.57063293457031,0x3bae178c8b781211:0xb74336b260aabc10,520,https://www.google.com/maps/place/?q=place_id:ChIJERJ4i4wXrjsRELyqYLI2Q7c,gmaps_v2,home_decor,1695212099,1671345058.0,554.0
ChIJsSC4kxs9rjsR9ruHZLBsXUg,Vaishnavi vinyl flooring mats,13.005149841308594,77.52825927734375,0x3bae3d1b93b820b1:0x485d6cb06487bbf6,29,https://www.google.com/maps/place/?q=place_id:ChIJsSC4kxs9rjsR9ruHZLBsXUg,gmaps_v2,home_decor,1695212099,1616134538.0,31.0
ChIJcSQBEOQ9rjsRxXPB8uoQQO8,Balloons Kingdom,13.000666618347168,77.528076171875,0x3bae3de410012471:0xef4010eaf2c173c5,65,https://www.google.com/maps/place/?q=place_id:ChIJcSQBEOQ9rjsRxXPB8uoQQO8,gmaps_v2,home_decor,1695212099,1623155444.0,61.0
ChIJbcwvPBYWrjsRuPti6atL2nM,Aarcee,12.987720489501951,77.5780029296875,0x3bae16163c2fcc6d:0x73da4babe962fbb8,56,https://www.google.com/maps/place/?q=place_id:ChIJbcwvPBYWrjsRuPti6atL2nM,gmaps_v2,home_decor,1695212099,,
ChIJP9cD_xEXrjsRsDPXAl868fc,HK Traders,12.987902641296388,77.56338500976562,0x3bae1711ff03d73f:0xf7f13a5f02d733b0,34,https://www.google.com/maps/place/?q=place_id:ChIJP9cD_xEXrjsRsDPXAl868fc,gmaps_v2,home_decor,1695212099,1643890081.0,33.0
ChIJdSImi7o9rjsRghceifgI5K4,Kamalanagar Ragi Machine,12.995206832885742,77.52879333496094,0x3bae3dba8b262275:0xaee408f8891e1782,14,https://www.google.com/maps/place/?q=place_id:ChIJdSImi7o9rjsRghceifgI5K4,gmaps_v2,home_decor,1695212099,1483179106.0,14.0
ChIJ8XV4yR49rjsRTzV57XAnUSs,Yashoda Handlooms,12.978580474853516,77.54141998291016,0x3bae3d1ec97875f1:0x2b512770ed79354f,27,https://www.google.com/maps/place/?q=place_id:ChIJ8XV4yR49rjsRTzV57XAnUSs,gmaps_v2,home_decor,1695212099,1572506985.0,26.0
ChIJjWlOcGc9rjsRpkEBqbooxs4,RPV SOLUTIONS PVT LTD Chairs Manufacturing chairs Repair and Servises,13.032679557800291,77.55427551269531,0x3bae3d67704e698d:0xcec628baa90141a6,44,https://www.google.com/maps/place/?q=place_id:ChIJjWlOcGc9rjsRpkEBqbooxs4,gmaps_v2,home_decor,1695212099,1526090427.0,45.0
ChIJYZHczDsWrjsRSX0Y8HL-FDU,MANTARA Warehouse,12.99583625793457,77.57780456542969,0x3bae163bccdc9161:0x3514fe72f0187d49,22,https://www.google.com/maps/place/?q=place_id:ChIJYZHczDsWrjsRSX0Y8HL-FDU,gmaps_v2,home_decor,1695212099,1645283783.0,26.0
ChIJF0m0aHs9rjsR5EfVgYGhF-w,Suyambu General Store,13.020378112792969,77.55512237548828,0x3bae3d7b68b44917:0xec17a18181d547e4,111,https://www.google.com/maps/place/?q=place_id:ChIJF0m0aHs9rjsR5EfVgYGhF-w,gmaps_v2,home_decor,1695212099,1551594107.0,130.0
ChIJH76mfCEXrjsRf1XG2WSlH_s,MELTS CRUNCHEESE,12.991625785827637,77.57113647460938,0x3bae17217ca6be1f:0xfb1fa564d9c6557f,65,https://www.google.com/maps/place/?q=place_id:ChIJH76mfCEXrjsRf1XG2WSlH_s,gmaps_v2,coffee_shop,1687847039,1693142689.0,190.0
ChIJj6OgfncXrjsRUZpG10KdgbI,Half Tea,12.997085571289062,77.57376098632812,0x3bae17777ea0a38f:0xb2819d42d7469a51,35,https://www.google.com/maps/place/?q=place_id:ChIJj6OgfncXrjsRUZpG10KdgbI,gmaps_v2,coffee_shop,1687847039,1634049506.0,36.0
ChIJ1eCgLgk9rjsRbs6Ed7YIRLg,Mothi Ice Cream,13.014429092407228,77.5307388305664,0x3bae3d092ea0e0d5:0xb84408b67784ce6e,13,https://www.google.com/maps/place/?q=place_id:ChIJ1eCgLgk9rjsRbs6Ed7YIRLg,gmaps_v2,coffee_shop,1687847039,1482505539.0,14.0
ChIJ6RWvxOM9rjsRJSbElIUDP2E,Angraje Bakery & Sweets,12.968656539916992,77.54550170898438,0x3bae3de3c4af15e9:0x613f038594c42625,126,https://www.google.com/maps/place/?q=place_id:ChIJ6RWvxOM9rjsRJSbElIUDP2E,gmaps_v2,coffee_shop,1687847039,1511070813.0,128.0
ChIJr3FSm4Q9rjsReldTQgJsoNY,Punyadhama Bhel Stall,13.004382133483888,77.5526123046875,0x3bae3d849b5271af:0xd6a06c024253577a,104,https://www.google.com/maps/place/?q=place_id:ChIJr3FSm4Q9rjsReldTQgJsoNY,gmaps_v2,coffee_shop,1687847039,1516900255.0,106.0
ChIJeQjO0rs9rjsRaQ-krcC3iak,Ashwini Bakery,12.992618560791016,77.53047943115234,0x3bae3dbbd2ce0879:0xa989b7c0ada40f69,40,https://www.google.com/maps/place/?q=place_id:ChIJeQjO0rs9rjsRaQ-krcC3iak,gmaps_v2,coffee_shop,1687847039,1475256013.0,42.0
ChIJtyM8x3I9rjsRmhQ-42jAvrw,Sree Krishna bakery,13.019695281982422,77.54029083251953,0x3bae3d72c73c23b7:0xbcbec068e33e149a,65,https://www.google.com/maps/place/?q=place_id:ChIJtyM8x3I9rjsRmhQ-42jAvrw,gmaps_v2,coffee_shop,1687847039,1516867124.0,65.0
ChIJB86NRf4XrjsRzNHPaAY5NlI,B.Tech cafe,13.028818130493164,77.57181549072266,0x3bae17fe458dce07:0x5236390668cfd1cc,22,https://www.google.com/maps/place/?q=place_id:ChIJB86NRf4XrjsRzNHPaAY5NlI,gmaps_v2,coffee_shop,1687847039,1670345893.0,34.0
ChIJK_RGQgk9rjsRadPYroa1aUY,Ganesh Green Tea,12.988057136535645,77.54408264160156,0x3bae3d094246f42b:0x4669b586aed8d369,18,https://www.google.com/maps/place/?q=place_id:ChIJK_RGQgk9rjsRadPYroa1aUY,gmaps_v2,coffee_shop,1687847039,1654149851.0,33.0
ChIJja5N5WI9rjsRp5uggYY3pfQ,Limra Condiments,13.024131774902344,77.55974578857422,0x3bae3d62e54dae8d:0xf4a5378681a09ba7,18,https://www.google.com/maps/place/?q=place_id:ChIJja5N5WI9rjsRp5uggYY3pfQ,gmaps_v2,coffee_shop,1687847039,1461099218.0,17.0
ChIJax-TeeU9rjsREsr7tPxpwdQ,Sri byreshwara juice & Condiments,12.975630760192873,77.54791259765625,0x3bae3de579931f6b:0xd4c169fcb4fbca12,60,https://www.google.com/maps/place/?q=place_id:ChIJax-TeeU9rjsREsr7tPxpwdQ,gmaps_v2,coffee_shop,1687847039,,
ChIJJVMX6BM9rjsR00LsuO10RIk,Modern Bread Factory Outlet,13.025068283081056,77.53406524658203,0x3bae3d13e8175325:0x894474edb8ec42d3,465,https://www.google.com/maps/place/?q=place_id:ChIJJVMX6BM9rjsR00LsuO10RIk,gmaps_v2,coffee_shop,1687847039,1533113019.0,503.0
ChIJ8yuTNmg9rjsRZv8TqO9kXno,Tea Time Cafe,12.985180854797363,77.54530334472656,0x3bae3d6836932bf3:0x7a5e64efa813ff66,97,https://www.google.com/maps/place/?q=place_id:ChIJ8yuTNmg9rjsRZv8TqO9kXno,gmaps_v2,coffee_shop,1687847039,1660632678.0,102.0
ChIJ9dTI_80XrjsRrUdR_pmUAms,Bumpy's Cafe,13.03280544281006,77.56916809082031,0x3bae17cdffc8d4f5:0x6b029499fe5147ad,49,https://www.google.com/maps/place/?q=place_id:ChIJ9dTI_80XrjsRrUdR_pmUAms,gmaps_v2,coffee_shop,1687847039,1558326730.0,48.0
ChIJy0m4XIY9rjsRChVJF7sD4Sg,KABINIS COFFEE,12.97208309173584,77.55201721191406,0x3bae3d865cb849cb:0x28e103bb1749150a,54,https://www.google.com/maps/place/?q=place_id:ChIJy0m4XIY9rjsRChVJF7sD4Sg,gmaps_v2,coffee_shop,1687847039,1524993751.0,60.0
ChIJPSK7quw9rjsRxsZ3H3OCYiY,A.S.Juice Cafe,12.982616424560549,77.55390167236328,0x3bae3decaabb223d:0x266282731f77c6c6,25,https://www.google.com/maps/place/?q=place_id:ChIJPSK7quw9rjsRxsZ3H3OCYiY,gmaps_v2,coffee_shop,1687847039,1569932201.0,24.0
ChIJs2J-mLI9rjsR0dkWDGdfpeE,COFFEE CLUB (MCC GROUP),12.988981246948242,77.54571533203125,0x3bae3db2987e62b3:0xe1a55f670c16d9d1,11,https://www.google.com/maps/place/?q=place_id:ChIJs2J-mLI9rjsR0dkWDGdfpeE,gmaps_v2,coffee_shop,1687847039,1681130498.0,20.0
ChIJgW7LUGM9rjsRZZ3HVFJqu6I,Sri Gurudarshan Sweets,13.022385597229004,77.55646514892578,0x3bae3d6350cb6e81:0xa2bb6a5254c79d65,329,https://www.google.com/maps/place/?q=place_id:ChIJgW7LUGM9rjsRZZ3HVFJqu6I,gmaps_v2,coffee_shop,1687847039,1541479263.0,349.0
ChIJE0NeuV49rjsRRTeV0YQ8OD8,Bridge-Gokula Tea House,13.037888526916504,77.55729675292969,0x3bae3d5eb95e4313:0x3f383c84d1953745,99,https://www.google.com/maps/place/?q=place_id:ChIJE0NeuV49rjsRRTeV0YQ8OD8,gmaps_v2,coffee_shop,1687847039,1510123670.0,99.0
ChIJ-dVOdVw9rjsRG3QOS8V4Y3c,Half Tea Saarathi,13.004756927490234,77.54942321777344,0x3bae3d5c754ed5f9:0x776378c54b0e741b,20,https://www.google.com/maps/place/?q=place_id:ChIJ-dVOdVw9rjsRG3QOS8V4Y3c,gmaps_v2,coffee_shop,1687847039,,
ChIJ0ehe60Q9rjsRGG0WFgWh5c8,MADHUR CHAI,13.029829025268556,77.56192779541016,0x3bae3d44eb5ee8d1:0xcfe5a10516166d18,19,https://www.google.com/maps/place/?q=place_id:ChIJ0ehe60Q9rjsRGG0WFgWh5c8,gmaps_v2,coffee_shop,1687847039,1685512394.0,36.0
ChIJQ8tEccYXrjsRVz882YMnVZY,Yum Yum chai,12.993934631347656,77.56632995605469,0x3bae17c67144cb43:0x96552783d93c3f57,13,https://www.google.com/maps/place/?q=place_id:ChIJQ8tEccYXrjsRVz882YMnVZY,gmaps_v2,coffee_shop,1687847039,1682945436.0,12.0
ChIJC9Faplc9rjsRzBXp83peTBY,UNCLE ICE CREAM (SAMPOORNA),12.97734832763672,77.55563354492188,0x3bae3d57a65ad10b:0x164c5e7af3e915cc,57,https://www.google.com/maps/place/?q=place_id:ChIJC9Faplc9rjsRzBXp83peTBY,gmaps_v2,coffee_shop,1687847039,1573138869.0,62.0
ChIJwW5B24c9rjsR5zcpqgxHcro,Hevan snacks spot,12.991247177124023,77.56404113769531,0x3bae3d87db416ec1:0xba72470caa2937e7,27,https://www.google.com/maps/place/?q=place_id:ChIJwW5B24c9rjsR5zcpqgxHcro,gmaps_v2,coffee_shop,1687847039,1647682033.0,23.0
ChIJ4SzRJAcXrjsRf7SoJaBG1S0,20-20 Cafe,13.032859802246094,77.56644439697266,0x3bae170724d12ce1:0x2dd546a025a8b47f,135,https://www.google.com/maps/place/?q=place_id:ChIJ4SzRJAcXrjsRf7SoJaBG1S0,gmaps_v2,coffee_shop,1687847039,1615488268.0,151.0
ChIJxZCjq-A9rjsRxwCzcqAPvWk,Karnataka Chaha Angadi,13.001150131225586,77.53755950927734,0x3bae3de0aba390c5:0x69bd0fa072b300c7,17,https://www.google.com/maps/place/?q=place_id:ChIJxZCjq-A9rjsRxwCzcqAPvWk,gmaps_v2,coffee_shop,1687847039,1538104282.0,18.0
ChIJZ7FOH7cXrjsRMp4Huc3q29k,The Namakh Store n Cafe,13.029351234436035,77.57107543945312,0x3bae17b71f4eb167:0xd9dbeacdb9079e32,62,https://www.google.com/maps/place/?q=place_id:ChIJZ7FOH7cXrjsRMp4Huc3q29k,gmaps_v2,coffee_shop,1687847039,1528464981.0,62.0
ChIJ38uvkC8WrjsR-e8AQKbE6JM,Gayathri Coffee Works,13.000654220581056,77.5712661743164,0x3bae162f90afcbdf:0x93e8c4a64000eff9,171,https://www.google.com/maps/place/?q=place_id:ChIJ38uvkC8WrjsR-e8AQKbE6JM,gmaps_v2,coffee_shop,1687847039,1474179575.0,191.0
ChIJ8bw_8TMWrjsRbgNhQcV1UjQ,COFFEE HOUSE,13.006839752197266,77.5789566040039,0x3bae1633f13fbcf1:0x345275c54161036e,142,https://www.google.com/maps/place/?q=place_id:ChIJ8bw_8TMWrjsRbgNhQcV1UjQ,gmaps_v2,coffee_shop,1687847039,1476268820.0,142.0
ChIJVd5uh309rjsRUGjHnMhf0Ek,Master Chef Bakery & Sweets,13.000569343566896,77.53340148925781,0x3bae3d7d876ede55:0x49d05fc89cc76850,13,https://www.google.com/maps/place/?q=place_id:ChIJVd5uh309rjsRUGjHnMhf0Ek,gmaps_v2,coffee_shop,1687847039,1546082276.0,14.0
ChIJh4MalCoWrjsRWZ4mshUBrH0,Rathnagiri Coffee Works,13.009172439575195,77.56334686279297,0x3bae162a941a8387:0x7dac0115b2269e59,13,https://www.google.com/maps/place/?q=place_id:ChIJh4MalCoWrjsRWZ4mshUBrH0,gmaps_v2,coffee_shop,1687847039,1490085335.0,12.0
ChIJ8fBicSk_rjsR2pcWsRRrzUQ,Artek Solution,12.972824096679688,77.54375457763672,0x3bae3f297162f0f1:0x44cd6b14b11697da,74,https://www.google.com/maps/place/?q=place_id:ChIJ8fBicSk_rjsR2pcWsRRrzUQ,gmaps_v2,coffee_shop,1687847039,1598035727.0,78.0
ChIJcYq9uC8WrjsR7sTJlA8lCXs,RAGHU IYENGARS COFFEE WORKS,13.00191879272461,77.57190704345703,0x3bae162fb8bd8a71:0x7b09250f94c9c4ee,55,https://www.google.com/maps/place/?q=place_id:ChIJcYq9uC8WrjsR7sTJlA8lCXs,gmaps_v2,coffee_shop,1687847039,1544607345.0,55.0
ChIJb6fuqeQ9rjsRPFkGCIGK1WE,Shree Bhagavati Patanjali Store Rajajinagar,13.003875732421877,77.55574798583984,0x3bae3de4a9eea76f:0x61d58a810806593c,18,https://www.google.com/maps/place/?q=place_id:ChIJb6fuqeQ9rjsRPFkGCIGK1WE,gmaps_v2,coffee_shop,1687847039,1545544525.0,19.0
ChIJj1E5UbE9rjsRtIf2VhPQHek,D.N.R Siri Mane Coffee,12.988771438598633,77.55589294433594,0x3bae3db15139518f:0xe91dd01356f687b4,76,https://www.google.com/maps/place/?q=place_id:ChIJj1E5UbE9rjsRtIf2VhPQHek,gmaps_v2,coffee_shop,1687847039,1658565931.0,91.0
ChIJO0S5rJI9rjsRRIyE9oedGUg,"O.G. Variar and Sons, Variar Bakery (Branch)",12.98753261566162,77.55013275146484,0x3bae3d92acb9443b:0x48199d87f6848c44,9112,https://www.google.com/maps/place/?q=place_id:ChIJO0S5rJI9rjsRRIyE9oedGUg,gmaps_v2,coffee_shop,1687847039,1511290370.0,9724.0
ChIJZ8_NCz89rjsRNe_UAwYJBhw,SN Rental Jewellers / bridal jewellery rental store Bangalore (bridal jewellery for rent),12.973268508911133,77.55107879638672,0x3bae3d3f0bcdcf67:0x1c06090603d4ef35,33,https://www.google.com/maps/place/?q=place_id:ChIJZ8_NCz89rjsRNe_UAwYJBhw,gmaps_v2,jewelry_store,1687847039,1681909446.0,61.0
ChIJ283JT4c9rjsR1xTjxkUkVS4,Sangam Jewellers,13.025568008422852,77.5577163696289,0x3bae3d874fc9cddb:0x2e552445c6e314d7,40,https://www.google.com/maps/place/?q=place_id:ChIJ283JT4c9rjsR1xTjxkUkVS4,gmaps_v2,jewelry_store,1687847039,,
ChIJm0xUKL89rjsREUpeJ738sQE,Amr jewellers,12.987497329711914,77.55271911621094,0x3bae3dbf28544c9b:0x1b1fcbd275e4a11,11,https://www.google.com/maps/place/?q=place_id:ChIJm0xUKL89rjsREUpeJ738sQE,gmaps_v2,jewelry_store,1687847039,1674398150.0,24.0
ChIJS22H_4k9rjsR_lNZreqjuCE,kamal jewellers and bankers,12.993876457214355,77.5617904663086,0x3bae3d89ff876d4b:0x21b8a3eaad5953fe,12,https://www.google.com/maps/place/?q=place_id:ChIJS22H_4k9rjsR_lNZreqjuCE,gmaps_v2,jewelry_store,1687847039,,
ChIJ89A_3ug9rjsRP6mNn7mg1_8,Navaratana Jewellers,12.978564262390137,77.5433120727539,0x3bae3de8de3fd0f3:0xffd7a0b99f8da93f,23,https://www.google.com/maps/place/?q=place_id:ChIJ89A_3ug9rjsRP6mNn7mg1_8,gmaps_v2,jewelry_store,1687847039,1535815230.0,23.0
ChIJ6cwjoS4WrjsRKyp7MHM9X4c,Dreamzone Malleshwaram,13.0053071975708,77.5688247680664,0x3bae162ea123cce9:0x875f3d73307b2a2b,96,https://www.google.com/maps/place/?q=place_id:ChIJ6cwjoS4WrjsRKyp7MHM9X4c,gmaps_v2,jewelry_store,1687847039,1529387582.0,110.0
ChIJWV2_LCoWrjsR3ZS26qmNx2g,Impression's - The Gift Shop - Best in Bengaluru,13.005772590637209,77.56488800048828,0x3bae162a2cbf5d59:0x68c78da9eab694dd,44,https://www.google.com/maps/place/?q=place_id:ChIJWV2_LCoWrjsR3ZS26qmNx2g,gmaps_v2,jewelry_store,1687847039,,
ChIJHW_yTsE9rjsRcroPJPwUQso,Anand Jewellers,13.034281730651855,77.55924987792969,0x3bae3dc14ef26f1d:0xca4214fc240fba72,234,https://www.google.com/maps/place/?q=place_id:ChIJHW_yTsE9rjsRcroPJPwUQso,gmaps_v2,jewelry_store,1687847039,1638715013.0,256.0
ChIJUfKf83g9rjsRcHgCleFLAQI,Mantralaya jewellery works,13.012391090393066,77.54093170166016,0x3bae3d78f39ff251:0x2014be195027870,11,https://www.google.com/maps/place/?q=place_id:ChIJUfKf83g9rjsRcHgCleFLAQI,gmaps_v2,jewelry_store,1687847039,,
ChIJD1Z6BCkWrjsRCJC-h4u7ZlE,Shivanath Jewellers,13.002900123596191,77.5653076171875,0x3bae1629047a560f:0x5166bb8b87be9008,15,https://www.google.com/maps/place/?q=place_id:ChIJD1Z6BCkWrjsRCJC-h4u7ZlE,gmaps_v2,jewelry_store,1687847039,1564669422.0,18.0
ChIJNYzLJLA9rjsRENQyeatEnVs,Sri Pavan Creation,12.997055053710938,77.525634765625,0x3bae3db024cb8c35:0x5b9d44ab7932d410,13,https://www.google.com/maps/place/?q=place_id:ChIJNYzLJLA9rjsRENQyeatEnVs,gmaps_v2,jewelry_store,1687847039,1528786063.0,12.0
ChIJib6JE_g9rjsRbO3eZfzyqWM,SURESH JEWELLERS,12.975616455078123,77.56088256835938,0x3bae3df81389be89:0x63a9f2fc65deed6c,36,https://www.google.com/maps/place/?q=place_id:ChIJib6JE_g9rjsRbO3eZfzyqWM,gmaps_v2,jewelry_store,1687847039,1507781756.0,40.0
ChIJZ35rnd09rjsRT5pXCGljw1Y,Shivam Jewelers,12.9727783203125,77.5379409790039,0x3bae3ddd9d6b7e67:0x56c3636908579a4f,20,https://www.google.com/maps/place/?q=place_id:ChIJZ35rnd09rjsRT5pXCGljw1Y,gmaps_v2,jewelry_store,1687847039,1441368019.0,23.0
ChIJpcH35l89rjsRsJxPcQS43As,Sree Vaibhav One Gram Gold,13.033731460571287,77.56056213378906,0x3bae3d5fe6f7c1a5:0xbdcb804714f9cb0,39,https://www.google.com/maps/place/?q=place_id:ChIJpcH35l89rjsRsJxPcQS43As,gmaps_v2,jewelry_store,1687847039,,
ChIJu8vu9fA9rjsRZItx33li4-w,Digital Xpress,12.978214263916016,77.55341339111328,0x3bae3df0f5eecbbb:0xece36279df718b64,131,https://www.google.com/maps/place/?q=place_id:ChIJu8vu9fA9rjsRZItx33li4-w,gmaps_v2,jewelry_store,1687847039,1534603646.0,135.0
ChIJkxIWub49rjsRH343EJ5RcvM,SAHAA THE CRAFTERS,12.99248218536377,77.53913879394531,0x3bae3dbeb9161293:0xf372519e10377e1f,28,https://www.google.com/maps/place/?q=place_id:ChIJkxIWub49rjsRH343EJ5RcvM,gmaps_v2,jewelry_store,1687847039,1579351335.0,26.0
ChIJW88Ss4w9rjsRIKhL1JNGBqY,Vinayak Jewels,13.040907859802246,77.55735778808594,0x3bae3d8cb312cf5b:0xa6064693d44ba820,15,https://www.google.com/maps/place/?q=place_id:ChIJW88Ss4w9rjsRIKhL1JNGBqY,gmaps_v2,jewelry_store,1687847039,1625758267.0,15.0
ChIJd4J21qgXrjsRgVCqaIKi26k,Häagen-Dazs,12.981744766235352,77.56378936767578,0x3bae17a8d6768277:0xa9dba28268aa5081,17,https://www.google.com/maps/place/?q=place_id:ChIJd4J21qgXrjsRgVCqaIKi26k,gmaps_v2,coffee_shop,1687847039,1641402809.0,21.0
ChIJ2cXNOec9rjsRgQ4V1-fui9g,Delta nutritives pvt.ltd.,13.004770278930664,77.54190826416016,0x3bae3de739cdc5d9:0xd88beee7d7150e81,17,https://www.google.com/maps/place/?q=place_id:ChIJ2cXNOec9rjsRgQ4V1-fui9g,gmaps_v2,coffee_shop,1687847039,1592578489.0,18.0
ChIJhc-5mOAXrjsR4lQZjE5w7jQ,dwaraka bakery,13.031620025634766,77.56803131103516,0x3bae17e098b9cf85:0x34ee704e8c1954e2,27,https://www.google.com/maps/place/?q=place_id:ChIJhc-5mOAXrjsR4lQZjE5w7jQ,gmaps_v2,coffee_shop,1687847039,1479284966.0,27.0
ChIJJYOgV8A9rjsRacRyaSIg198,Roots Cafe,12.989980697631836,77.54563903808594,0x3bae3dc057a08325:0xdfd720226972c469,46,https://www.google.com/maps/place/?q=place_id:ChIJJYOgV8A9rjsRacRyaSIg198,gmaps_v2,coffee_shop,1687847039,1682304488.0,49.0
ChIJ7a1jYp4XrjsRGhQS495FQvQ,Kerbside Bistro,13.00780200958252,77.57796478271484,0x3bae179e6263aded:0xf44245dee312141a,158,https://www.google.com/maps/place/?q=place_id:ChIJ7a1jYp4XrjsRGhQS495FQvQ,gmaps_v2,coffee_shop,1687847039,1662960495.0,219.0
ChIJmYknmC8WrjsRgwhIh_TRV9A,Coffee Day Essentials,13.001383781433104,77.57112121582031,0x3bae162f98278999:0xd057d1f487480883,31,https://www.google.com/maps/place/?q=place_id:ChIJmYknmC8WrjsRgwhIh_TRV9A,gmaps_v2,coffee_shop,1687847039,1512629717.0,33.0
ChIJp3jrhvMXrjsRBcYLbq1Q1E0,Tea Park,12.995553970336914,77.5687255859375,0x3bae17f386eb78a7:0x4dd450ad6e0bc605,183,https://www.google.com/maps/place/?q=place_id:ChIJp3jrhvMXrjsRBcYLbq1Q1E0,gmaps_v2,coffee_shop,1687847039,1667908391.0,186.0
ChIJjQZXK1QXrjsRCGlvr9pl2rc,Tea Fusion,13.004741668701172,77.57115173339844,0x3bae17542b57068d:0xb7da65daaf6f6908,74,https://www.google.com/maps/place/?q=place_id:ChIJjQZXK1QXrjsRCGlvr9pl2rc,gmaps_v2,coffee_shop,1687847039,1671280447.0,95.0
ChIJ-UgRNWgXrjsRDMcj-yGh2rY,TandoorChai point,13.005396842956545,77.56919860839844,0x3bae1768351148f9:0xb6daa121fb23c70c,15,https://www.google.com/maps/place/?q=place_id:ChIJ-UgRNWgXrjsRDMcj-yGh2rY,gmaps_v2,coffee_shop,1687847039,1669481555.0,18.0
ChIJUeZhTWA9rjsRDqSxrmj0Mj0,The Crust Factory,13.030686378479004,77.55977630615234,0x3bae3d604d61e651:0x3d32f468aeb1a40e,27,https://www.google.com/maps/place/?q=place_id:ChIJUeZhTWA9rjsRDqSxrmj0Mj0,gmaps_v2,coffee_shop,1687847039,1534512628.0,28.0
ChIJM9lIJt4XrjsROpQ3lyCsNjo,Apana Bakery,13.033407211303713,77.56562805175781,0x3bae17de2648d933:0x3a36ac209737943a,20,https://www.google.com/maps/place/?q=place_id:ChIJM9lIJt4XrjsROpQ3lyCsNjo,gmaps_v2,coffee_shop,1687847039,,
ChIJK6MGqmw9rjsRP9UQLUI-GL4,AMI TEA STALL,13.026714324951172,77.53912353515625,0x3bae3d6caa06a32b:0xbe183e422d10d53f,36,https://www.google.com/maps/place/?q=place_id:ChIJK6MGqmw9rjsRP9UQLUI-GL4,gmaps_v2,coffee_shop,1687847039,1454595642.0,37.0
ChIJ6eX6zoo9rjsR_Rj68627MR0,Annamalai Tea and Tiffin Center,12.98930835723877,77.5608901977539,0x3bae3d8acefae5e9:0x1d31bbadf3fa18fd,16,https://www.google.com/maps/place/?q=place_id:ChIJ6eX6zoo9rjsR_Rj68627MR0,gmaps_v2,coffee_shop,1687847039,1633953049.0,16.0
ChIJX0_jSr89rjsRTWBWGkf6M7U,Lassi & Cream,13.008777618408203,77.54019927978516,0x3bae3dbf4ae34f5f:0xb533fa471a56604d,29,https://www.google.com/maps/place/?q=place_id:ChIJX0_jSr89rjsRTWBWGkf6M7U,gmaps_v2,coffee_shop,1687847039,1547770968.0,27.0
ChIJ62WhHCMWrjsRtb_ZhTt8kDo,Mantri Mall,12.991780281066896,77.57144927978516,0x3bae16231ca165eb:0x3a907c3b85d9bfb5,44,https://www.google.com/maps/place/?q=place_id:ChIJ62WhHCMWrjsRtb_ZhTt8kDo,gmaps_v2,supermarket,1687847039,1525277323.0,44.0
ChIJj8NODOEXrjsRLlxLXzF-Spo,Unique Enterprises,13.03768539428711,77.56529998779297,0x3bae17e10c4ec38f:0x9a4a7e315f4b5c2e,16,https://www.google.com/maps/place/?q=place_id:ChIJj8NODOEXrjsRLlxLXzF-Spo,gmaps_v2,supermarket,1687847039,1487512019.0,16.0
ChIJgwyVBR4WrjsRdz5bYHVEKVU,Nataraj Wines,12.983440399169922,77.56259155273438,0x3bae161e05950c83:0x55294475605b3e77,15,https://www.google.com/maps/place/?q=place_id:ChIJgwyVBR4WrjsRdz5bYHVEKVU,gmaps_v2,supermarket,1687847039,1548183154.0,21.0
ChIJ8-2V53w9rjsR0jafvogfPdE,Vinayaka Bakery & Sweets,13.020513534545898,77.55831146240234,0x3bae3d7ce795edf3:0xd13d1f88be9f36d2,250,https://www.google.com/maps/place/?q=place_id:ChIJ8-2V53w9rjsR0jafvogfPdE,gmaps_v2,coffee_shop,1687847039,1490843022.0,260.0
ChIJl6LRDdg8rjsRlK_RqkJ-8CM,Malnad ice cream shop,13.041397094726562,77.51545715332031,0x3bae3cd80dd1a297:0x23f07e42aad1af94,11,https://www.google.com/maps/place/?q=place_id:ChIJl6LRDdg8rjsRlK_RqkJ-8CM,gmaps_v2,coffee_shop,1687847039,1484841931.0,11.0
ChIJq67xFO49rjsRGyOU4A1pxLE,HAPPY TUMMY,12.993804931640623,77.55264282226562,0x3bae3dee14f1aeab:0xb1c4690de094231b,18,https://www.google.com/maps/place/?q=place_id:ChIJq67xFO49rjsRGyOU4A1pxLE,gmaps_v2,coffee_shop,1687847039,1675419075.0,19.0
ChIJg_M6C4g9rjsR1_UTIYss0tE,Nayak's Condiments,12.999992370605469,77.5692367553711,0x3bae3d880b3af383:0xd1d22c8b2113f5d7,51,https://www.google.com/maps/place/?q=place_id:ChIJg_M6C4g9rjsR1_UTIYss0tE,gmaps_v2,coffee_shop,1687847039,1449469850.0,53.0
ChIJEVm0B_s9rjsR-a2nxsSGeUo,Devi Sree Ice Cream,12.9728364944458,77.55307006835938,0x3bae3dfb07b45911:0x4a7986c4c6a7adf9,28,https://www.google.com/maps/place/?q=place_id:ChIJEVm0B_s9rjsR-a2nxsSGeUo,gmaps_v2,coffee_shop,1687847039,1496839940.0,29.0
ChIJBcMP6eE9rjsR85oXBOOO7Ek,D Ice cream,13.014056205749512,77.533203125,0x3bae3de1e90fc305:0x49ec8ee304179af3,34,https://www.google.com/maps/place/?q=place_id:ChIJBcMP6eE9rjsR85oXBOOO7Ek,gmaps_v2,coffee_shop,1687847039,1632849693.0,49.0
ChIJ9V2W1M4XrjsRqrghgYVdb1U,"Occasions Cakes coffees and more - Wedding Cakes, Eggless ,Naughty and Customised Cake, Party Props, Cake Shop in Bel Road",13.027894020080566,77.57334899902344,0x3bae17ced4965df5:0x556f5d858121b8aa,151,https://www.google.com/maps/place/?q=place_id:ChIJ9V2W1M4XrjsRqrghgYVdb1U,gmaps_v2,coffee_shop,1687847039,1609131522.0,186.0
ChIJAQmNchYXrjsR9PW7-UcF55Y,Prateeksha Natural Ice Cream,13.008234024047852,77.57105255126953,0x3bae1716728d0901:0x96e70547f9bbf5f4,12,https://www.google.com/maps/place/?q=place_id:ChIJAQmNchYXrjsR9PW7-UcF55Y,gmaps_v2,coffee_shop,1687847039,1569175907.0,39.0
ChIJaUnNExoXrjsReS5Dk3hRBkY,"Qmin Cafe, Matri Square",12.991820335388184,77.57015991210938,0x3bae171a13cd4969:0x4606517893432e79,33,https://www.google.com/maps/place/?q=place_id:ChIJaUnNExoXrjsReS5Dk3hRBkY,gmaps_v2,coffee_shop,1687847039,1531738271.0,33.0
ChIJBWBWgCo9rjsRbBKVEtGN4gE,Tealicious,13.00732135772705,77.54851531982422,0x3bae3d2a80566005:0x1e28dd11295126c,88,https://www.google.com/maps/place/?q=place_id:ChIJBWBWgCo9rjsRbBKVEtGN4gE,gmaps_v2,coffee_shop,1687847039,1667647822.0,99.0
ChIJ5Sw-HkM9rjsRRfvVlDqvtrQ,sapthagiricoffee,13.035704612731934,77.54877471923828,0x3bae3d431e3e2ce5:0xb4b6af3a94d5fb45,11,https://www.google.com/maps/place/?q=place_id:ChIJ5Sw-HkM9rjsRRfvVlDqvtrQ,gmaps_v2,coffee_shop,1687847039,1447833695.0,11.0
ChIJLR1Tbow9rjsRW8uFj62rIQ4,Karans Appetite Cafe,12.991609573364258,77.55537414550781,0x3bae3d8c6e531d2d:0xe21abad8f85cb5b,15,https://www.google.com/maps/place/?q=place_id:ChIJLR1Tbow9rjsRW8uFj62rIQ4,gmaps_v2,coffee_shop,1687847039,1566294159.0,14.0
ChIJu5Yy97I9rjsRp-9OG6Nsu4k,Munjane Coffee,13.002212524414062,77.55237579345703,0x3bae3db2f73296bb:0x89bb6ca31b4eefa7,15,https://www.google.com/maps/place/?q=place_id:ChIJu5Yy97I9rjsRp-9OG6Nsu4k,gmaps_v2,coffee_shop,1687847039,1701942402.0,70.0
ChIJSeo3hiE9rjsRc3uMRT1FxGY,Mo Made Patisserie,13.002689361572266,77.54306030273438,0x3bae3d218637ea49:0x66c4453d458c7b73,22,https://www.google.com/maps/place/?q=place_id:ChIJSeo3hiE9rjsRc3uMRT1FxGY,gmaps_v2,coffee_shop,1687847039,1682406092.0,24.0
ChIJbwbcXaA9rjsR4-2Gv7Br7UU,Holige Mane,13.00802516937256,77.5365219116211,0x3bae3da05ddc066f:0x45ed6bb0bf86ede3,58,https://www.google.com/maps/place/?q=place_id:ChIJbwbcXaA9rjsR4-2Gv7Br7UU,gmaps_v2,coffee_shop,1687847039,1506259489.0,60.0
ChIJpUAY1449rjsRdmt0JfiTAXQ,Ragavendra Bakery And Sweets,12.996101379394531,77.55572509765625,0x3bae3d8ed71840a5:0x740193f825746b76,79,https://www.google.com/maps/place/?q=place_id:ChIJpUAY1449rjsRdmt0JfiTAXQ,gmaps_v2,coffee_shop,1687847039,1520694546.0,81.0
ChIJVzTIY5E9rjsRGbWXZigSfYc,Supreme Coffee Works and Tea Centre,12.99333667755127,77.54659271240234,0x3bae3d9163c83457:0x877d12286697b519,64,https://www.google.com/maps/place/?q=place_id:ChIJVzTIY5E9rjsRGbWXZigSfYc,gmaps_v2,coffee_shop,1687847039,1468371466.0,64.0
ChIJoxukGQQ9rjsRzThiEY9CF74,JAIPUR Chai,12.990693092346191,77.5545425415039,0x3bae3d0419a41ba3:0xbe17428f116238cd,18,https://www.google.com/maps/place/?q=place_id:ChIJoxukGQQ9rjsRzThiEY9CF74,gmaps_v2,coffee_shop,1687847039,1674796966.0,23.0
ChIJuYFCaUk9rjsR5mmjqp1n8u4,Grameena Santhe,12.9854154586792,77.54296112060547,0x3bae3d49694281b9:0xeef2679daaa369e6,58,https://www.google.com/maps/place/?q=place_id:ChIJuYFCaUk9rjsR5mmjqp1n8u4,gmaps_v2,coffee_shop,1687847039,1631325904.0,55.0
ChIJ238rJZE9rjsRe0eaMzWhDdE,CHAIPURA CAFE,12.976609230041504,77.56172180175781,0x3bae3d91252b7fdb:0xd10da135339a477b,61,https://www.google.com/maps/place/?q=place_id:ChIJ238rJZE9rjsRe0eaMzWhDdE,gmaps_v2,coffee_shop,1687847039,1645809263.0,73.0
ChIJ2WujXFwXrjsRcw2Csti6zlo,Roadside Adda,13.030264854431152,77.56349182128906,0x3bae175c5ca36bd9:0x5acebad8b2820d73,68,https://www.google.com/maps/place/?q=place_id:ChIJ2WujXFwXrjsRcw2Csti6zlo,gmaps_v2,coffee_shop,1687847039,1597070316.0,74.0
ChIJ10fcVFw9rjsRuvQ2EsVPDCM,Citizen Bakery,13.035959243774414,77.55358123779297,0x3bae3d5c54dc47d7:0x230c4fc51236f4ba,12,https://www.google.com/maps/place/?q=place_id:ChIJ10fcVFw9rjsRuvQ2EsVPDCM,gmaps_v2,coffee_shop,1687847039,1495831503.0,12.0
ChIJD5SlvWkXrjsR0GjPxd2j2B0,Sinful Whisker,13.00315284729004,77.56394958496094,0x3bae1769bda5940f:0x1dd8a3ddc5cf68d0,51,https://www.google.com/maps/place/?q=place_id:ChIJD5SlvWkXrjsR0GjPxd2j2B0,gmaps_v2,coffee_shop,1687847039,1584455595.0,51.0
ChIJP6AneOAXrjsRkT4l5UgAInM,Bhaskar Pan Shop,13.033668518066406,77.5640640258789,0x3bae17e07827a03f:0x73220048e5253e91,30,https://www.google.com/maps/place/?q=place_id:ChIJP6AneOAXrjsRkT4l5UgAInM,gmaps_v2,coffee_shop,1687847039,,
ChIJ-dJcBY09rjsRTn0lKv8h5wA,Hot Coffee,12.989866256713867,77.5535888671875,0x3bae3d8d055cd2f9:0xe721ff2a257d4e,14,https://www.google.com/maps/place/?q=place_id:ChIJ-dJcBY09rjsRTn0lKv8h5wA,gmaps_v2,coffee_shop,1687847039,1513178443.0,16.0
ChIJDdEHnN8XrjsRSw0i0EAUPZo,Malabar Cafe,13.030132293701172,77.56246185302734,0x3bae17df9c07d10d:0x9a3d1440d0220d4b,798,https://www.google.com/maps/place/?q=place_id:ChIJDdEHnN8XrjsRSw0i0EAUPZo,gmaps_v2,coffee_shop,1687847039,1542680672.0,851.0
ChIJI4e4bFY9rjsR7RaiH6UTeeg,Mr Coffee with Cafe,12.991830825805664,77.55924224853516,0x3bae3d566cb88723:0xe87913a51fa216ed,55,https://www.google.com/maps/place/?q=place_id:ChIJI4e4bFY9rjsR7RaiH6UTeeg,gmaps_v2,coffee_shop,1687847039,1667381783.0,54.0
ChIJvU79_yM9rjsRwvX2BV97dQM,Liquor Mart,12.996440887451172,77.5401382446289,0x3bae3d23fffd4ebd:0x3757b5f05f6f5c2,393,https://www.google.com/maps/place/?q=place_id:ChIJvU79_yM9rjsRwvX2BV97dQM,gmaps_v2,supermarket,1699615207,1467541889.0,401.0
ChIJpbRUBA09rjsRauYSCrOEWTY,Vijaya Krishna Bakery & Sweets,13.009963035583496,77.53862762451172,0x3bae3d0d0454b4a5:0x365984b30a12e66a,142,https://www.google.com/maps/place/?q=place_id:ChIJpbRUBA09rjsRauYSCrOEWTY,gmaps_v2,coffee_shop,1687847039,1656073862.0,206.0
ChIJ8TKf-RM9rjsRI-J8Z14_eDI,Malnad's coffee,12.989860534667969,77.55519104003906,0x3bae3d13f99f32f1:0x32783f5e677ce223,63,https://www.google.com/maps/place/?q=place_id:ChIJ8TKf-RM9rjsRI-J8Z14_eDI,gmaps_v2,coffee_shop,1687847039,1634236647.0,82.0
ChIJUTEWouAXrjsR8EpW55R41D8,Old Dwaraka Bakery,13.034003257751465,77.56635284423828,0x3bae17e0a2163151:0x3fd47894e7564af0,360,https://www.google.com/maps/place/?q=place_id:ChIJUTEWouAXrjsR8EpW55R41D8,gmaps_v2,coffee_shop,1687847039,1500133589.0,365.0
ChIJ87KQhb49rjsRl435y-ILmXo,Coffee Cafe,12.991921424865724,77.53562927246094,0x3bae3dbe8590b2f3:0x7a990be2cbf98d97,166,https://www.google.com/maps/place/?q=place_id:ChIJ87KQhb49rjsRl435y-ILmXo,gmaps_v2,coffee_shop,1687847039,1468382846.0,171.0
ChIJz1NXAQg9rjsRG-502-zjLWQ,Halftea and Mr.Girmit,13.000155448913574,77.55195617675781,0x3bae3d08015753cf:0x642de3ecdb74ee1b,303,https://www.google.com/maps/place/?q=place_id:ChIJz1NXAQg9rjsRG-502-zjLWQ,gmaps_v2,coffee_shop,1687847039,1573995084.0,352.0
ChIJ9ZdHq6M9rjsRZD_5V0-7mrw,Siliguri Tea Point,13.000692367553713,77.53594207763672,0x3bae3da3ab4797f5:0xbc9abb4f57f93f64,18,https://www.google.com/maps/place/?q=place_id:ChIJ9ZdHq6M9rjsRZD_5V0-7mrw,gmaps_v2,coffee_shop,1687847039,1476039028.0,19.0
ChIJuU8IGVU9rjsRuOCrgYFyfhE,NS VARIAR BAKERY,13.000591278076172,77.54301452636719,0x3bae3d5519084fb9:0x117e728181abe0b8,173,https://www.google.com/maps/place/?q=place_id:ChIJuU8IGVU9rjsRuOCrgYFyfhE,gmaps_v2,coffee_shop,1687847039,1567610734.0,184.0
ChIJeRDgwr89rjsRQMQB3eAQYTk,WEB-HUB Cyber Cafe,12.988523483276367,77.538330078125,0x3bae3dbfc2e01079:0x396110e0dd01c440,114,https://www.google.com/maps/place/?q=place_id:ChIJeRDgwr89rjsRQMQB3eAQYTk,gmaps_v2,coffee_shop,1687847039,1497947167.0,115.0
ChIJEaJYsuY9rjsRM3JAhtKkFoc,Amma Pastries Karnataka,12.998739242553713,77.55592346191406,0x3bae3de6b258a211:0x8716a4d286407233,73,https://www.google.com/maps/place/?q=place_id:ChIJEaJYsuY9rjsRM3JAhtKkFoc,gmaps_v2,coffee_shop,1687847039,1557749097.0,82.0
ChIJnRD0fBoXrjsRyu7ze0dO0cY,Grab N Go Cafe,13.032565116882324,77.5663833618164,0x3bae171a7cf4109d:0xc6d14e477bf3eeca,26,https://www.google.com/maps/place/?q=place_id:ChIJnRD0fBoXrjsRyu7ze0dO0cY,gmaps_v2,coffee_shop,1687847039,1701368180.0,209.0
ChIJE8Ydbzs9rjsRYFd8O4A33dE,Rioba Cafe,13.014345169067385,77.5543441772461,0x3bae3d3b6f1dc613:0xd1dd37803b7c5760,58,https://www.google.com/maps/place/?q=place_id:ChIJE8Ydbzs9rjsRYFd8O4A33dE,gmaps_v2,coffee_shop,1687847039,1542904011.0,61.0
ChIJfxvPEL49rjsR_x9EwFiIab4,Baskin Robbins - Basaveshwar Nagar,12.991734504699709,77.53809356689453,0x3bae3dbe10cf1b7f:0xbe698858c0441fff,135,https://www.google.com/maps/place/?q=place_id:ChIJfxvPEL49rjsR_x9EwFiIab4,gmaps_v2,coffee_shop,1687847039,1497537333.0,145.0
ChIJa_lUhpE9rjsRBXba7iChNfU,Cavery Coffee Works,12.993412017822266,77.54814147949219,0x3bae3d918654f96b:0xf535a120eeda7605,36,https://www.google.com/maps/place/?q=place_id:ChIJa_lUhpE9rjsRBXba7iChNfU,gmaps_v2,coffee_shop,1687847039,1480230331.0,40.0
ChIJdUr6Ivo9rjsRzXonKN7s4eY,Supreme Coffee Works and Tea Centre,12.995285034179688,77.53914642333984,0x3bae3dfa22fa4a75:0xe6e1ecde28277acd,19,https://www.google.com/maps/place/?q=place_id:ChIJdUr6Ivo9rjsRzXonKN7s4eY,gmaps_v2,coffee_shop,1687847039,1651924768.0,14.0
ChIJ1cKgXwk9rjsRhiNHgB2icy4,SSV BAKERY,13.014043807983398,77.53256225585938,0x3bae3d095fa0c2d5:0x2e73a21d80472386,16,https://www.google.com/maps/place/?q=place_id:ChIJ1cKgXwk9rjsRhiNHgB2icy4,gmaps_v2,coffee_shop,1687847039,1479754548.0,16.0
