id,name,lat,lng,cid,brand_id,brand_name,number_of_votes,rating,place_url,source,category,top_category,type,created_at
ChIJt0Qc5jUYrjsRpsUPaNoiYTQ,Images Beauty Parlour,13.079512596130371,77.60275268554688,0x3bae1835e61c44b7:0x346122da680fc5a6,N_A,N_A,0,0.0,https://www.google.com/maps/place/?q=place_id:ChIJt0Qc5jUYrjsRpsUPaNoiYTQ,gmaps_v2,salon,service,N_A,1695212099
ChIJ8-5xOmgXrjsRAMz4Spkq_ag,Dr. Praveen S | Best General Surgeon in Hebbal | Manipal Hospital Hebbal,13.051159858703613,77.59410095214844,0x3bae17683a71eef3:0xa8fd2a994af8cc00,manipalhospitals,Manipal Hospitals,0,0.0,https://www.google.com/maps/place/?q=place_id:ChIJ8-5xOmgXrjsRAMz4Spkq_ag,gmaps_v2,hospital,medical,N_A,1687847039
ChIJh5zwE_YXrjsRUDMMXt8VfoU,Imran Ladies Tailor,13.03605842590332,77.62319946289062,0x3bae17f613f09c87:0x857e15df5e0c3350,N_A,N_A,0,0.0,https://www.google.com/maps/place/?q=place_id:ChIJh5zwE_YXrjsRUDMMXt8VfoU,gmaps_v2,clothing_store,retail,N_A,1687847039
ChIJ7yARyjIZrjsRBIPG2azy0dk,Dr. Balakrishna S N / Best Laparoscopic Surgeon & Gastroenterologist in BANGALORE,13.059091567993164,77.58757019042969,0x3bae1932ca1120ef:0xd9d1f2acd9c68304,N_A,N_A,8,5.0,https://www.google.com/maps/place/?q=place_id:ChIJ7yARyjIZrjsRBIPG2azy0dk,gmaps_v2,clinic,medical,N_A,1687847039
19230139,Ranaghor,13.0508814433,77.6047379896,19230139,N_A,N_A,2177,4.2,,zomato,restaurant,food,N_A,1688639100
ChIJJahf8DgZrjsRpUK8reUK-Lw,Down town cafe kerala style,13.089005470275879,77.63433837890625,0x3bae1938f05fa825:0xbcf80ae5adbc42a5,N_A,N_A,0,0.0,https://www.google.com/maps/place/?q=place_id:ChIJJahf8DgZrjsRpUK8reUK-Lw,gmaps_v2,restaurant,food,N_A,1699615207
ChIJFz9IoTIZrjsRlLL7sOvN-QE,REDTAPE,13.06350040435791,77.5864028930664,0x3bae1932a1483f17:0x1f9cdebb0fbb294,redtape,Redtape,46,4.400000095367432,https://www.google.com/maps/place/?q=place_id:ChIJFz9IoTIZrjsRlLL7sOvN-QE,gmaps_v2,shoe_store,retail,N_A,1687847039
ChIJE_35PmsXrjsRAkQBlRfavvs,COMMANDO ESPORTS,13.053292274475098,77.60011291503906,0x3bae176b3ef9fd13:0xfbbeda1795014402,N_A,N_A,0,0.0,https://www.google.com/maps/place/?q=place_id:ChIJE_35PmsXrjsRAkQBlRfavvs,gmaps_v2,grocery_store,retail,N_A,1687847039
ChIJizUX_yoZrjsRe3BAUnMMPis,Lakshmi Provition Store,13.070036888122559,77.63347625732422,0x3bae192aff17358b:0x2b3e0c735240707b,N_A,N_A,0,0.0,https://www.google.com/maps/place/?q=place_id:ChIJizUX_yoZrjsRe3BAUnMMPis,gmaps_v2,grocery_store,retail,N_A,1687847039
ChIJd96MlMIZrjsRL16NWzcnzow,Shruthi Home Beauty Spa,13.096216201782227,77.59221649169922,0x3bae19c2948cde77:0x8cce27375b8d5e2f,N_A,N_A,51,3.9000000953674316,https://www.google.com/maps/place/?q=place_id:ChIJd96MlMIZrjsRL16NWzcnzow,gmaps_v2,salon,service,N_A,1699615207
ChIJcw9SfIQXrjsRMxCcY8Hvpc4,Ashirwad Medical,13.049688339233398,77.6015625,0x3bae17847c520f73:0xcea5efc1639c1033,N_A,N_A,0,0.0,https://www.google.com/maps/place/?q=place_id:ChIJcw9SfIQXrjsRMxCcY8Hvpc4,gmaps_v2,pharmacy,medical,N_A,1687847039
ChIJX_wBmp4ZrjsRRDlr6A5L2Aw,Stationary Shop,13.066904067993164,77.6386947631836,0x3bae199e9a01fc5f:0xcd84b0ee86b3944,N_A,N_A,0,0.0,https://www.google.com/maps/place/?q=place_id:ChIJX_wBmp4ZrjsRRDlr6A5L2Aw,gmaps_v2,school,education,N_A,1687847039
ChIJqdiLPHoXrjsRzLmqwJPeFsc,INKSOUL TATTOO AND MUSIC FESTIVAL,13.04279613494873,77.61669158935547,0x3bae177a3c8bd8a9:0xc716de93c0aab9cc,N_A,N_A,1,3.0,https://www.google.com/maps/place/?q=place_id:ChIJqdiLPHoXrjsRzLmqwJPeFsc,gmaps_v2,bar_pub,food,N_A,1687847039
ChIJXcgcFDwXrjsRafF8hxIh4pk,Indian Academy Group of Institutions,13.030330657958984,77.6351318359375,0x3bae173c141cc85d:0x99e22112877cf169,indianacademy,indianacademy,723,4.0,https://www.google.com/maps/place/?q=place_id:ChIJXcgcFDwXrjsRafF8hxIh4pk,gmaps_v2,school,education,N_A,1687847039
ChIJM9aBoRYZrjsRvvUXhEvPwyM,Sri S G SIDDARAMAIAH,13.075247764587402,77.60279846191406,0x3bae1916a181d633:0x23c3cf4b8417f5be,N_A,N_A,1,4.0,https://www.google.com/maps/place/?q=place_id:ChIJM9aBoRYZrjsRvvUXhEvPwyM,gmaps_v2,college,education,N_A,1687847039
ChIJydNg7F4XrjsRxDEx9vnZkp8,sharath chess academy,13.049002647399902,77.59786987304688,0x3bae175eec60d3c9:0x9f92d9f9f63131c4,N_A,N_A,1,5.0,https://www.google.com/maps/place/?q=place_id:ChIJydNg7F4XrjsRxDEx9vnZkp8,gmaps_v2,college,education,N_A,1687847039
ChIJ7fy3ZAoXrjsRkgHNh8M5n_U,Kolkata Famous Kati Rool,13.032425880432129,77.6085433959961,0x3bae170a64b7fced:0xf59f39c387cd0192,N_A,N_A,0,0.0,https://www.google.com/maps/place/?q=place_id:ChIJ7fy3ZAoXrjsRkgHNh8M5n_U,gmaps_v2,restaurant,food,N_A,1687847039
ChIJlQutenkXrjsR8MyPDzrv400,TVS - Suryapratap Automobiles,13.041227340698242,77.62454223632812,0x3bae17797aad0b95:0x4de3ef3a0f8fccf0,tvsmotor,TVS Motor,344,4.400000095367432,https://www.google.com/maps/place/?q=place_id:ChIJlQutenkXrjsR8MyPDzrv400,gmaps_v2,service,other,N_A,1687847039
3717ed49-f6ae-4f2b-b386-ce932217dca9,Protrol Process Control Pvt Ltd,13.0571228,77.6020916,,N_A,N_A,0,0.0,,fundoo,Private Sector,company,SMEs,1701844461
ChIJKRYa8v0ZrjsROlAfROGZ8NU,North side medical center,13.10171890258789,77.59882354736328,0x3bae19fdf21a1629:0xd5f099e1441f503a,N_A,N_A,10,5.0,https://www.google.com/maps/place/?q=place_id:ChIJKRYa8v0ZrjsROlAfROGZ8NU,gmaps_v2,clinic,medical,N_A,1695212099
ChIJcVZ_FJQZrjsRhfLPB-Flu_k,Browz,13.068278312683105,77.59127807617188,0x3bae1994147f5671:0xf9bb65e107cff285,N_A,N_A,0,0.0,https://www.google.com/maps/place/?q=place_id:ChIJcVZ_FJQZrjsRhfLPB-Flu_k,gmaps_v2,salon,service,N_A,1695212099
ChIJkZLBUcgZrjsRHXdg5_i3zaA,Khadim - Sahakara Nagar,13.063630104064941,77.58651733398438,0x3bae19c851c19291:0xa0cdb7f8e760771d,khadims,Khadims,135,3.5,https://www.google.com/maps/place/?q=place_id:ChIJkZLBUcgZrjsRHXdg5_i3zaA,gmaps_v2,shoe_store,retail,N_A,1687847039
18305660,DUNKIN',13.0449033199,77.620052062,18305660,zomato_dunkin',DUNKIN',6156,4.1,,zomato,restaurant,food,N_A,1688639100
ChIJPcbRK1gYrjsRFBWzQOM11_k,Jayalakshmi Hospital,13.098912239074707,77.59622955322266,0x3bae18582bd1c63d:0xf9d735e340b31514,N_A,N_A,4,1.7999999523162842,https://www.google.com/maps/place/?q=place_id:ChIJPcbRK1gYrjsRFBWzQOM11_k,gmaps_v2,clinic,medical,N_A,1695212099
ChIJkS7bDT0XrjsRl4nQ40evqns,Namma Padithara,13.027778625488281,77.6324462890625,0x3bae173d0ddb2e91:0x7baaaf47e3d08997,N_A,N_A,0,0.0,https://www.google.com/maps/place/?q=place_id:ChIJkS7bDT0XrjsRl4nQ40evqns,gmaps_v2,pet_care,service,N_A,1695212099
ChIJAamYW3IXrjsRnl_2zIR_gS4,Umar Enterprise,13.033443450927734,77.61722564697266,0x3bae17725b98a901:0x2e817f84ccf65f9e,N_A,N_A,0,0.0,https://www.google.com/maps/place/?q=place_id:ChIJAamYW3IXrjsRnl_2zIR_gS4,gmaps_v2,electronic_store,retail,N_A,1695212099
ChIJc6EXmOQZrjsROE_8a43mMrg,Mathaji Jewellers,13.067052841186523,77.640869140625,0x3bae19e49817a173:0xb832e68d6bfc4f38,N_A,N_A,5,4.199999809265137,https://www.google.com/maps/place/?q=place_id:ChIJc6EXmOQZrjsROE_8a43mMrg,gmaps_v2,electronic_store,retail,N_A,1695212099
ChIJcaccix0YrjsRBraAAgYPug8,Lush Leaf Organic Store,13.063212394714355,77.58677673339844,0x3bae181d8b1ca771:0xfba0f060280b606,N_A,N_A,101,4.199999809265137,https://www.google.com/maps/place/?q=place_id:ChIJcaccix0YrjsRBraAAgYPug8,gmaps_v2,grocery_store,retail,N_A,1687847039
ChIJFcivTiQXrjsRxrRZqEixPZ4,A A Store,13.03259563446045,77.61917114257812,0x3bae17244eafc815:0x9e3db148a859b4c6,N_A,N_A,2,4.5,https://www.google.com/maps/place/?q=place_id:ChIJFcivTiQXrjsRxrRZqEixPZ4,gmaps_v2,grocery_store,retail,N_A,1687847039
ChIJ8y_kwmgZrjsRy94Sfk_mk8c,Glee Dessert,13.072800636291504,77.60306549072266,0x3bae1968c2e42ff3:0xc793e64f7e12decb,N_A,N_A,19,4.5,https://www.google.com/maps/place/?q=place_id:ChIJ8y_kwmgZrjsRy94Sfk_mk8c,gmaps_v2,restaurant,food,N_A,1699615207
ChIJlWpZTVkYrjsRmqbAe-fj7aM,Volga Dental,13.09833812713623,77.5904312133789,0x3bae18594d596a95:0xa3ede3e77bc0a69a,N_A,N_A,4,5.0,https://www.google.com/maps/place/?q=place_id:ChIJlWpZTVkYrjsRmqbAe-fj7aM,gmaps_v2,clinic,medical,N_A,1695212099
ChIJdV-zjj4ZrjsRkdsGZlxZ6tY,Dental Conceptz,13.073095321655273,77.59501647949219,0x3bae193e8eb35f75:0xd6ea595c6606db91,N_A,N_A,34,4.800000190734863,https://www.google.com/maps/place/?q=place_id:ChIJdV-zjj4ZrjsRkdsGZlxZ6tY,gmaps_v2,clinic,medical,N_A,1695212099
ChIJwYaznaIXrjsRTvA5DsNRPxY,DESIGN HOME PAINTING SERVICES,13.047592163085938,77.62657165527344,0x3bae17a29db386c1:0x163f51c30e39f04e,N_A,N_A,5,5.0,https://www.google.com/maps/place/?q=place_id:ChIJwYaznaIXrjsRTvA5DsNRPxY,gmaps_v2,home_decor,retail,N_A,1695212099
ChIJh9-ad2wXrjsRz5FRCamuin8,Art Of Living Yoga & Meditation Center,13.045654296875,77.62631225585938,0x3bae176c779adf87:0x7f8aaea9095191cf,artofliving,Art of Living,169,4.900000095367432,https://www.google.com/maps/place/?q=place_id:ChIJh9-ad2wXrjsRz5FRCamuin8,gmaps_v2,gym_fitness,leisure,wellness_centre,1695212099
ChIJZY-Zo5wWrjsRuY22TFYIIYY,Jivaana,13.058382034301758,77.62556457519531,0x3bae169ca3998f65:0x862108564cb68db9,N_A,N_A,146,4.199999809265137,https://www.google.com/maps/place/?q=place_id:ChIJZY-Zo5wWrjsRuY22TFYIIYY,gmaps_v2,jewelry_store,retail,N_A,1687847039
ChIJ-2ZQlEUXrjsRMqaKgHidHHc,Ms pharma and surgicals,13.034854888916016,77.60611724853516,0x3bae1745945066fb:0x771c9d78808aa632,N_A,N_A,0,0.0,https://www.google.com/maps/place/?q=place_id:ChIJ-2ZQlEUXrjsRMqaKgHidHHc,gmaps_v2,pharmacy,medical,N_A,1687847039
ChIJkzg84GgXrjsR58mHoYZsUmE,"PVR MSR Elements Mall, Tanisandhra Main Road",13.045104026794434,77.62651062011719,0x3bae1768e03c3893:0x61526c86a187c9e7,pvrcinemas,PVR Cinemas,15599,4.199999809265137,https://www.google.com/maps/place/?q=place_id:ChIJkzg84GgXrjsR58mHoYZsUmE,gmaps_v2,cinema_hall,leisure,N_A,1687847039
ChIJq8GMRdwXrjsRnh9uLJYS3VI,GLPS Vidyasagar (Saraipalya),13.047635078430176,77.63176727294922,0x3bae17dc458cc1ab:0x52dd12962c6e1f9e,N_A,N_A,1,5.0,https://www.google.com/maps/place/?q=place_id:ChIJq8GMRdwXrjsRnh9uLJYS3VI,gmaps_v2,school,education,N_A,1687847039
ChIJsff5l_cZrjsRAhFze-tbnG0,Sunil Sharma show line,13.090485572814941,77.62277221679688,0x3bae19f797f9f7b1:0x6d9c5beb7b731102,N_A,N_A,0,0.0,https://www.google.com/maps/place/?q=place_id:ChIJsff5l_cZrjsRAhFze-tbnG0,gmaps_v2,restaurant,food,N_A,1687847039
ChIJ1QfxQfYZrjsRj3ITcpCFybE,≈†koda Showroom,13.08314037322998,77.5941390991211,0x3bae19f641f107d5:0xb1c985907213728f,ppsskoda,Skoda,665,4.800000190734863,https://www.google.com/maps/place/?q=place_id:ChIJ1QfxQfYZrjsRj3ITcpCFybE,gmaps_v2,service,other,N_A,1687847039
ChIJnayMyXUZrjsRDJE8IIINXX4,"WISDOM SCHOOL, JAMIA ARABIA JAMALUL QURAN",13.07032585144043,77.63325500488281,0x3bae1975c98cac9d:0x7e5d0d82203c910c,N_A,N_A,0,0.0,https://www.google.com/maps/place/?q=place_id:ChIJnayMyXUZrjsRDJE8IIINXX4,gmaps_v2,school,education,N_A,1687847039
ChIJq8OoU98ZrjsRXWA9TklNf-4,Abhyas School of Learning,13.071707725524902,77.60218811035156,0x3bae19df53a8c3ab:0xee7f4d494e3d605d,N_A,N_A,17,5.0,https://www.google.com/maps/place/?q=place_id:ChIJq8OoU98ZrjsRXWA9TklNf-4,gmaps_v2,school,education,pre_school,1687847039
ChIJrYY-0_kXrjsRfkmjXhX7XUY,C R Vidhya Vihar Academy,13.039794921875,77.60295867919922,0x3bae17f9d33e86ad:0x465dfb155ea3497e,N_A,N_A,12,4.900000095367432,https://www.google.com/maps/place/?q=place_id:ChIJrYY-0_kXrjsRfkmjXhX7XUY,gmaps_v2,school,education,N_A,1687847039
ChIJ05SOZ2kXrjsRBIHOkfPQnkQ,Oakwood International School,13.047602653503418,77.6348648071289,0x3bae1769678e94d3:0x449ed0f391ce8104,N_A,N_A,12,4.800000190734863,https://www.google.com/maps/place/?q=place_id:ChIJ05SOZ2kXrjsRBIHOkfPQnkQ,gmaps_v2,school,education,N_A,1687847039
ChIJDVtSQT4XrjsRqAWDlGVx6l8,Infant Jesus School,13.032946586608887,77.63245391845703,0x3bae173e41525b0d:0x5fea7165948305a8,N_A,N_A,11,4.199999809265137,https://www.google.com/maps/place/?q=place_id:ChIJDVtSQT4XrjsRqAWDlGVx6l8,gmaps_v2,school,education,N_A,1687847039
ChIJd9O-SjsXrjsR4x44G_hxDOQ,Russels Academy,13.0258207321167,77.63777160644531,0x3bae173b4abed377:0xe40c71f81b381ee3,N_A,N_A,0,0.0,https://www.google.com/maps/place/?q=place_id:ChIJd9O-SjsXrjsR4x44G_hxDOQ,gmaps_v2,tuition_center,education,N_A,1687847039
ChIJAQAADPkZrjsR-sQoXg6YJks,Cavalier India SSB | NDA | AFCAT | CDS | CAPF | ACC | TA Training Center,13.067412376403809,77.6510009765625,0x3bae19f90c000001:0x4b26980e5e28c4fa,cavalierindia,cavalierindia,1121,4.400000095367432,https://www.google.com/maps/place/?q=place_id:ChIJAQAADPkZrjsR-sQoXg6YJks,gmaps_v2,school,education,tution_center,1687847039
ChIJCfMdNXQXrjsROVU6jNiOL_Q,St. Paul's Public School,13.040332794189453,77.61061096191406,0x3bae1774351df309:0xf42f8ed88c3a5539,N_A,N_A,53,4.300000190734863,https://www.google.com/maps/place/?q=place_id:ChIJCfMdNXQXrjsROVU6jNiOL_Q,gmaps_v2,school,education,N_A,1687847039
ChIJDaRGpD0XrjsRvdRCdsuG_m0,All Peoples Church Bible College,13.066776275634766,77.6373519897461,0x3bae173da446a40d:0x6dfe86cb7642d4bd,N_A,N_A,25,4.800000190734863,https://www.google.com/maps/place/?q=place_id:ChIJDaRGpD0XrjsRvdRCdsuG_m0,gmaps_v2,college,education,N_A,1687847039
ChIJfRzeUCAXrjsRztFLYuLFAiY,Podar Jumbo Kids Plus Pre-School And Daycare,13.052918434143066,77.6248779296875,0x3bae172050de1c7d:0x2602c5e2624bd1ce,N_A,N_A,92,4.900000095367432,https://www.google.com/maps/place/?q=place_id:ChIJfRzeUCAXrjsRztFLYuLFAiY,gmaps_v2,school,education,pre_school,1687847039
ChIJocSTwfMZrjsR8cEQ_Q0ASY0,S.S College Of Pharmacy,13.066779136657715,77.60044860839844,0x3bae19f3c193c4a1:0x8d49000dfd10c1f1,N_A,N_A,86,4.099999904632568,https://www.google.com/maps/place/?q=place_id:ChIJocSTwfMZrjsR8cEQ_Q0ASY0,gmaps_v2,college,education,N_A,1687847039
ChIJe2itz4UXrjsRY6kKWtL0cuk,Mary Matha School Of Nursing,13.051334381103516,77.59867095947266,0x3bae1785cfad687b:0xe972f4d25a0aa963,N_A,N_A,15,4.199999809265137,https://www.google.com/maps/place/?q=place_id:ChIJe2itz4UXrjsRY6kKWtL0cuk,gmaps_v2,college,education,N_A,1687847039
ChIJjQmuCFMXrjsRjmVmHapofp4,Pr College,13.029237747192383,77.63084411621094,0x3bae175308ae098d:0x9e7e68aa1d66658e,N_A,N_A,0,0.0,https://www.google.com/maps/place/?q=place_id:ChIJjQmuCFMXrjsRjmVmHapofp4,gmaps_v2,college,education,N_A,1687847039
ChIJ51hz2CAYrjsRSqjLwQF35Ls,Ambition Classes,13.060210227966309,77.58979034423828,0x3bae1820d87358e7:0xbbe47701c1cba84a,N_A,N_A,25,4.400000095367432,https://www.google.com/maps/place/?q=place_id:ChIJ51hz2CAYrjsRSqjLwQF35Ls,gmaps_v2,school,education,tution_center,1687847039
ChIJDU20PSAXrjsRRivOwjieWRo,Clone International Montessori Pre - School,13.063737869262695,77.63963317871094,0x3bae17203db44d0d:0x1a599e38c2ce2b46,N_A,N_A,23,4.800000190734863,https://www.google.com/maps/place/?q=place_id:ChIJDU20PSAXrjsRRivOwjieWRo,gmaps_v2,school,education,N_A,1687847039
ChIJcatrJRAUrjsR4eUxyI7KjZY,Spectrum E Kid International,13.027483940124512,77.63654327392578,0x3bae1410256bab71:0x968dca8ec831e5e1,N_A,N_A,54,4.5,https://www.google.com/maps/place/?q=place_id:ChIJcatrJRAUrjsR4eUxyI7KjZY,gmaps_v2,school,education,pre_school,1687847039
ChIJpRDZjF8YrjsRxcG5ISRCjyk,Planck Academy,13.097355842590332,77.59642028808594,0x3bae185f8cd910a5:0x298f422421b9c1c5,N_A,N_A,33,3.799999952316284,https://www.google.com/maps/place/?q=place_id:ChIJpRDZjF8YrjsRxcG5ISRCjyk,gmaps_v2,school,education,tution_center,1687847039
ChIJw2Ko1MIZrjsRJ4-H2FnQ-lo,Diana college of Pharmacy,13.070945739746094,77.62826538085938,0x3bae19c2d4a862c3:0x5afad059d8878f27,N_A,N_A,22,3.799999952316284,https://www.google.com/maps/place/?q=place_id:ChIJw2Ko1MIZrjsRJ4-H2FnQ-lo,gmaps_v2,college,education,N_A,1687847039
ChIJn28-hGcZrjsRT32wN3KXhCg,Happy Childhood Montessori Preschool,13.064217567443848,77.58709716796875,0x3bae1967843e6f9f:0x2884977237b07d4f,N_A,N_A,18,4.900000095367432,https://www.google.com/maps/place/?q=place_id:ChIJn28-hGcZrjsRT32wN3KXhCg,gmaps_v2,school,education,pre_school,1687847039
ChIJ-_bKQeMZrjsRooiBADtWVp0,Little Ikons Preschool & Daycare (by Edumount),13.064275741577148,77.64065551757812,0x3bae19e341caf6fb:0x9d56563b008188a2,N_A,N_A,13,5.0,https://www.google.com/maps/place/?q=place_id:ChIJ-_bKQeMZrjsRooiBADtWVp0,gmaps_v2,school,education,dance_school,1687847039
ChIJLySFHIIXrjsRJIcMNJ0RAE0,St.Johns School (ICSE/ISC) - BEST ICSE SCHOOL HEBBAL,13.052820205688477,77.60678100585938,0x3bae17821c85242f:0x4d00119d340c8724,N_A,N_A,125,4.199999809265137,https://www.google.com/maps/place/?q=place_id:ChIJLySFHIIXrjsRJIcMNJ0RAE0,gmaps_v2,school,education,N_A,1687847039
ChIJgYr9GMUZrjsRzzVY5ojC9co,INDO KIDS INTERNATIONAL SCHOOL,13.08556842803955,77.63170623779297,0x3bae19c518fd8a81:0xcaf5c288e65835cf,indokids,indokids,82,4.900000095367432,https://www.google.com/maps/place/?q=place_id:ChIJgYr9GMUZrjsRzzVY5ojC9co,gmaps_v2,school,education,pre_school,1687847039
ChIJvUz8wIUZrjsRik9DT-mjrw0,AGRICULTURE PRACTICAL EXAM 2024,13.065581321716309,77.5997314453125,0x3bae1985c0fc4cbd:0xdafa3e94f434f8a,N_A,N_A,19,4.900000095367432,https://www.google.com/maps/place/?q=place_id:ChIJvUz8wIUZrjsRik9DT-mjrw0,gmaps_v2,school,education,tution_center,1687847039
ChIJMQsWd4UXrjsRvo1J4AyNh7w,Arjunaa Academy for Achievers,13.05018138885498,77.59747314453125,0x3bae178577160b31:0xbc878d0ce0498dbe,N_A,N_A,26,4.900000095367432,https://www.google.com/maps/place/?q=place_id:ChIJMQsWd4UXrjsRvo1J4AyNh7w,gmaps_v2,school,education,tution_center,1687847039
ChIJNahDVUcXrjsR-j7wBKulgKg,Shree Sharada Vidyaniketan,13.036248207092285,77.63597869873047,0x3bae17475543a835:0xa880a5ab04f03efa,N_A,N_A,21,4.199999809265137,https://www.google.com/maps/place/?q=place_id:ChIJNahDVUcXrjsR-j7wBKulgKg,gmaps_v2,school,education,N_A,1687847039
ChIJjTOzMTEXrjsR7xdHfYotQhg,Cutie Pies Academy,13.031671524047852,77.62589263916016,0x3bae173131b3338d:0x18422d8a7d4717ef,N_A,N_A,35,4.900000095367432,https://www.google.com/maps/place/?q=place_id:ChIJjTOzMTEXrjsR7xdHfYotQhg,gmaps_v2,school,education,pre_school,1687847039
ChIJWegCRx0ZrjsRNLnJrDhanSc,GTC CLASSES,13.083751678466797,77.6351089477539,0x3bae191d4702e859:0x279d5a38acc9b934,N_A,N_A,18,4.900000095367432,https://www.google.com/maps/place/?q=place_id:ChIJWegCRx0ZrjsRNLnJrDhanSc,gmaps_v2,school,education,tution_center,1687847039
ChIJa5RtLBEZrjsR7EoFAdE8W0c,NoMoreClass,13.063847541809082,77.58792877197266,0x3bae19112c6d946b:0x475b3cd101054aec,N_A,N_A,186,4.400000095367432,https://www.google.com/maps/place/?q=place_id:ChIJa5RtLBEZrjsR7EoFAdE8W0c,gmaps_v2,school,education,tution_center,1687847039
ChIJw6p555UXrjsRzADL36b5sFA,Ashoka Trust For Research In Ecology And The Environment,13.064292907714844,77.6202163696289,0x3bae1795e779aac3:0x50b0f9a6dfcb00cc,N_A,N_A,171,4.599999904632568,https://www.google.com/maps/place/?q=place_id:ChIJw6p555UXrjsRzADL36b5sFA,gmaps_v2,college,education,N_A,1687847039
ChIJj4MMsMUZrjsRQP2fHBQ4xs4,ETOE Global,13.093168258666992,77.5829086303711,0x3bae19c5b00c838f:0xcec638141c9ffd40,N_A,N_A,60,4.900000095367432,https://www.google.com/maps/place/?q=place_id:ChIJj4MMsMUZrjsRQP2fHBQ4xs4,gmaps_v2,school,education,tution_center,1687847039
ChIJUxJkZUYZrjsRAiQ8XQN6qfE,KinderVille International Montessori,13.091875076293945,77.63278198242188,0x3bae194665641253:0xf1a97a035d3c2402,N_A,N_A,47,4.900000095367432,https://www.google.com/maps/place/?q=place_id:ChIJUxJkZUYZrjsRAiQ8XQN6qfE,gmaps_v2,school,education,pre_school,1687847039
ChIJw6PUbyUYrjsRq0rM_FrTW2s,The Miracle Kidz,13.06772518157959,77.60123443603516,0x3bae18256fd4a3c3:0x6b5bd35afccc4aab,N_A,N_A,46,4.699999809265137,https://www.google.com/maps/place/?q=place_id:ChIJw6PUbyUYrjsRq0rM_FrTW2s,gmaps_v2,school,education,pre_school,1687847039
ChIJheXNOwcXrjsRCghYuG1pcx0,Madrasa-E-Rouzatul Banath,13.072614669799805,77.63157653808594,0x3bae17073bcde585:0x1d73696db858080a,N_A,N_A,24,4.5,https://www.google.com/maps/place/?q=place_id:ChIJheXNOwcXrjsRCghYuG1pcx0,gmaps_v2,school,education,N_A,1687847039
ChIJ7_Zj58IZrjsRgttlWRSCy6I,St. Theresa College Of Pharmacy,13.072351455688477,77.62811279296875,0x3bae19c2e763f6ef:0xa2cb82145965db82,sttheresagroupofinstitutions,sttheresagroupofinstitutions,18,4.099999904632568,https://www.google.com/maps/place/?q=place_id:ChIJ7_Zj58IZrjsRgttlWRSCy6I,gmaps_v2,college,education,N_A,1687847039
ChIJVYbFwyQXrjsRmiZg29GMaOA,Indo Asian Academy Group of Institutions,13.027000427246094,77.6362075805664,0x3bae1724c3c58655:0xe0688cd1db60269a,indoasianacademy,indoasianacademy,328,3.4000000953674316,https://www.google.com/maps/place/?q=place_id:ChIJVYbFwyQXrjsRmiZg29GMaOA,gmaps_v2,tuition_center,education,N_A,1687847039
ChIJI5oBEzwXrjsRX80MXARcXpU,IA School of Management Studies,13.030333518981934,77.63520812988281,0x3bae173c13019a23:0x955e5c045c0ccd5f,N_A,N_A,288,4.199999809265137,https://www.google.com/maps/place/?q=place_id:ChIJI5oBEzwXrjsRX80MXARcXpU,gmaps_v2,college,education,N_A,1687847039
ChIJQayM6PMXrjsRl6YtYLb3R-E,"Inspire Public School, Thanisandra, Bengaluru",13.049845695495605,77.62798309326172,0x3bae17f3e88cac41:0xe147f7b6602da697,N_A,N_A,43,4.800000190734863,https://www.google.com/maps/place/?q=place_id:ChIJQayM6PMXrjsRl6YtYLb3R-E,gmaps_v2,school,education,N_A,1687847039
ChIJ6Xue4RIXrjsRkWVZQLdnO98,Immanuel High School,13.034858703613281,77.62191009521484,0x3bae1712e19e7be9:0xdf3b67b740596591,N_A,N_A,32,4.300000190734863,https://www.google.com/maps/place/?q=place_id:ChIJ6Xue4RIXrjsRkWVZQLdnO98,gmaps_v2,school,education,N_A,1687847039
ChIJmdwsvwoXrjsRHBu3P8EAy08,International Institute of Business Studies,13.03392219543457,77.60901641845703,0x3bae170abf2cdc99:0x4fcb00c13fb71b1c,N_A,N_A,28,3.700000047683716,https://www.google.com/maps/place/?q=place_id:ChIJmdwsvwoXrjsRHBu3P8EAy08,gmaps_v2,college,education,N_A,1687847039
ChIJY789ggoXrjsRg2WEU0MFTsY,R T Nagar education trust high School,13.03331470489502,77.608154296875,0x3bae170a823dbf63:0xc64e054353846583,N_A,N_A,16,3.799999952316284,https://www.google.com/maps/place/?q=place_id:ChIJY789ggoXrjsRg2WEU0MFTsY,gmaps_v2,school,education,N_A,1687847039
ChIJF8NS8S4ZrjsRJWLWb8ZIh2k,RS Academy,13.060552597045898,77.58819580078125,0x3bae192ef152c317:0x698748c66fd66225,N_A,N_A,86,5.0,https://www.google.com/maps/place/?q=place_id:ChIJF8NS8S4ZrjsRJWLWb8ZIh2k,gmaps_v2,school,education,tution_center,1687847039
ChIJ1xX_rbU-rjsRPYE2pC36Xmk,MADRASA TAZKIYATUL BANAAT (GIRLS MADRASA),13.07995891571045,77.63477325439453,0x3bae3eb5adff15d7:0x695efa2da436813d,N_A,N_A,20,4.599999904632568,https://www.google.com/maps/place/?q=place_id:ChIJ1xX_rbU-rjsRPYE2pC36Xmk,gmaps_v2,school,education,N_A,1687847039
ChIJr5BElT8XrjsR11yqxukRfMI,Twinkling Star School,13.035443305969238,77.63214874267578,0x3bae173f954490af:0xc27c11e9c6aa5cd7,N_A,N_A,14,4.199999809265137,https://www.google.com/maps/place/?q=place_id:ChIJr5BElT8XrjsR11yqxukRfMI,gmaps_v2,school,education,N_A,1687847039
ChIJpwDFFmsXrjsRShXBTiEamfY,Mantra Academy,13.026915550231934,77.63700103759766,0x3bae176b16c500a7:0xf6991a214ec1154a,N_A,N_A,55,4.699999809265137,https://www.google.com/maps/place/?q=place_id:ChIJpwDFFmsXrjsRShXBTiEamfY,gmaps_v2,tuition_center,education,N_A,1687847039
ChIJ0duxsIUXrjsRvzosPDInviE,Presidency PU College Hebbal,13.050362586975098,77.59850311279297,0x3bae1785b0b1dbd1:0x21be27323c2c3abf,presidencypucollege,presidencypucollege,99,4.0,https://www.google.com/maps/place/?q=place_id:ChIJ0duxsIUXrjsRvzosPDInviE,gmaps_v2,college,education,N_A,1687847039
ChIJUaCqytoXrjsRqeiJRJnOh04,ONE School of Business,13.037213325500488,77.62029266357422,0x3bae17dacaaaa051:0x4e87ce994489e8a9,N_A,N_A,38,4.800000190734863,https://www.google.com/maps/place/?q=place_id:ChIJUaCqytoXrjsRqeiJRJnOh04,gmaps_v2,college,education,N_A,1687847039
ChIJ-87OEUAXrjsRyan-N1mJstw,"Little Steps Day Care & Preschool Sultanpalya, Manorayanapalya, Kanaka Nagar, RT Nagar",13.031746864318848,77.60987091064453,0x3bae174011cecefb:0xdcb2895937fea9c9,N_A,N_A,22,4.900000095367432,https://www.google.com/maps/place/?q=place_id:ChIJ-87OEUAXrjsRyan-N1mJstw,gmaps_v2,school,education,pre_school,1687847039
ChIJAzQoYBYXrjsRc4S7XUS4pZY,St. Xavier's PU & Degree College,13.030203819274902,77.62521362304688,0x3bae171660283403:0x96a5b8445dbb8473,N_A,N_A,229,4.0,https://www.google.com/maps/place/?q=place_id:ChIJAzQoYBYXrjsRc4S7XUS4pZY,gmaps_v2,college,education,N_A,1687847039
ChIJm8JWSfkZrjsRyBNp_kJQ0LQ,Biblical Theological College,13.066291809082031,77.64898681640625,0x3bae19f94956c29b:0xb4d05042fe6913c8,N_A,N_A,14,4.699999809265137,https://www.google.com/maps/place/?q=place_id:ChIJm8JWSfkZrjsRyBNp_kJQ0LQ,gmaps_v2,college,education,N_A,1687847039
ChIJMUAzqNkjrjsRqe2kb0WMBJw,PI R Square Academy for Mathematics,13.077582359313965,77.62104034423828,0x3bae23d9a8334031:0x9c048c456fa4eda9,N_A,N_A,11,5.0,https://www.google.com/maps/place/?q=place_id:ChIJMUAzqNkjrjsRqe2kb0WMBJw,gmaps_v2,school,education,tution_center,1687847039
ChIJL4Uw8LAXrjsRGXsxPAvIdYA,Gautham College Of Pharmacy.,13.03543472290039,77.60562133789062,0x3bae17b0f030852f:0x8075c80b3c317b19,N_A,N_A,183,3.0999999046325684,https://www.google.com/maps/place/?q=place_id:ChIJL4Uw8LAXrjsRGXsxPAvIdYA,gmaps_v2,college,education,N_A,1687847039
ChIJo-vaHG0XrjsRXOU7Ya0dCxU,NANDU HOSPITALITY - AASHIYANA,13.049189567565918,77.60466766357422,0x3bae176d1cdaeba3:0x150b1dad613be55c,N_A,N_A,133,4.099999904632568,https://www.google.com/maps/place/?q=place_id:ChIJo-vaHG0XrjsRXOU7Ya0dCxU,gmaps_v2,school,education,pre_school,1687847039
ChIJN08qSuoZrjsRUYLePeetDbQ,Ruman School of Nursing,13.078049659729004,77.63321685791016,0x3bae19ea4a2a4f37:0xb40dade73dde8251,N_A,N_A,15,3.9000000953674316,https://www.google.com/maps/place/?q=place_id:ChIJN08qSuoZrjsRUYLePeetDbQ,gmaps_v2,college,education,N_A,1687847039
ChIJ7x_b1KYXrjsRcwfog4ZfF0w,Sri Venkateshwara C.K Institute of Pharmacy,13.033791542053223,77.60619354248047,0x3bae17a6d4db1fef:0x4c175f8683e80773,N_A,N_A,14,3.799999952316284,https://www.google.com/maps/place/?q=place_id:ChIJ7x_b1KYXrjsRcwfog4ZfF0w,gmaps_v2,college,education,N_A,1687847039
ChIJjSwgb_4ZrjsRmjGjDi20PNU,NICT Computer Education,13.062214851379395,77.64887237548828,0x3bae19fe6f202c8d:0xd53cb42d0ea3319a,N_A,N_A,112,4.900000095367432,https://www.google.com/maps/place/?q=place_id:ChIJjSwgb_4ZrjsRmjGjDi20PNU,gmaps_v2,school,education,tution_center,1687847039
ChIJddKqsiEYrjsRUJxdOE0UcwE,Mela Music School,13.06244945526123,77.59291076660156,0x3bae1821b2aad275:0x173144d385d9c50,N_A,N_A,76,4.599999904632568,https://www.google.com/maps/place/?q=place_id:ChIJddKqsiEYrjsRUJxdOE0UcwE,gmaps_v2,school,education,music_school,1687847039
ChIJC13ySAwXrjsRAwMlf-ixltw,St Joseph's English Primary School,13.03207015991211,77.6159439086914,0x3bae170c48f25d0b:0xdc96b1e87f250303,N_A,N_A,24,4.5,https://www.google.com/maps/place/?q=place_id:ChIJC13ySAwXrjsRAwMlf-ixltw,gmaps_v2,school,education,N_A,1687847039
ChIJQzdSeWAXrjsRhlU6FkYrbUY,Sri Basaveshwara English High School,13.056982040405273,77.6299819946289,0x3bae176079523743:0x466d2b46163a5586,N_A,N_A,13,4.900000095367432,https://www.google.com/maps/place/?q=place_id:ChIJQzdSeWAXrjsRhlU6FkYrbUY,gmaps_v2,school,education,N_A,1687847039
ChIJR0TtSaAXrjsRJjwBE-LjVFc,Goodwill School,13.034055709838867,77.60531616210938,0x3bae17a049ed4447:0x5754e3e213013c26,N_A,N_A,13,3.200000047683716,https://www.google.com/maps/place/?q=place_id:ChIJR0TtSaAXrjsRJjwBE-LjVFc,gmaps_v2,school,education,N_A,1687847039
ChIJkS7bDT0XrjsR9Pb2DLxn1qc,VR College of Pharmacy,13.027778625488281,77.6324462890625,0x3bae173d0ddb2e91:0xa7d667bc0cf6f6f4,N_A,N_A,0,0.0,https://www.google.com/maps/place/?q=place_id:ChIJkS7bDT0XrjsR9Pb2DLxn1qc,gmaps_v2,college,education,N_A,1687847039
ChIJK2lj1gIXrjsRh9hr2PIJuH0,S M H College of Physiotherapy,13.02657699584961,77.64117431640625,0x3bae1702d663692b:0x7db809f2d86bd887,N_A,N_A,0,0.0,https://www.google.com/maps/place/?q=place_id:ChIJK2lj1gIXrjsRh9hr2PIJuH0,gmaps_v2,college,education,N_A,1687847039
ChIJu4P_ma0XrjsRz2eb5PDZ6_8,Providence International School Thanisandra,13.053288459777832,77.63118743896484,0x3bae17ad99ff83bb:0xffebd9f0e49b67cf,N_A,N_A,13,4.699999809265137,https://www.google.com/maps/place/?q=place_id:ChIJu4P_ma0XrjsRz2eb5PDZ6_8,gmaps_v2,school,education,N_A,1687847039
ChIJBZPk1JgXrjsR0_GLezwZ5Vk,CNK COLLEGE Nursing,13.039196014404297,77.60520935058594,0x3bae1798d4e49305:0x59e5193c7b8bf1d3,cnkcon,cnkcon,95,3.9000000953674316,https://www.google.com/maps/place/?q=place_id:ChIJBZPk1JgXrjsR0_GLezwZ5Vk,gmaps_v2,college,education,N_A,1687847039
ChIJl-N0pIUXrjsRYBJw878MXUw,Good Sheperd Pre School and Day Care,13.053462028503418,77.60070037841797,0x3bae1785a474e397:0x4c5d0cbff3701260,N_A,N_A,43,5.0,https://www.google.com/maps/place/?q=place_id:ChIJl-N0pIUXrjsRYBJw878MXUw,gmaps_v2,school,education,pre_school,1687847039
ChIJ-1EdCEkYrjsRPKfrnTg_oX0,ESENCIA,13.082694053649902,77.59986877441406,0x3bae1849081d51fb:0x7da13f389deba73c,N_A,N_A,12,3.299999952316284,https://www.google.com/maps/place/?q=place_id:ChIJ-1EdCEkYrjsRPKfrnTg_oX0,gmaps_v2,college,education,N_A,1687847039
ChIJkS7bDT0XrjsREAjCwoOCRD4,Viyaan Academy,13.027778625488281,77.6324462890625,0x3bae173d0ddb2e91:0x3e448283c2c20810,N_A,N_A,2,5.0,https://www.google.com/maps/place/?q=place_id:ChIJkS7bDT0XrjsREAjCwoOCRD4,gmaps_v2,tuition_center,education,N_A,1687847039
ChIJy8K0MuYZrjsRRmUiL1CkKxU,Saamar International School,13.066157341003418,77.63379669189453,0x3bae19e632b4c2cb:0x152ba4502f226546,N_A,N_A,79,3.9000000953674316,https://www.google.com/maps/place/?q=place_id:ChIJy8K0MuYZrjsRRmUiL1CkKxU,gmaps_v2,school,education,N_A,1687847039
ChIJ04rVX4EXrjsR-UlTgo0Hqvc,Sri Vinayaka Sun Rise School,13.052648544311523,77.60414123535156,0x3bae17815fd58ad3:0xf7aa078d825349f9,N_A,N_A,34,4.300000190734863,https://www.google.com/maps/place/?q=place_id:ChIJ04rVX4EXrjsR-UlTgo0Hqvc,gmaps_v2,school,education,N_A,1687847039
ChIJhxrGFrkXrjsRrRerfm54yzU,Krishna School and College of Nursing,13.04970932006836,77.60918426513672,0x3bae17b916c61a87:0x35cb786e7eab17ad,N_A,N_A,25,4.800000190734863,https://www.google.com/maps/place/?q=place_id:ChIJhxrGFrkXrjsRrRerfm54yzU,gmaps_v2,college,education,N_A,1687847039
ChIJSYFy0ucZrjsRgL-1BvTPl8c,A.R. Institute Of Paramedical College,13.070134162902832,77.63321685791016,0x3bae19e7d2728149:0xc797cff406b5bf80,N_A,N_A,25,4.300000190734863,https://www.google.com/maps/place/?q=place_id:ChIJSYFy0ucZrjsRgL-1BvTPl8c,gmaps_v2,college,education,N_A,1687847039
ChIJCbPo1kQXrjsRZXHXVMPZ_cM,Vidyanjali International School,13.033740997314453,77.61345672607422,0x3bae1744d6e8b309:0xc3fdd9c354d77165,N_A,N_A,19,4.300000190734863,https://www.google.com/maps/place/?q=place_id:ChIJCbPo1kQXrjsRZXHXVMPZ_cM,gmaps_v2,school,education,N_A,1687847039
ChIJDXeYnlcXrjsRLZ9PK-vBCzM,Shaheen‚Äôs Falcon PU College,13.027091979980469,77.63291931152344,0x3bae17579e98770d:0x330bc1eb2b4f9f2d,N_A,N_A,3,5.0,https://www.google.com/maps/place/?q=place_id:ChIJDXeYnlcXrjsRLZ9PK-vBCzM,gmaps_v2,college,education,N_A,1687847039
ChIJGb71g14YrjsRK_J-DjcWq5o,East West Institute of Polytechnic,13.09566593170166,77.5896224975586,0x3bae185e83f5be19:0x9aab16370e7ef22b,N_A,N_A,76,4.099999904632568,https://www.google.com/maps/place/?q=place_id:ChIJGb71g14YrjsRK_J-DjcWq5o,gmaps_v2,college,education,N_A,1687847039
ChIJh2Pxf70XrjsRsx1iuwKWhaI,D.School Bangalore,13.067431449890137,77.64390563964844,0x3bae17bd7ff16387:0xa2859602bb621db3,N_A,N_A,34,4.900000095367432,https://www.google.com/maps/place/?q=place_id:ChIJh2Pxf70XrjsRsx1iuwKWhaI,gmaps_v2,school,education,tution_center,1687847039
ChIJlQ0c_TwXrjsRUvfS_JLrRTU,Royal School of Hotel Management,13.027791023254395,77.63373565673828,0x3bae173cfd1c0d95:0x3545eb92fcd2f752,N_A,N_A,37,4.800000190734863,https://www.google.com/maps/place/?q=place_id:ChIJlQ0c_TwXrjsRUvfS_JLrRTU,gmaps_v2,college,education,N_A,1687847039
ChIJX6-kcT0XrjsRH0BdCsEr58U,Kids Garden Primary School,13.027755737304688,77.63166046142578,0x3bae173d71a4af5f:0xc5e72bc10a5d401f,N_A,N_A,0,0.0,https://www.google.com/maps/place/?q=place_id:ChIJX6-kcT0XrjsRH0BdCsEr58U,gmaps_v2,school,education,N_A,1687847039
ChIJPaCYiF4YrjsRnxW0CbkC4Zk,Novus - Early Learning Center,13.097214698791504,77.58809661865234,0x3bae185e8898a03d:0x99e102b909b4159f,N_A,N_A,35,5.0,https://www.google.com/maps/place/?q=place_id:ChIJPaCYiF4YrjsRnxW0CbkC4Zk,gmaps_v2,school,education,pre_school,1687847039
ChIJ-87FZPwZrjsRCVwgDviBEn8,Don Bosco High School,13.06555461883545,77.64434051513672,0x3bae19fc64c5cefb:0x7f1281f80e205c09,N_A,N_A,24,4.300000190734863,https://www.google.com/maps/place/?q=place_id:ChIJ-87FZPwZrjsRCVwgDviBEn8,gmaps_v2,school,education,N_A,1687847039
ChIJF3dG0YQXrjsRbKWPH1KT6D4,Suma Public School,13.046900749206543,77.5995864868164,0x3bae1784d1467717:0x3ee893521f8fa56c,N_A,N_A,18,4.400000095367432,https://www.google.com/maps/place/?q=place_id:ChIJF3dG0YQXrjsRbKWPH1KT6D4,gmaps_v2,school,education,N_A,1687847039
ChIJYaJ7mpUZrjsRWOvO0wGR21o,Manipal Global Education TATA AIG,13.08555793762207,77.63162231445312,0x3bae19959a7ba261:0x5adb9101d3ceeb58,N_A,N_A,18,4.300000190734863,https://www.google.com/maps/place/?q=place_id:ChIJYaJ7mpUZrjsRWOvO0wGR21o,gmaps_v2,college,education,N_A,1687847039
ChIJU-0sw3gXrjsRA2TyKfqAQSs,SAI RAM HOT CHIPS,13.034061431884766,77.63241577148438,0x3bae1778c32ced53:0x2b4180fa29f26403,N_A,N_A,2,5.0,https://www.google.com/maps/place/?q=place_id:ChIJU-0sw3gXrjsRA2TyKfqAQSs,gmaps_v2,home_decor,retail,N_A,1695212099
ChIJ6Wih5mgXrjsRhr0RAxXH_Ac,Colour Play Salon n Spa,13.045480728149414,77.62674713134766,0x3bae1768e6a168e9:0x7fcc7150311bd86,N_A,N_A,1,5.0,https://www.google.com/maps/place/?q=place_id:ChIJ6Wih5mgXrjsRhr0RAxXH_Ac,gmaps_v2,salon,service,N_A,1699615207
ChIJ68KgNCIYrjsRgLvipo0qIzc,Real Fresh Dosa Corner,13.063986778259277,77.5876235961914,0x3bae182234a0c2eb:0x37232a8da6e2bb80,N_A,N_A,0,0.0,https://www.google.com/maps/place/?q=place_id:ChIJ68KgNCIYrjsRgLvipo0qIzc,gmaps_v2,restaurant,food,N_A,1687847039
ChIJUb4L3lsYrjsRUYpQhBCzRsY,S A Biryani House,13.09675407409668,77.59217071533203,0x3bae185bde0bbe51:0xc646b31084508a51,N_A,N_A,3,2.299999952316284,https://www.google.com/maps/place/?q=place_id:ChIJUb4L3lsYrjsRUYpQhBCzRsY,gmaps_v2,restaurant,food,N_A,1687847039
ChIJX4I7ZGwXrjsRc3ZqlomyDQo,Weekend Cafe,13.039551734924316,77.62381744384766,0x3bae176c643b825f:0xa0db289966a7673,N_A,N_A,0,0.0,https://www.google.com/maps/place/?q=place_id:ChIJX4I7ZGwXrjsRc3ZqlomyDQo,gmaps_v2,coffee_shop,food,N_A,1687847039
ChIJo16tKJ4XrjsRPYS8KuoRnlk,Mataji Provision Stores,13.038719177246094,77.60891723632812,0x3bae179e28ad5ea3:0x599e11ea2abc843d,N_A,N_A,28,4.199999809265137,https://www.google.com/maps/place/?q=place_id:ChIJo16tKJ4XrjsRPYS8KuoRnlk,gmaps_v2,grocery_store,retail,N_A,1687847039
ChIJOXOWIdgXrjsRuCc5xmfml1M,Team Arrows Dance World,13.050202369689941,77.597412109375,0x3bae17d821967339:0x5397e667c63927b8,N_A,N_A,0,0.0,https://www.google.com/maps/place/?q=place_id:ChIJOXOWIdgXrjsRuCc5xmfml1M,gmaps_v2,school,education,N_A,1687847039
ChIJlWO5nvwZrjsRnYEwgamzNIY,Jagadamba Electricals & Hardware,13.065381050109863,77.64388275146484,0x3bae19fc9eb96395:0x8634b3a98130819d,N_A,N_A,2,1.0,https://www.google.com/maps/place/?q=place_id:ChIJlWO5nvwZrjsRnYEwgamzNIY,gmaps_v2,electronic_store,retail,N_A,1695212099
ChIJe-rMORYZrjsR5u5-dAriXD0,Ifraz Cotton Sale,13.064717292785645,77.64083099365234,0x3bae191639ccea7b:0x3d5ce20a747eeee6,N_A,N_A,0,0.0,https://www.google.com/maps/place/?q=place_id:ChIJe-rMORYZrjsR5u5-dAriXD0,gmaps_v2,clothing_store,retail,N_A,1687847039
ChIJT5J8E2wXrjsROXQCZVgFL6E,Skin Hair Cosmetology Laser Clinic,13.040654182434082,77.62428283691406,0x3bae176c137c924f:0xa12f055865027439,N_A,N_A,6,4.300000190734863,https://www.google.com/maps/place/?q=place_id:ChIJT5J8E2wXrjsROXQCZVgFL6E,gmaps_v2,clinic,medical,N_A,1687847039
ChIJu-Pw9d8XrjsRs7Jh-fvJIL0,SAFARI PROVISION STORE,13.052780151367188,77.62735748291016,0x3bae17dff5f0e3bb:0xbd20c9fbf961b2b3,N_A,N_A,0,0.0,https://www.google.com/maps/place/?q=place_id:ChIJu-Pw9d8XrjsRs7Jh-fvJIL0,gmaps_v2,grocery_store,retail,N_A,1687847039
ChIJDRRSTLAXrjsREPVzuzIFAHE,GAJENDRA STORES. KUMAR K N,13.057609558105469,77.60253143310547,0x3bae17b04c52140d:0x71000532bb73f510,N_A,N_A,0,0.0,https://www.google.com/maps/place/?q=place_id:ChIJDRRSTLAXrjsREPVzuzIFAHE,gmaps_v2,grocery_store,retail,N_A,1687847039
ChIJwzY9_BQZrjsRKSdnEB4jTPU,Livy studio,13.075724601745605,77.64474487304688,0x3bae1914fc3d36c3:0xf54c231e10672729,N_A,N_A,1,5.0,https://www.google.com/maps/place/?q=place_id:ChIJwzY9_BQZrjsRKSdnEB4jTPU,gmaps_v2,electronic_store,retail,N_A,1695212099
ChIJW8wmNqAZrjsRDnRcHawc7LI,Madhuram Veg Cafe,13.100102424621582,77.59817504882812,0x3bae19a03626cc5b:0xb2ec1cac1d5c740e,N_A,N_A,38,3.9000000953674316,https://www.google.com/maps/place/?q=place_id:ChIJW8wmNqAZrjsRDnRcHawc7LI,gmaps_v2,restaurant,food,N_A,1699615207
ChIJ1-xh3dgXrjsR-kis2Cdb_HY,Sri lakshmi foods,13.05753231048584,77.61034393310547,0x3bae17d8dd61ecd7:0x76fc5b27d8ac48fa,N_A,N_A,2,3.0,https://www.google.com/maps/place/?q=place_id:ChIJ1-xh3dgXrjsR-kis2Cdb_HY,gmaps_v2,restaurant,food,N_A,1687847039
ChIJJeHEWi4YrjsRE3_g_96aHO4,A.M.S. Provision Store,13.067034721374512,77.60003662109375,0x3bae182e5ac4e125:0xee1c9adeffe07f13,N_A,N_A,0,0.0,https://www.google.com/maps/place/?q=place_id:ChIJJeHEWi4YrjsRE3_g_96aHO4,gmaps_v2,grocery_store,retail,N_A,1687847039
ChIJJ82snKQZrjsRN0iromh78XI,"Elleven Galleria Mall,Karnataka",13.09442138671875,77.59521484375,0x3bae19a49caccd27:0x72f17b68a2ab4837,elleven,Elleven,31,4.0,https://www.google.com/maps/place/?q=place_id:ChIJJ82snKQZrjsRN0iromh78XI,gmaps_v2,clothing_store,retail,N_A,1695212099
ChIJkToQ0p8XrjsRUlRV9f8OJXY,Hani's Ladies Fashion Boutique,13.038152694702148,77.60710144042969,0x3bae179fd2103a91:0x76250efff5555452,N_A,N_A,2,5.0,https://www.google.com/maps/place/?q=place_id:ChIJkToQ0p8XrjsRUlRV9f8OJXY,gmaps_v2,clothing_store,retail,N_A,1687847039
ChIJkaF3OV8ZrjsRL4oYP_WE0QM,"Studio Eleven TILES, STONES AND MURALS",13.07079029083252,77.60923767089844,0x3bae195f3977a191:0x3d184f53f188a2f,N_A,N_A,32,4.800000190734863,https://www.google.com/maps/place/?q=place_id:ChIJkaF3OV8ZrjsRL4oYP_WE0QM,gmaps_v2,grocery_store,retail,N_A,1687847039
ChIJoauGmC8XrjsRuWetunLCbDE,Taj Samosa,13.032085418701172,77.62140655517578,0x3bae172f9886aba1:0x316cc272baad67b9,N_A,N_A,9,3.799999952316284,https://www.google.com/maps/place/?q=place_id:ChIJoauGmC8XrjsRuWetunLCbDE,gmaps_v2,restaurant,food,N_A,1699615207
ChIJeVRWjpEXrjsRba2Oe38MPc4,Touheed,13.030317306518555,77.62337493896484,0x3bae17918e565479:0xce3d0c7f7b8ead6d,N_A,N_A,0,0.0,https://www.google.com/maps/place/?q=place_id:ChIJeVRWjpEXrjsRba2Oe38MPc4,gmaps_v2,home_decor,retail,N_A,1695212099
ChIJv5SNfyQXrjsRxSRyaBPnVhw,Harikrishna Shop,13.040472984313965,77.62227630615234,0x3bae17247f8d94bf:0x1c56e713687224c5,N_A,N_A,0,0.0,https://www.google.com/maps/place/?q=place_id:ChIJv5SNfyQXrjsRxSRyaBPnVhw,gmaps_v2,clothing_store,retail,N_A,1687847039
ChIJZSaX1_IXrjsRzs0jF2d8TxQ,"Panasam food court , kerala restaurant",13.057906150817871,77.64376831054688,0x3bae17f2d7972665:0x144f7c671723cdce,N_A,N_A,5,3.4000000953674316,https://www.google.com/maps/place/?q=place_id:ChIJZSaX1_IXrjsRzs0jF2d8TxQ,gmaps_v2,restaurant,food,N_A,1687847039
ChIJZ-_ntKAZrjsRXMcLEbqLnmU,Archish IVF Centre | Fertility Clinic Sahakar Nagar,13.058868408203125,77.59049224853516,0x3bae19a0b4e7ef67:0x659e8bba110bc75c,archishivf,Archish,22,5.0,https://www.google.com/maps/place/?q=place_id:ChIJZ-_ntKAZrjsRXMcLEbqLnmU,gmaps_v2,clinic,medical,N_A,1687847039
ChIJfbTc7O4XrjsRh1iHZRW-0QM,PETS FETION GALOREüê∂üò∫,13.0411958694458,77.6298599243164,0x3bae17eeecdcb47d:0x3d1be1565875887,N_A,N_A,1,5.0,https://www.google.com/maps/place/?q=place_id:ChIJfbTc7O4XrjsRh1iHZRW-0QM,gmaps_v2,animal,service,N_A,1700469324
ChIJzwjpcDEYrjsRCwkyHg5lLUQ,SLV Fresh Suguna Chicken Centre,13.072192192077637,77.60175323486328,0x3bae183170e908cf:0x442d650e1e32090b,N_A,N_A,28,4.400000095367432,https://www.google.com/maps/place/?q=place_id:ChIJzwjpcDEYrjsRCwkyHg5lLUQ,gmaps_v2,restaurant,food,N_A,1699615207
ChIJ8-JZXKwXrjsRSTZMx5lkqoc,M M Furniture,13.039841651916504,77.61094665527344,0x3bae17ac5c59e2f3:0x87aa6499c74c3649,N_A,N_A,2,5.0,https://www.google.com/maps/place/?q=place_id:ChIJ8-JZXKwXrjsRSTZMx5lkqoc,gmaps_v2,home_decor,retail,N_A,1695212099
ChIJSWHjbHAZrjsRljUkgXBOuYM,ksf,13.098262786865234,77.59532165527344,0x3bae19706ce36149:0x83b94e7081243596,N_A,N_A,0,0.0,https://www.google.com/maps/place/?q=place_id:ChIJSWHjbHAZrjsRljUkgXBOuYM,gmaps_v2,coffee_shop,food,N_A,1687847039
ChIJHdmGwH4XrjsRyvI0nux3pg0,Saptagiri Provision Store,13.054083824157715,77.61209869384766,0x3bae177ec086d91d:0xda677ec9e34f2ca,N_A,N_A,2,2.5,https://www.google.com/maps/place/?q=place_id:ChIJHdmGwH4XrjsRyvI0nux3pg0,gmaps_v2,grocery_store,retail,N_A,1687847039
ChIJwyWSeFUXrjsRrrrimxZcBxI,K.G.N Old cloth shop,13.049473762512207,77.6304931640625,0x3bae1755789225c3:0x12075c169be2baae,N_A,N_A,0,0.0,https://www.google.com/maps/place/?q=place_id:ChIJwyWSeFUXrjsRrrrimxZcBxI,gmaps_v2,clothing_store,retail,N_A,1687847039
ChIJ4RcN_hMXrjsR2OJrEfAHI5A,Madeena Provision Stores,13.030908584594727,77.6246109008789,0x3bae1713fe0d17e1:0x902307f0116be2d8,N_A,N_A,0,0.0,https://www.google.com/maps/place/?q=place_id:ChIJ4RcN_hMXrjsR2OJrEfAHI5A,gmaps_v2,grocery_store,retail,N_A,1687847039
ChIJccPKbmwXrjsRKGYAgbQWF98,Mangalore Lunch Home,13.040226936340332,77.6239013671875,0x3bae176c6ecac371:0xdf1716b481006628,N_A,N_A,25,3.4000000953674316,https://www.google.com/maps/place/?q=place_id:ChIJccPKbmwXrjsRKGYAgbQWF98,gmaps_v2,restaurant,food,N_A,1699615207
ChIJdeIlUMsZrjsRzuSSX9QEuwA,Akshatha Nati style@Amruthahalli,13.06612491607666,77.59838104248047,0x3bae19cb5025e275:0xbb04d45f92e4ce,N_A,N_A,32,4.699999809265137,https://www.google.com/maps/place/?q=place_id:ChIJdeIlUMsZrjsRzuSSX9QEuwA,gmaps_v2,restaurant,food,N_A,1699615207
ChIJBYckJT0XrjsRhmkjL5xKCm0,Hunger Wings,13.036014556884766,77.6313247680664,0x3bae173d25248705:0x6d0a4a9c2f236986,N_A,N_A,4,5.0,https://www.google.com/maps/place/?q=place_id:ChIJBYckJT0XrjsRhmkjL5xKCm0,gmaps_v2,restaurant,food,N_A,1687847039
ChIJIa_oUjMYrjsR6u7MTP6YCzI,Diana Independent PU College,13.082569122314453,77.63517761230469,0x3bae183352e8af21:0x320b98fe4ccceeea,N_A,N_A,3,4.699999809265137,https://www.google.com/maps/place/?q=place_id:ChIJIa_oUjMYrjsR6u7MTP6YCzI,gmaps_v2,college,education,N_A,1687847039
ChIJSb-7nuYZrjsR1q6ppV4-NMI,Krishna Medicals & General Store,13.066977500915527,77.63616943359375,0x3bae19e69ebbbf49:0xc2343e5ea5a9aed6,N_A,N_A,11,4.599999904632568,https://www.google.com/maps/place/?q=place_id:ChIJSb-7nuYZrjsR1q6ppV4-NMI,gmaps_v2,pharmacy,medical,N_A,1687847039
ChIJn6827V8ZrjsRRrSfHBbAJgk,Brand Bazaar,13.066018104553223,77.6419448852539,0x3bae195fed36af9f:0x926c0161c9fb446,N_A,N_A,2,5.0,https://www.google.com/maps/place/?q=place_id:ChIJn6827V8ZrjsRRrSfHBbAJgk,gmaps_v2,clothing_store,retail,N_A,1687847039
ChIJieteoz0XrjsRPTdkpAXq6mo,Garden City School of Music and Worship,13.028995513916016,77.63249206542969,0x3bae173da35eeb89:0x6aeaea05a464373d,N_A,N_A,1,5.0,https://www.google.com/maps/place/?q=place_id:ChIJieteoz0XrjsRPTdkpAXq6mo,gmaps_v2,school,education,N_A,1687847039
ChIJgXIW2yMYrjsR_a2i875eh1o,Mind and Brain Hospital,13.058987617492676,77.58164978027344,0x3bae1823db167281:0x5a875ebef3a2adfd,N_A,N_A,110,4.199999809265137,https://www.google.com/maps/place/?q=place_id:ChIJgXIW2yMYrjsR_a2i875eh1o,gmaps_v2,clinic,medical,N_A,1695212099
ChIJVVVVxXcXrjsRKQZsn1Dy9Oc,Karnataka State Muslim Federation,13.044880867004395,77.60850524902344,0x3bae1777c5555555:0xe7f4f2509f6c0629,N_A,N_A,1,3.0,https://www.google.com/maps/place/?q=place_id:ChIJVVVVxXcXrjsRKQZsn1Dy9Oc,gmaps_v2,college,education,N_A,1687847039
ChIJZ3OFCAEXrjsRM4FPRRgFQts,Shree Venkateshwara Stores,13.058127403259277,77.6070785522461,0x3bae170108857367:0xdb420518454f8133,N_A,N_A,7,5.0,https://www.google.com/maps/place/?q=place_id:ChIJZ3OFCAEXrjsRM4FPRRgFQts,gmaps_v2,grocery_store,retail,N_A,1687847039
ChIJyXq3jiEYrjsRTtLMoJ99efY,Mahadev fashion,13.062788963317871,77.58660125732422,0x3bae18218eb77ac9:0xf6797d9fa0ccd24e,N_A,N_A,55,4.300000190734863,https://www.google.com/maps/place/?q=place_id:ChIJyXq3jiEYrjsRTtLMoJ99efY,gmaps_v2,clothing_store,retail,N_A,1687847039
ChIJN3VXcqcXrjsRS9YWLROiBeo,Dazzle Collection,13.034428596496582,77.60458374023438,0x3bae17a772577537:0xea05a2132d16d64b,N_A,N_A,0,0.0,https://www.google.com/maps/place/?q=place_id:ChIJN3VXcqcXrjsRS9YWLROiBeo,gmaps_v2,clothing_store,retail,N_A,1687847039
ChIJ3_p7ZXkXrjsRviCal3EtjBw,The Yoga Dharma,13.038375854492188,77.63219451904297,0x3bae1779657bfadf:0x1c8c2d71979a20be,N_A,N_A,1,5.0,https://www.google.com/maps/place/?q=place_id:ChIJ3_p7ZXkXrjsRviCal3EtjBw,gmaps_v2,gym_fitness,leisure,N_A,1687847039
ChIJq84iHogXrjsRZBgOhaJZD9A,Lakshmi Venkateshwara PG,13.037593841552734,77.62197875976562,0x3bae17881e22ceab:0xd00f59a2850e1864,N_A,N_A,4,4.5,https://www.google.com/maps/place/?q=place_id:ChIJq84iHogXrjsRZBgOhaJZD9A,gmaps_v2,college,education,N_A,1687847039
ChIJp29_dncZrjsRy_rlo4Y6P1A,Insta mart,13.08288860321045,77.59497833251953,0x3bae1977767f6fa7:0x503f3a86a3e5facb,N_A,N_A,4,4.0,https://www.google.com/maps/place/?q=place_id:ChIJp29_dncZrjsRy_rlo4Y6P1A,gmaps_v2,pet_care,service,N_A,1695212099
ChIJAzGPptoZrjsR41iswT_-Kaw,Shiva Kumar TM,13.095499038696289,77.6192855834961,0x3bae19daa68f3103:0xac29fe3fc1ac58e3,N_A,N_A,2,5.0,https://www.google.com/maps/place/?q=place_id:ChIJAzGPptoZrjsR41iswT_-Kaw,gmaps_v2,home_decor,retail,N_A,1695212099
ChIJq2S0dKUXrjsRXa8oLfQWHC8,Arsh Bridal Creations,13.033303260803223,77.62535095214844,0x3bae17a574b464ab:0x2f1c16f42d28af5d,N_A,N_A,25,4.900000095367432,https://www.google.com/maps/place/?q=place_id:ChIJq2S0dKUXrjsRXa8oLfQWHC8,gmaps_v2,clothing_store,retail,N_A,1687847039
ChIJqRMps6gZrjsRP6n0VMd1aj4,Mobile cafe,13.067944526672363,77.63156127929688,0x3bae19a8b32913a9:0x3e6a75c754f4a93f,N_A,N_A,4,4.5,https://www.google.com/maps/place/?q=place_id:ChIJqRMps6gZrjsRP6n0VMd1aj4,gmaps_v2,coffee_shop,food,N_A,1687847039
ChIJIYYs9i0ZrjsRddGaR-_xWv0,Occhio Sicuro - Opticals Thanisandra,13.09243392944336,77.63607788085938,0x3bae192df62c8621:0xfd5af1ef479ad175,N_A,N_A,6,4.800000190734863,https://www.google.com/maps/place/?q=place_id:ChIJIYYs9i0ZrjsRddGaR-_xWv0,gmaps_v2,clothing_store,retail,N_A,1687847039
ChIJkwbaBA0ZrjsRe4igoy6RWE4,A M S Divine Mens Salon,13.064535140991211,77.64849853515625,0x3bae190d04da0693:0x4e58912ea3a0887b,N_A,N_A,0,0.0,https://www.google.com/maps/place/?q=place_id:ChIJkwbaBA0ZrjsRe4igoy6RWE4,gmaps_v2,salon,service,N_A,1699615207
ChIJg3Syu0sZrjsRhfwBMqhmh04,Mangalore Fish Point,13.066085815429688,77.58109283447266,0x3bae194bbbb27483:0x4e8766a83201fc85,N_A,N_A,245,4.400000095367432,https://www.google.com/maps/place/?q=place_id:ChIJg3Syu0sZrjsRhfwBMqhmh04,gmaps_v2,restaurant,food,N_A,1699615207
ChIJ65oyRX4XrjsRD3lcUhJj2AY,Take It Easy,13.056343078613281,77.61149597167969,0x3bae177e45329aeb:0x6d86312525c790f,N_A,N_A,1,5.0,https://www.google.com/maps/place/?q=place_id:ChIJ65oyRX4XrjsRD3lcUhJj2AY,gmaps_v2,grocery_store,retail,N_A,1687847039
ChIJ7ZYsk5QXrjsRoDQUaA2uFAk,One cup vimal,13.0388822555542,77.60568237304688,0x3bae1794932c96ed:0x914ae0d681434a0,N_A,N_A,0,0.0,https://www.google.com/maps/place/?q=place_id:ChIJ7ZYsk5QXrjsRoDQUaA2uFAk,gmaps_v2,coffee_shop,food,N_A,1687847039
ChIJr1K0hugZrjsRqv8yCkWMghQ,Elahi Tailors,13.071213722229004,77.63382720947266,0x3bae19e886b452af:0x14828c450a32ffaa,N_A,N_A,4,4.0,https://www.google.com/maps/place/?q=place_id:ChIJr1K0hugZrjsRqv8yCkWMghQ,gmaps_v2,clothing_store,retail,N_A,1687847039
ChIJc5fWhxUXrjsRUiQSldQ5UTI,Lee's Cluster Preschool and Day care at Hennur,13.040495872497559,77.63778686523438,0x3bae171587d69773:0x325139d495122452,N_A,N_A,4,5.0,https://www.google.com/maps/place/?q=place_id:ChIJc5fWhxUXrjsRUiQSldQ5UTI,gmaps_v2,school,education,N_A,1687847039
ChIJw0ElhWoZrjsR_D0S6RxbWxg,Dr. Kavitha‚Äôs Dental Clinic,13.078263282775879,77.59262084960938,0x3bae196a852541c3:0x185b5b1ce9123dfc,N_A,N_A,51,5.0,https://www.google.com/maps/place/?q=place_id:ChIJw0ElhWoZrjsR_D0S6RxbWxg,gmaps_v2,clinic,medical,N_A,1695212099
ChIJ04m3HfwYrjsRMny99rCy6yk,SRI CHAMUNDI STEELS,13.10906982421875,77.60307312011719,0x3bae18fc1db789d3:0x29ebb2b0f6bd7c32,N_A,N_A,0,0.0,https://www.google.com/maps/place/?q=place_id:ChIJ04m3HfwYrjsRMny99rCy6yk,gmaps_v2,home_decor,retail,N_A,1695212099
ChIJwRw_x0MZrjsRRqp-YYYD0JY,MARUTHI BAR AND RESTAURANT,13.06017780303955,77.59945678710938,0x3bae1943c73f1cc1:0x96d00386617eaa46,N_A,N_A,0,0.0,https://www.google.com/maps/place/?q=place_id:ChIJwRw_x0MZrjsRRqp-YYYD0JY,gmaps_v2,bar_pub,food,N_A,1687847039
ChIJRezRTfgZrjsRyrr8RH10s0o,conditionsapply,13.06665325164795,77.64730072021484,0x3bae19f84dd1ec45:0x4ab3747d44fcbaca,N_A,N_A,29,4.199999809265137,https://www.google.com/maps/place/?q=place_id:ChIJRezRTfgZrjsRyrr8RH10s0o,gmaps_v2,hospital,medical,N_A,1687847039
ChIJca3D-pMXrjsRVKamIGdwEu8,Karnataka Tea Stall,13.041973114013672,77.59028625488281,0x3bae1793fac3ad71:0xef12706720a6a654,N_A,N_A,20,4.199999809265137,https://www.google.com/maps/place/?q=place_id:ChIJca3D-pMXrjsRVKamIGdwEu8,gmaps_v2,coffee_shop,food,N_A,1687847039
ChIJW49uZbcXrjsRLlv1gE-hZMA,Roti Ghar (Uttara Karnataka Cuisine),13.049043655395508,77.59710693359375,0x3bae17b7656e8f5b:0xc064a14f80f55b2e,N_A,N_A,6,3.799999952316284,https://www.google.com/maps/place/?q=place_id:ChIJW49uZbcXrjsRLlv1gE-hZMA,gmaps_v2,restaurant,food,N_A,1699615207
ChIJ8cc4TDgXrjsRntvOtZt6VLU,Bakers Point,13.05556869506836,77.60558319091797,0x3bae17384c38c7f1:0xb5547a9bb5cedb9e,N_A,N_A,2,4.5,https://www.google.com/maps/place/?q=place_id:ChIJ8cc4TDgXrjsRntvOtZt6VLU,gmaps_v2,coffee_shop,food,N_A,1687847039
ChIJmWwL3y4XrjsRC95FNfhzPiY,KETECH,13.058418273925781,77.60974884033203,0x3bae172edf0b6c99:0x263e73f83545de0b,N_A,N_A,12,4.699999809265137,https://www.google.com/maps/place/?q=place_id:ChIJmWwL3y4XrjsRC95FNfhzPiY,gmaps_v2,electronic_store,retail,N_A,1695212099
ChIJqV7CDy4YrjsRU3frRHQU4Wg,Vg trendz,13.069087028503418,77.60155487060547,0x3bae182e0fc25ea9:0x68e1147444eb7753,N_A,N_A,176,4.699999809265137,https://www.google.com/maps/place/?q=place_id:ChIJqV7CDy4YrjsRU3frRHQU4Wg,gmaps_v2,salon,service,N_A,1699615207
ChIJ0UQ9p7IXrjsRj28V4bPkbH0,Purushi Digital Tech,13.026073455810547,77.63155364990234,0x3bae17b2a73d44d1:0x7d6ce4b3e1156f8f,N_A,N_A,1,5.0,https://www.google.com/maps/place/?q=place_id:ChIJ0UQ9p7IXrjsRj28V4bPkbH0,gmaps_v2,shoe_store,retail,N_A,1687847039
ChIJvW2ydzoYrjsRZAoYeC7T3vQ,Sri Manjunatha Traders,13.06861400604248,77.60416412353516,0x3bae183a77b26dbd:0xf4ded32e78180a64,N_A,N_A,88,4.400000095367432,https://www.google.com/maps/place/?q=place_id:ChIJvW2ydzoYrjsRZAoYeC7T3vQ,gmaps_v2,electronic_store,retail,N_A,1695212099
ChIJq2sEyv4XrjsRDBDJVJoXUgg,"Cult Kalyan Nagar - Gyms in Hrbr Layout 3rd Block, Kalyan Nagar, Bangalore",13.026867866516113,77.6337661743164,0x3bae17feca046bab:0x852179a54c9100c,cult,Cult.fit,498,4.5,https://www.google.com/maps/place/?q=place_id:ChIJq2sEyv4XrjsRDBDJVJoXUgg,gmaps_v2,gym_fitness,leisure,N_A,1687847039
ChIJWcZJZJMZrjsRukUYarrJeFA,Orbit kids world,13.066682815551758,77.60086822509766,0x3bae19936449c659:0x5078c9ba6a1845ba,N_A,N_A,2,5.0,https://www.google.com/maps/place/?q=place_id:ChIJWcZJZJMZrjsRukUYarrJeFA,gmaps_v2,clothing_store,retail,N_A,1687847039
ChIJmQLy3jYZrjsRpa_OgdZfVTg,Hijabis World,13.070749282836914,77.63327026367188,0x3bae1936def20299:0x38555fd681ceafa5,N_A,N_A,18,4.699999809265137,https://www.google.com/maps/place/?q=place_id:ChIJmQLy3jYZrjsRpa_OgdZfVTg,gmaps_v2,clothing_store,retail,N_A,1687847039
ChIJPQ6rVvgZrjsRcTz75TTjYzo,Ithiksha's Salon & Spa,13.085981369018555,77.62361907958984,0x3bae19f856ab0e3d:0x3a63e334e5fb3c71,N_A,N_A,26,5.0,https://www.google.com/maps/place/?q=place_id:ChIJPQ6rVvgZrjsRcTz75TTjYzo,gmaps_v2,salon,service,N_A,1695212099
ChIJVa7Yd-0ZrjsR30qrJUhzqoA,Syed IT Solutions,13.071555137634277,77.63360595703125,0x3bae19ed77d8ae55:0x80aa734825ab4adf,N_A,N_A,114,4.5,https://www.google.com/maps/place/?q=place_id:ChIJVa7Yd-0ZrjsR30qrJUhzqoA,gmaps_v2,electronic_store,retail,N_A,1695212099
ChIJnU5JZX8ZrjsRAn6AJcYeRZg,BOCO Womens Wear,13.063398361206055,77.59148406982422,0x3bae197f65494e9d:0x98451ec625807e02,N_A,N_A,0,0.0,https://www.google.com/maps/place/?q=place_id:ChIJnU5JZX8ZrjsRAn6AJcYeRZg,gmaps_v2,clothing_store,retail,N_A,1687847039
ChIJC72-cVsYrjsRfrB7KA5m-K4,Anganvadi Candram,13.093914031982422,77.5916519165039,0x3bae185b71bebd0b:0xaef8660e287bb07e,N_A,N_A,0,0.0,https://www.google.com/maps/place/?q=place_id:ChIJC72-cVsYrjsRfrB7KA5m-K4,gmaps_v2,school,education,N_A,1687847039
ChIJ-9wTt60ZrjsRyqd6su5YgVg,M.N SEA FOODS,13.08039379119873,77.63421630859375,0x3bae19adb713dcfb:0x588158eeb27aa7ca,N_A,N_A,0,0.0,https://www.google.com/maps/place/?q=place_id:ChIJ-9wTt60ZrjsRyqd6su5YgVg,gmaps_v2,grocery_store,retail,N_A,1687847039
ChIJTX8HsScXrjsRUC8P1v8OSTM,"Chianti, Hebbal",13.055364608764648,77.59385681152344,0x3bae1727b1077f4d:0x33490effd60f2f50,N_A,N_A,270,4.400000095367432,https://www.google.com/maps/place/?q=place_id:ChIJTX8HsScXrjsRUC8P1v8OSTM,gmaps_v2,restaurant,food,N_A,1699615207
ChIJQe4terUXrjsReSddiODcJhk,Ayu Health Hospital - Department of Gynaecology,13.026748657226562,77.63935852050781,0x3bae17b57a2dee41:0x1926dce0885d2779,ayu,Ayu health,3,4.699999809265137,https://www.google.com/maps/place/?q=place_id:ChIJQe4terUXrjsReSddiODcJhk,gmaps_v2,hospital,medical,N_A,1687847039
ChIJuVcAR74XrjsR3xmhd_cWeYI,Food County,13.057918548583984,77.64300537109375,0x3bae17be470057b9:0x827916f777a119df,N_A,N_A,0,0.0,https://www.google.com/maps/place/?q=place_id:ChIJuVcAR74XrjsR3xmhd_cWeYI,gmaps_v2,coffee_shop,food,N_A,1687847039
ChIJZ6Bvb34XrjsR-7RujhyQ-b8,Al Sahara Men's Saloon,13.035179138183594,77.62096405029297,0x3bae177e6f6fa067:0xbff9901c8e6eb4fb,N_A,N_A,0,0.0,https://www.google.com/maps/place/?q=place_id:ChIJZ6Bvb34XrjsR-7RujhyQ-b8,gmaps_v2,salon,service,N_A,1699615207
ChIJnToot6wZrjsR8XRNSucHoTk,Wok Shop,13.094308853149414,77.5949478149414,0x3bae19acb7283a9d:0x39a107e74a4d74f1,N_A,N_A,1,2.0,https://www.google.com/maps/place/?q=place_id:ChIJnToot6wZrjsR8XRNSucHoTk,gmaps_v2,restaurant,food,N_A,1699615207
ChIJ1bgVhMUZrjsRUS4BtNNaRrU,Pan Shop,13.071584701538086,77.60790252685547,0x3bae19c58415b8d5:0xb5465ad3b4012e51,N_A,N_A,0,0.0,https://www.google.com/maps/place/?q=place_id:ChIJ1bgVhMUZrjsRUS4BtNNaRrU,gmaps_v2,coffee_shop,food,N_A,1687847039
ChIJ06oKoQ0XrjsRW9e_jHfYcoI,Mupu's Cafe,13.047890663146973,77.5963363647461,0x3bae170da10aaad3:0x8272d8778cbfd75b,N_A,N_A,13,4.800000190734863,https://www.google.com/maps/place/?q=place_id:ChIJ06oKoQ0XrjsRW9e_jHfYcoI,gmaps_v2,coffee_shop,food,N_A,1687847039
ChIJYSjZoqwZrjsRpqx-atVdEr8,Mathrushree Provision Store -Prabhakar,13.073424339294434,77.6376953125,0x3bae19aca2d92861:0xbf125dd56a7eaca6,N_A,N_A,2,4.5,https://www.google.com/maps/place/?q=place_id:ChIJYSjZoqwZrjsRpqx-atVdEr8,gmaps_v2,supermarket,retail,N_A,1699615207
ChIJFZ9NbvwZrjsRp1J0n0X9dr8,cafe devangni,13.065817832946777,77.64431762695312,0x3bae19fc6e4d9f15:0xbf76fd459f7452a7,N_A,N_A,32,3.700000047683716,https://www.google.com/maps/place/?q=place_id:ChIJFZ9NbvwZrjsRp1J0n0X9dr8,gmaps_v2,coffee_shop,food,N_A,1687847039
ChIJibp5Q3UXrjsRaXN6JoJfj5I,Zistore electronics & more,13.03097915649414,77.61097717285156,0x3bae17754379ba89:0x928f5f82267a7369,N_A,N_A,2,5.0,https://www.google.com/maps/place/?q=place_id:ChIJibp5Q3UXrjsRaXN6JoJfj5I,gmaps_v2,electronic_store,retail,N_A,1695212099
ChIJX8M_YtEXrjsReiEyFTBWHGA,Presidency Evening College,13.05305004119873,77.612060546875,0x3bae17d1623fc35f:0x601c56301532217a,N_A,N_A,4,4.800000190734863,https://www.google.com/maps/place/?q=place_id:ChIJX8M_YtEXrjsReiEyFTBWHGA,gmaps_v2,college,education,N_A,1687847039
ChIJRebJBIQXrjsRnAU7iql0Urs,Spurthi Clinic,13.05178451538086,77.60135650634766,0x3bae178404c9e645:0xbb5274a98a3b059c,N_A,N_A,9,4.900000095367432,https://www.google.com/maps/place/?q=place_id:ChIJRebJBIQXrjsRnAU7iql0Urs,gmaps_v2,clinic,medical,N_A,1687847039
ChIJh2DosBkYrjsRX7-ybTMlULY,Brahmin's Kitchen,13.06760311126709,77.58326721191406,0x3bae1819b0e86087:0xb65025336db2bf5f,N_A,N_A,5276,4.0,https://www.google.com/maps/place/?q=place_id:ChIJh2DosBkYrjsRX7-ybTMlULY,gmaps_v2,restaurant,food,N_A,1687847039
ChIJ6bFi7jwXrjsRbZ-qJD382qU,Zuari Furniture,13.027587890625,77.63459014892578,0x3bae173cee62b1e9:0xa5dafc3d24aa9f6d,N_A,N_A,0,0.0,https://www.google.com/maps/place/?q=place_id:ChIJ6bFi7jwXrjsRbZ-qJD382qU,gmaps_v2,home_decor,retail,N_A,1695212099
ChIJCzAFsMIZrjsR7ZeOWipjcOg,Raja ENGINEERING Work,13.095843315124512,77.61851501464844,0x3bae19c2b005300b:0xe870632a5a8e97ed,N_A,N_A,1,5.0,https://www.google.com/maps/place/?q=place_id:ChIJCzAFsMIZrjsR7ZeOWipjcOg,gmaps_v2,electronic_store,retail,N_A,1695212099
ChIJ91iBNHUXrjsRUwZfJjfUT0I,V2 BIZHUB,13.035890579223633,77.60960388183594,0x3bae1775348158f7:0x424fd437265f0653,N_A,N_A,1,5.0,https://www.google.com/maps/place/?q=place_id:ChIJ91iBNHUXrjsRUwZfJjfUT0I,gmaps_v2,electronic_store,retail,N_A,1695212099
ChIJ11dnVY4XrjsRiuSuIElYWpY,Nikhaar,13.049050331115723,77.59333038330078,0x3bae178e556757d7:0x965a584920aee48a,nikhaar,nikhaar,0,0.0,https://www.google.com/maps/place/?q=place_id:ChIJ11dnVY4XrjsRiuSuIElYWpY,gmaps_v2,jewelry_store,retail,N_A,1687847039
ChIJGZWznhwXrjsRBtU3jTzmAH0,Navya Hospital,13.05246353149414,77.61207580566406,0x3bae171c9eb39519:0x7d00e63c8d37d506,N_A,N_A,17,3.0999999046325684,https://www.google.com/maps/place/?q=place_id:ChIJGZWznhwXrjsRBtU3jTzmAH0,gmaps_v2,hospital,medical,N_A,1687847039
ChIJy5FoHNIXrjsRPAyuuVKYJK0,ANDROID GYM,13.03601360321045,77.6234130859375,0x3bae17d21c6891cb:0xad249852b9ae0c3c,N_A,N_A,128,4.400000095367432,https://www.google.com/maps/place/?q=place_id:ChIJy5FoHNIXrjsRPAyuuVKYJK0,gmaps_v2,gym_fitness,leisure,N_A,1687847039
ChIJSTj1s6EXrjsR0KUedi0U_Ks,Sagam Jewellery,13.033740043640137,77.60472869873047,0x3bae17a1b3f53849:0xabfc142d761ea5d0,N_A,N_A,1,5.0,https://www.google.com/maps/place/?q=place_id:ChIJSTj1s6EXrjsR0KUedi0U_Ks,gmaps_v2,jewelry_store,retail,N_A,1687847039
ChIJKYGH2xUZrjsRHSrGWrPt_-Y,Rajdhani Donne Biriyani Katte,13.088876724243164,77.63388061523438,0x3bae1915db878129:0xe6ffedb35ac62a1d,N_A,N_A,31,4.5,https://www.google.com/maps/place/?q=place_id:ChIJKYGH2xUZrjsRHSrGWrPt_-Y,gmaps_v2,restaurant,food,N_A,1699615207
ChIJZ_YmqnMZrjsRx6DFjChVsY4,Vishwakarma Plywood Trading Company,13.070804595947266,77.63359069824219,0x3bae1973aa26f667:0x8eb155288cc5a0c7,N_A,N_A,0,0.0,https://www.google.com/maps/place/?q=place_id:ChIJZ_YmqnMZrjsRx6DFjChVsY4,gmaps_v2,home_decor,retail,N_A,1695212099
ChIJVXaa-Q4ZrjsRkbnegRwy0oQ,Saanvi Jewels,13.062355041503906,77.58718872070312,0x3bae190ef99a7655:0x84d2321c81deb991,N_A,N_A,0,0.0,https://www.google.com/maps/place/?q=place_id:ChIJVXaa-Q4ZrjsRkbnegRwy0oQ,gmaps_v2,jewelry_store,retail,N_A,1687847039
ChIJ7RURGCIYrjsRirAmxU-fdmw,St Martin's School,13.06348705291748,77.58627319335938,0x3bae1822181115ed:0x6c769f4fc526b08a,N_A,N_A,0,0.0,https://www.google.com/maps/place/?q=place_id:ChIJ7RURGCIYrjsRirAmxU-fdmw,gmaps_v2,school,education,N_A,1687847039
ChIJhWnPfJ0XrjsRuxoIjdd8sgM,Regal,13.055907249450684,77.63250732421875,0x3bae179d7ccf6985:0x3b27cd78d081abb,N_A,N_A,0,0.0,https://www.google.com/maps/place/?q=place_id:ChIJhWnPfJ0XrjsRuxoIjdd8sgM,gmaps_v2,hospital,medical,N_A,1687847039
ChIJTU8lfrEXrjsRsx43F7Nocsc,Laziz Marking,13.051345825195312,77.62764739990234,0x3bae17b17e254f4d:0xc77268b317371eb3,N_A,N_A,0,0.0,https://www.google.com/maps/place/?q=place_id:ChIJTU8lfrEXrjsRsx43F7Nocsc,gmaps_v2,restaurant,food,N_A,1687847039
ChIJs66FU7AZrjsR7UqdNn5ofX4,Rakesh Juise Shop,13.098224639892578,77.59056854248047,0x3bae19b05385aeb3:0x7e7d687e369d4aed,N_A,N_A,0,0.0,https://www.google.com/maps/place/?q=place_id:ChIJs66FU7AZrjsR7UqdNn5ofX4,gmaps_v2,grocery_store,retail,N_A,1687847039
ChIJQxjnMhAXrjsRqsouCCIte9g,AR FASHION DESIGNER BOUTIQUE,13.051873207092285,77.6013412475586,0x3bae171032e71843:0xd87b2d22082ecaaa,N_A,N_A,11,4.800000190734863,https://www.google.com/maps/place/?q=place_id:ChIJQxjnMhAXrjsRqsouCCIte9g,gmaps_v2,clothing_store,retail,N_A,1687847039
ChIJAxefRNwZrjsRBRXIToUf7qM,Hyder Tailors,13.072441101074219,77.63278198242188,0x3bae19dc449f1703:0xa3ee1f854ec81505,N_A,N_A,2,5.0,https://www.google.com/maps/place/?q=place_id:ChIJAxefRNwZrjsRBRXIToUf7qM,gmaps_v2,clothing_store,retail,N_A,1687847039
ChIJbzs5okIXrjsRcVktAlTYURU,‡≤∂‡≥ç‡≤∞‡≥Ä ‡≤ï‡≤æ‡≤≥‡≤ø‡≤ï‡≤æ‡≤Ç‡≤¨ ‡≤∏‡≥ç‡≤®‡≥ç‡≤Ø‡≤æ‡≤ï‡≥ç‡≤∏‡≥ç Sri Kalikaamba Snacks Stall,13.046791076660156,77.63116455078125,0x3bae1742a2393b6f:0x1551d854022d5971,N_A,N_A,4,4.800000190734863,https://www.google.com/maps/place/?q=place_id:ChIJbzs5okIXrjsRcVktAlTYURU,gmaps_v2,restaurant,food,N_A,1699615207
ChIJM9OwSbgXrjsR5_oEIXmjpzQ,Unilet Appliances Pvt Ltd,13.033740997314453,77.60441589355469,0x3bae17b849b0d333:0x34a7a3792104fae7,N_A,N_A,6,5.0,https://www.google.com/maps/place/?q=place_id:ChIJM9OwSbgXrjsR5_oEIXmjpzQ,gmaps_v2,electronic_store,retail,N_A,1695212099
ChIJNffKEL4ZrjsRh9z7-Y9Bizk,Snoopy Pets at Home,13.060562133789062,77.59678649902344,0x3bae19be10caf735:0x398b418ff9fbdc87,N_A,N_A,19,4.800000190734863,https://www.google.com/maps/place/?q=place_id:ChIJNffKEL4ZrjsRh9z7-Y9Bizk,gmaps_v2,animal,service,N_A,1700469324
ChIJx0o3l-QZrjsRaumWdFYsgzw,PAVAN HARDWARE AND ELECTRICALS,13.066675186157227,77.63984680175781,0x3bae19e497374ac7:0x3c832c567496e96a,N_A,N_A,1,5.0,https://www.google.com/maps/place/?q=place_id:ChIJx0o3l-QZrjsRaumWdFYsgzw,gmaps_v2,electronic_store,retail,N_A,1695212099
ChIJJ7tJkZ8XrjsRxUsmj_x1_q0,Dolphin Refrigeration,13.036609649658203,77.60591888427734,0x3bae179f9149bb27:0xadfe75fc8f264bc5,N_A,N_A,0,0.0,https://www.google.com/maps/place/?q=place_id:ChIJJ7tJkZ8XrjsRxUsmj_x1_q0,gmaps_v2,home_decor,retail,N_A,1695212099
ChIJgUEWdwIZrjsRxi019UvOV-A,Global Institute of Fine Arts,13.066737174987793,77.62947845458984,0x3bae190277164181:0xe057ce4bf5352dc6,N_A,N_A,1,5.0,https://www.google.com/maps/place/?q=place_id:ChIJgUEWdwIZrjsRxi019UvOV-A,gmaps_v2,school,education,N_A,1687847039
ChIJIfrNTNYXrjsRsvdn0m9sIJg,MedPlus,13.053033828735352,77.60415649414062,0x3bae17d64ccdfa21:0x98206c6fd267f7b2,N_A,N_A,2,4.0,https://www.google.com/maps/place/?q=place_id:ChIJIfrNTNYXrjsRsvdn0m9sIJg,gmaps_v2,pharmacy,medical,N_A,1687847039
ChIJi6FgVY4XrjsRlpLUA0n5gH4,Planet M,13.049050331115723,77.59333038330078,0x3bae178e5560a18b:0x7e80f94903d49296,N_A,N_A,0,0.0,https://www.google.com/maps/place/?q=place_id:ChIJi6FgVY4XrjsRlpLUA0n5gH4,gmaps_v2,clothing_store,retail,N_A,1687847039
ChIJ75QAS2kXrjsRfyHYe5OIJIw,KHUBSOORAT MEN'S PARLOUR,13.04336166381836,77.6251449584961,0x3bae17694b0094ef:0x8c2488937bd8217f,N_A,N_A,13,4.0,https://www.google.com/maps/place/?q=place_id:ChIJ75QAS2kXrjsRfyHYe5OIJIw,gmaps_v2,salon,service,N_A,1699615207
ChIJh9ZCogQXrjsRXUGgUcF426E,BUYIT WHOLESALE,13.055230140686035,77.6023941040039,0x3bae1704a242d687:0xa1db78c151a0415d,N_A,N_A,0,0.0,https://www.google.com/maps/place/?q=place_id:ChIJh9ZCogQXrjsRXUGgUcF426E,gmaps_v2,grocery_store,retail,N_A,1687847039
ChIJF254RB4XrjsR_dCtT6uhPHY,Sri Krishna Bakery,13.055368423461914,77.60404968261719,0x3bae171e44786e17:0x763ca1ab4fadd0fd,N_A,N_A,6,4.199999809265137,https://www.google.com/maps/place/?q=place_id:ChIJF254RB4XrjsR_dCtT6uhPHY,gmaps_v2,coffee_shop,food,N_A,1687847039
ChIJx0jatz8XrjsR4L5CqrkKAPo,Young World International Pre School,13.034588813781738,77.63216400146484,0x3bae173fb7da48c7:0xfa000ab9aa42bee0,youngworldpreschools,Young World,19,4.599999904632568,https://www.google.com/maps/place/?q=place_id:ChIJx0jatz8XrjsR4L5CqrkKAPo,gmaps_v2,school,education,pre_school,1687847039
19596017,Baohood,13.0554432456,77.6080431417,19596017,N_A,N_A,1554,4.2,,zomato,restaurant,food,N_A,1688639100
ChIJr28NSiQYrjsRJfoTGgLE24E,Samrudhi Modular Kitchen Solution,13.064681053161621,77.59320831298828,0x3bae18244a0d6faf:0x81dbc4021a13fa25,N_A,N_A,0,0.0,https://www.google.com/maps/place/?q=place_id:ChIJr28NSiQYrjsRJfoTGgLE24E,gmaps_v2,home_decor,retail,N_A,1695212099
ChIJXWnIjk0ZrjsRq3lnUivhqy0,Raja Stich Wear,13.06612777709961,77.62010955810547,0x3bae194d8ec8695d:0x2dabe12b526779ab,N_A,N_A,1,5.0,https://www.google.com/maps/place/?q=place_id:ChIJXWnIjk0ZrjsRq3lnUivhqy0,gmaps_v2,clothing_store,retail,N_A,1687847039
ChIJQfcSsg8XrjsRXlEsMh_ih2Y,Mahanthesh Hadapad Shop,13.050576210021973,77.60909271240234,0x3bae170fb212f741:0x6687e21f322c515e,N_A,N_A,0,0.0,https://www.google.com/maps/place/?q=place_id:ChIJQfcSsg8XrjsRXlEsMh_ih2Y,gmaps_v2,shoe_store,retail,N_A,1687847039
ChIJr09nUUoXrjsRMnj6KRMLURs,Kishor Kumarsing Chavan,13.037981033325195,77.62334442138672,0x3bae174a51674faf:0x1b510b1329fa7832,N_A,N_A,0,0.0,https://www.google.com/maps/place/?q=place_id:ChIJr09nUUoXrjsRMnj6KRMLURs,gmaps_v2,grocery_store,retail,N_A,1687847039
ChIJBxu7Xo4XrjsRrlAYYbBOEYo,Bismillah Biryani Center,13.048744201660156,77.59233093261719,0x3bae178e5ebb1b07:0x8a114eb0611850ae,N_A,N_A,0,0.0,https://www.google.com/maps/place/?q=place_id:ChIJBxu7Xo4XrjsRrlAYYbBOEYo,gmaps_v2,restaurant,food,N_A,1687847039
ChIJQyhnZVEXrjsR5rle0Osq_5M,SS Trailers,13.051790237426758,77.62747192382812,0x3bae175165672843:0x93ff2aebd05eb9e6,N_A,N_A,0,0.0,https://www.google.com/maps/place/?q=place_id:ChIJQyhnZVEXrjsR5rle0Osq_5M,gmaps_v2,clothing_store,retail,N_A,1687847039
ChIJ4eklgRkZrjsRKpbQYCO2ucQ,GHPS kotihosahalli,13.05859375,77.58428955078125,0x3bae19198125e9e1:0xc4b9b62360d0962a,agastya,Agastya International Foundation,0,0.0,https://www.google.com/maps/place/?q=place_id:ChIJ4eklgRkZrjsRKpbQYCO2ucQ,gmaps_v2,school,education,N_A,1687847039
ChIJkS7bDT0XrjsR0sUls4e3Oc0,Coffee Day,13.027778625488281,77.6324462890625,0x3bae173d0ddb2e91:0xcd39b787b325c5d2,cafecoffeeday,Cafe Coffee Day,0,0.0,https://www.google.com/maps/place/?q=place_id:ChIJkS7bDT0XrjsR0sUls4e3Oc0,gmaps_v2,coffee_shop,food,N_A,1687847039
ChIJt8faXEwZrjsRIN6jBvDoRXA,Ambar Footwear,13.071868896484375,77.6326675415039,0x3bae194c5cdac7b7:0x7045e8f006a3de20,N_A,N_A,0,0.0,https://www.google.com/maps/place/?q=place_id:ChIJt8faXEwZrjsRIN6jBvDoRXA,gmaps_v2,shoe_store,retail,N_A,1687847039
ChIJHX7PslcXrjsR-CqIl2bLglg,S.daily fresh,13.037546157836914,77.60699462890625,0x3bae1757b2cf7e1d:0x5882cb6697882af8,N_A,N_A,6,5.0,https://www.google.com/maps/place/?q=place_id:ChIJHX7PslcXrjsR-CqIl2bLglg,gmaps_v2,supermarket,retail,N_A,1699615207
ChIJxfSoPAcXrjsRWxTgCUJijXI,SWI FURNITURE,13.043783187866211,77.62781524658203,0x3bae17073ca8f4c5:0x728d624209e0145b,N_A,N_A,3,5.0,https://www.google.com/maps/place/?q=place_id:ChIJxfSoPAcXrjsRWxTgCUJijXI,gmaps_v2,home_decor,retail,N_A,1695212099
ChIJM_JnzWwXrjsRr6P2DcECGRU,Gold Crown Pickles,13.03647518157959,77.62286376953125,0x3bae176ccd67f233:0x151902c10df6a3af,N_A,N_A,8,4.5,https://www.google.com/maps/place/?q=place_id:ChIJM_JnzWwXrjsRr6P2DcECGRU,gmaps_v2,home_decor,retail,N_A,1695212099
ChIJXdVjRVUXrjsRw47DnZFV2Uc,royal men's saloon,13.051386833190918,77.63355255126953,0x3bae17554563d55d:0x47d955919dc38ec3,N_A,N_A,1,4.0,https://www.google.com/maps/place/?q=place_id:ChIJXdVjRVUXrjsRw47DnZFV2Uc,gmaps_v2,salon,service,N_A,1699615207
ChIJK5HMXZEXrjsRZJT173G37Ug,Subway,13.04911994934082,77.5932846069336,0x3bae17915dcc912b:0x48edb771eff59464,N_A,N_A,64,3.700000047683716,https://www.google.com/maps/place/?q=place_id:ChIJK5HMXZEXrjsRZJT173G37Ug,gmaps_v2,restaurant,food,N_A,1699615207
ChIJFfzmlAoXrjsRI5tsiIt8vKw,Maruti Poly Clinic,13.034053802490234,77.60918426513672,0x3bae170a94e6fc15:0xacbc7c8b886c9b23,N_A,N_A,28,3.5999999046325684,https://www.google.com/maps/place/?q=place_id:ChIJFfzmlAoXrjsRI5tsiIt8vKw,gmaps_v2,clinic,medical,N_A,1695212099
ChIJl-f_piAYrjsRtC7tP_zBlBk,Shree Durga Restaurant,13.05757999420166,77.58967590332031,0x3bae1820a6ffe797:0x1994c1fc3fed2eb4,N_A,N_A,0,0.0,https://www.google.com/maps/place/?q=place_id:ChIJl-f_piAYrjsRtC7tP_zBlBk,gmaps_v2,restaurant,food,N_A,1687847039
ChIJBYttdVcYrjsRR68PGZGKZyE,Sri Mallikarjuna Electronics,13.100132942199707,77.59762573242188,0x3bae1857756d8b05:0x21678a91190faf47,N_A,N_A,0,0.0,https://www.google.com/maps/place/?q=place_id:ChIJBYttdVcYrjsRR68PGZGKZyE,gmaps_v2,electronic_store,retail,N_A,1695212099
ChIJmwcTXsIZrjsRhH44HQUjy_0,Maths Tuition Classes - Cuemath,13.082792282104492,77.62293243408203,0x3bae19c25e13079b:0xfdcb23051d387e84,cuemath,Cuemath,8,4.900000095367432,https://www.google.com/maps/place/?q=place_id:ChIJmwcTXsIZrjsRhH44HQUjy_0,gmaps_v2,tuition_center,education,N_A,1687847039
ChIJfaISG_4ZrjsRtT1ongYDuRM,Inchara Ayur Care - Ayurvedic Hospital Bangalore,13.060608863830566,77.64849090576172,0x3bae19fe1b12a27d:0x13b903069e683db5,N_A,N_A,86,4.5,https://www.google.com/maps/place/?q=place_id:ChIJfaISG_4ZrjsRtT1ongYDuRM,gmaps_v2,clinic,medical,N_A,1695212099
ChIJE1uqMOwXrjsRLCj22tz-5zs,MITTU HOUSE,13.053855895996094,77.60063171386719,0x3bae17ec30aa5b13:0x3be7fedcdaf6282c,N_A,N_A,1,5.0,https://www.google.com/maps/place/?q=place_id:ChIJE1uqMOwXrjsRLCj22tz-5zs,gmaps_v2,home_decor,retail,N_A,1695212099
ChIJz_9qCQwXrjsR7syu3uraADM,DR.HARSHITHA DEVAGIRKAR,13.031274795532227,77.61377716064453,0x3bae170c096affcf:0x3300daeadeaeccee,N_A,N_A,0,0.0,https://www.google.com/maps/place/?q=place_id:ChIJz_9qCQwXrjsR7syu3uraADM,gmaps_v2,hospital,medical,N_A,1687847039
ChIJK3q9gT8XrjsRlT7w2qu1-Mc,Salauddin,13.038291931152344,77.62329864501953,0x3bae173f81bd7a2b:0xc7f8b5abdaf03e95,N_A,N_A,0,0.0,https://www.google.com/maps/place/?q=place_id:ChIJK3q9gT8XrjsRlT7w2qu1-Mc,gmaps_v2,grocery_store,retail,N_A,1687847039
ChIJS9a31SQZrjsRsFcwfzft-jE,Lakme Salon,13.072488784790039,77.6053237915039,0x3bae1924d5b7d64b:0x31faed377f3057b0,lakmesalon,Lakme Salon,100,4.900000095367432,https://www.google.com/maps/place/?q=place_id:ChIJS9a31SQZrjsRsFcwfzft-jE,gmaps_v2,salon,service,N_A,1699615207
ChIJX51kBl8XrjsRF_vB2-t3vvM,Nagvar,13.051603317260742,77.63099670410156,0x3bae175f06649d5f:0xf3be77ebdbc1fb17,N_A,N_A,0,0.0,https://www.google.com/maps/place/?q=place_id:ChIJX51kBl8XrjsRF_vB2-t3vvM,gmaps_v2,college,education,N_A,1687847039
ChIJvbRBskoSrjsRWydGMv69vdE,Rolls On Wheels,13.027778625488281,77.6324462890625,0x3bae124ab241b4bd:0xd1bdbdfe3246275b,N_A,N_A,0,0.0,https://www.google.com/maps/place/?q=place_id:ChIJvbRBskoSrjsRWydGMv69vdE,gmaps_v2,restaurant,food,N_A,1687847039
ChIJi3AJ7mwXrjsR1wuzHY6jPF0,Ganesh clinic,13.038456916809082,77.6231689453125,0x3bae176cee09708b:0x5d3ca38e1db30bd7,N_A,N_A,2,5.0,https://www.google.com/maps/place/?q=place_id:ChIJi3AJ7mwXrjsR1wuzHY6jPF0,gmaps_v2,hospital,medical,N_A,1687847039
ChIJf7-t_1wXrjsR4xNUk2ewvuc,A.M.A Sweet Water Supply,13.05087947845459,77.63374328613281,0x3bae175cffadbf7f:0xe7beb067935413e3,N_A,N_A,11,3.5,https://www.google.com/maps/place/?q=place_id:ChIJf7-t_1wXrjsR4xNUk2ewvuc,gmaps_v2,shoe_store,retail,N_A,1687847039
ChIJJyocoAQZrjsRuOKv6n6cCOE,BCFC Football Coaching,13.067889213562012,77.64654541015625,0x3bae1904a01c2a27:0xe1089c7eeaafe2b8,N_A,N_A,7,5.0,https://www.google.com/maps/place/?q=place_id:ChIJJyocoAQZrjsRuOKv6n6cCOE,gmaps_v2,school,education,N_A,1687847039
ChIJReIuO6sZrjsRS3K2gLlaOPM,R K.CORNER,13.069014549255371,77.62469482421875,0x3bae19ab3b2ee245:0xf3385ab980b6724b,N_A,N_A,0,0.0,https://www.google.com/maps/place/?q=place_id:ChIJReIuO6sZrjsRS3K2gLlaOPM,gmaps_v2,hospital,medical,N_A,1687847039
ChIJ4z6T4zEXrjsR4A1ZMPqp4ws,Sri Devi Juice and Condiments,13.037736892700195,77.62738800048828,0x3bae1731e3933ee3:0xbe3a9fa30590de0,N_A,N_A,0,0.0,https://www.google.com/maps/place/?q=place_id:ChIJ4z6T4zEXrjsR4A1ZMPqp4ws,gmaps_v2,coffee_shop,food,N_A,1687847039
ChIJQ5gSSbgZrjsR-hgG7UDNdbc,Arivu School of Yoga,13.062643051147461,77.60926818847656,0x3bae19b849129843:0xb775cd40ed0618fa,N_A,N_A,55,5.0,https://www.google.com/maps/place/?q=place_id:ChIJQ5gSSbgZrjsR-hgG7UDNdbc,gmaps_v2,gym_fitness,leisure,N_A,1687847039
ChIJ96vyWz4XrjsRxZFwm3dCuwY,Hotel Nithya Refreshment,13.03304386138916,77.63312530517578,0x3bae173e5bf2abf7:0x6bb42779b7091c5,N_A,N_A,13,3.9000000953674316,https://www.google.com/maps/place/?q=place_id:ChIJ96vyWz4XrjsRxZFwm3dCuwY,gmaps_v2,restaurant,food,N_A,1699615207
ChIJy3od6ecZrjsRuA9RMSSB_IU,Thanisandra Government Hospital,13.069748878479004,77.6319351196289,0x3bae19e7e91d7acb:0x85fc812431510fb8,N_A,N_A,12,3.5999999046325684,https://www.google.com/maps/place/?q=place_id:ChIJy3od6ecZrjsRuA9RMSSB_IU,gmaps_v2,clinic,medical,N_A,1695212099
ChIJY6k3wWwXrjsRxlTNColyaOs,Venus Medicals,13.037442207336426,77.62323760986328,0x3bae176cc137a963:0xeb6872890acd54c6,N_A,N_A,0,0.0,https://www.google.com/maps/place/?q=place_id:ChIJY6k3wWwXrjsRxlTNColyaOs,gmaps_v2,pharmacy,medical,N_A,1687847039
ChIJ96JDJboXrjsRUaYZ2vVg8m4,M N Enterprises,13.026687622070312,77.63107299804688,0x3bae17ba2543a2f7:0x6ef260f5da19a651,N_A,N_A,0,0.0,https://www.google.com/maps/place/?q=place_id:ChIJ96JDJboXrjsRUaYZ2vVg8m4,gmaps_v2,grocery_store,retail,N_A,1687847039
ChIJYR81WrEZrjsRUFt5aH0ocLg,Smile Rehab The Dental and Face Clinic,13.06187629699707,77.58654022216797,0x3bae19b15a351f61:0xb870287d68795b50,N_A,N_A,8,5.0,https://www.google.com/maps/place/?q=place_id:ChIJYR81WrEZrjsRUFt5aH0ocLg,gmaps_v2,clinic,medical,N_A,1687847039
ChIJK8JNzwMZrjsRE6yKOnnLOcQ,Lamp Educational and Charitable Trust,13.070381164550781,77.63037872314453,0x3bae1903cf4dc22b:0xc439cb793a8aac13,N_A,N_A,0,0.0,https://www.google.com/maps/place/?q=place_id:ChIJK8JNzwMZrjsRE6yKOnnLOcQ,gmaps_v2,school,education,N_A,1687847039
ChIJkSxsJlAZrjsRSpgMLK_KMIw,Mary Matha Hot & Cool Bar,13.088945388793945,77.6349868774414,0x3bae1950266c2c91:0x8c30caaf2c0c984a,N_A,N_A,4,1.5,https://www.google.com/maps/place/?q=place_id:ChIJkSxsJlAZrjsRSpgMLK_KMIw,gmaps_v2,bar_pub,food,N_A,1687847039
ChIJ13UcU-8ZrjsRSHgIpN1-z9s,Aliya Fashion Trends,13.071486473083496,77.63655090332031,0x3bae19ef531c75d7:0xdbcf7edda4087848,N_A,N_A,0,0.0,https://www.google.com/maps/place/?q=place_id:ChIJ13UcU-8ZrjsRSHgIpN1-z9s,gmaps_v2,clothing_store,retail,N_A,1687847039
ChIJERCwsVcYrjsRG027UmQz060,Sri Om Shakthi Book Center,13.097119331359863,77.595703125,0x3bae1857b1b01011:0xadd3336452bb4d1b,N_A,N_A,186,4.199999809265137,https://www.google.com/maps/place/?q=place_id:ChIJERCwsVcYrjsRG027UmQz060,gmaps_v2,clinic,medical,N_A,1695212099
ChIJwRzjH8gZrjsR4XdvY3FRkOI,SRI CHOWDESWARIDEVI TIMBER AND PLYWOOD,13.0671968460083,77.60784912109375,0x3bae19c81fe31cc1:0xe2905171636f77e1,N_A,N_A,0,0.0,https://www.google.com/maps/place/?q=place_id:ChIJwRzjH8gZrjsR4XdvY3FRkOI,gmaps_v2,home_decor,retail,N_A,1695212099
ChIJTer87-cZrjsR4n5rvTh6syA,T K S Store,13.070034980773926,77.63153076171875,0x3bae19e7effcea4d:0x20b37a38bd6b7ee2,N_A,N_A,0,0.0,https://www.google.com/maps/place/?q=place_id:ChIJTer87-cZrjsR4n5rvTh6syA,gmaps_v2,grocery_store,retail,N_A,1687847039
ChIJCbWt4F0XrjsRJTHS9QJlmrM,The Furniture Store - HBR,13.033649444580078,77.62957000732422,0x3bae175de0adb509:0xb39a6502f5d23125,lovefurniturestore,lovefurniturestore,42,4.300000190734863,https://www.google.com/maps/place/?q=place_id:ChIJCbWt4F0XrjsRJTHS9QJlmrM,gmaps_v2,home_decor,retail,N_A,1695212099
ChIJ4XeMF0QXrjsRaEE-kgNADck,Kalyani Enterprises,13.058089256286621,77.60772705078125,0x3bae1744178c77e1:0xc90d4003923e4168,N_A,N_A,0,0.0,https://www.google.com/maps/place/?q=place_id:ChIJ4XeMF0QXrjsRaEE-kgNADck,gmaps_v2,clinic,medical,N_A,1695212099
ChIJFRcoJuMZrjsRDZbJqZXNLeQ,Haritha Musicals,13.062342643737793,77.58710479736328,0x3bae19e326281715:0xe42dcd95a9c9960d,N_A,N_A,0,0.0,https://www.google.com/maps/place/?q=place_id:ChIJFRcoJuMZrjsRDZbJqZXNLeQ,gmaps_v2,electronic_store,retail,N_A,1695212099
ChIJVVVVlRIXrjsRNYUAKPBB6fM,Sadiyah Diagnostics Centetr,13.034866333007812,77.62067413330078,0x3bae171295555555:0xf3e941f028008535,N_A,N_A,0,0.0,https://www.google.com/maps/place/?q=place_id:ChIJVVVVlRIXrjsRNYUAKPBB6fM,gmaps_v2,hospital,medical,N_A,1687847039
ChIJ02EIWNQXrjsRTV5TdlDGKkc,Align dental care,13.056461334228516,77.63016510009766,0x3bae17d4580861d3:0x472ac65076535e4d,N_A,N_A,0,0.0,https://www.google.com/maps/place/?q=place_id:ChIJ02EIWNQXrjsRTV5TdlDGKkc,gmaps_v2,hospital,medical,N_A,1687847039
ChIJoemGO2cXrjsRkKlgmFfFZsA,Om Paratha House,13.058258056640625,77.62496185302734,0x3bae17673b86e9a1:0xc066c5579860a990,N_A,N_A,9,4.699999809265137,https://www.google.com/maps/place/?q=place_id:ChIJoemGO2cXrjsRkKlgmFfFZsA,gmaps_v2,restaurant,food,N_A,1699615207
ChIJ-Vxo1yAZrjsRJ9AkeLGJZ44,Hilight lamps and appliances,13.07094669342041,77.63348388671875,0x3bae1920d7685cf9:0x8e6789b17824d027,N_A,N_A,44,4.800000190734863,https://www.google.com/maps/place/?q=place_id:ChIJ-Vxo1yAZrjsRJ9AkeLGJZ44,gmaps_v2,home_decor,retail,N_A,1695212099
ChIJq1J0SSgXrjsRBwK_zCT-xs8,Al-Taiba Crispy Chicken Centre,13.033262252807617,77.60911560058594,0x3bae1728497452ab:0xcfc6fe24ccbf0207,N_A,N_A,10,4.599999904632568,https://www.google.com/maps/place/?q=place_id:ChIJq1J0SSgXrjsRBwK_zCT-xs8,gmaps_v2,restaurant,food,N_A,1699615207
ChIJ1dzVvq8ZrjsRbTc__TFhUKU,Five Star Chicken,13.066617965698242,77.64007568359375,0x3bae19afbed5dcd5:0xa5506131fd3f376d,fivestarchicken,Five Star Chicken,25,4.400000095367432,https://www.google.com/maps/place/?q=place_id:ChIJ1dzVvq8ZrjsRbTc__TFhUKU,gmaps_v2,restaurant,food,N_A,1699615207
ChIJDajHA04YrjsRyD4YFvK7ee8,NDR CLINIC,13.09170150756836,77.60161590576172,0x3bae184e03c7a80d:0xef79bbf216183ec8,N_A,N_A,21,4.5,https://www.google.com/maps/place/?q=place_id:ChIJDajHA04YrjsRyD4YFvK7ee8,gmaps_v2,clinic,medical,N_A,1695212099
ChIJMf383IYZrjsRXVD9cseapUQ,Mahalakshmi Electriclas,13.067169189453125,77.60125732421875,0x3bae1986dcfcfd31:0x44a59ac772fd505d,N_A,N_A,10,4.599999904632568,https://www.google.com/maps/place/?q=place_id:ChIJMf383IYZrjsRXVD9cseapUQ,gmaps_v2,electronic_store,retail,N_A,1695212099
ChIJX4r265AZrjsRz-18esKviPY,Maths Tuition Classes - Cuemath,13.064567565917969,77.62957000732422,0x3bae1990ebf68a5f:0xf688afc27a7cedcf,cuemath,Cuemath,9,5.0,https://www.google.com/maps/place/?q=place_id:ChIJX4r265AZrjsRz-18esKviPY,gmaps_v2,tuition_center,education,N_A,1687847039
ChIJi23McpwXrjsRqmkpb8Q41C4,zia Ul Haque,13.055230140686035,77.6023941040039,0x3bae179c72cc6d8b:0x2ed438c46f2969aa,N_A,N_A,0,0.0,https://www.google.com/maps/place/?q=place_id:ChIJi23McpwXrjsRqmkpb8Q41C4,gmaps_v2,grocery_store,retail,N_A,1687847039
ChIJ1yDP4wwXrjsRpx7NbhIt1XU,K G N Store,13.034223556518555,77.61620330810547,0x3bae170ce3cf20d7:0x75d52d126ecd1ea7,N_A,N_A,16,4.400000095367432,https://www.google.com/maps/place/?q=place_id:ChIJ1yDP4wwXrjsRpx7NbhIt1XU,gmaps_v2,grocery_store,retail,N_A,1687847039
ChIJ26Rz1KEXrjsRgNoccl2bxSc,RAMDEV FOOTWEAR,13.035213470458984,77.60459899902344,0x3bae17a1d473a4db:0x27c59b5d721cda80,N_A,N_A,1,1.0,https://www.google.com/maps/place/?q=place_id:ChIJ26Rz1KEXrjsRgNoccl2bxSc,gmaps_v2,shoe_store,retail,N_A,1687847039
ChIJESifP2MZrjsRePXRjpg1Qbw,Rajastani sweets and chats,13.083723068237305,77.6354751586914,0x3bae19633f9f2811:0xbc4135988ed1f578,N_A,N_A,1,5.0,https://www.google.com/maps/place/?q=place_id:ChIJESifP2MZrjsRePXRjpg1Qbw,gmaps_v2,restaurant,food,N_A,1699615207
ChIJX4xHVo4XrjsRmGIxE6XDfY4,VBR NEET GIRLS - CAMPUS -1,13.037910461425781,77.63510131835938,0x3bae178e56478c5f:0x8e7dc3a513316298,vbredu,VBR Group of Institutions,40,3.9000000953674316,https://www.google.com/maps/place/?q=place_id:ChIJX4xHVo4XrjsRmGIxE6XDfY4,gmaps_v2,college,education,N_A,1687847039
ChIJRZONlZcXrjsROgXAN2gLMf0,Curer Health,13.032979011535645,77.6072998046875,0x3bae1797958d9345:0xfd310b6837c0053a,N_A,N_A,0,0.0,https://www.google.com/maps/place/?q=place_id:ChIJRZONlZcXrjsROgXAN2gLMf0,gmaps_v2,hospital,medical,N_A,1687847039
ChIJhfE9RVEZrjsR6BornaRTLj8,Rajasthan Handloom,13.068828582763672,77.6333999633789,0x3bae1951453df185:0x3f2e53a49d2b1ae8,N_A,N_A,8,4.800000190734863,https://www.google.com/maps/place/?q=place_id:ChIJhfE9RVEZrjsR6BornaRTLj8,gmaps_v2,home_decor,retail,N_A,1695212099
ChIJywf7i6sXrjsRWchIAvjPB5Y,Bismillah store,13.033242225646973,77.61441802978516,0x3bae17ab8bfb07cb:0x9607cff80248c859,N_A,N_A,18,4.699999809265137,https://www.google.com/maps/place/?q=place_id:ChIJywf7i6sXrjsRWchIAvjPB5Y,gmaps_v2,home_decor,retail,N_A,1695212099
ChIJ5_zRjyMXrjsR_Zatq5q7YSQ,Vigneshwara juice&bakery,13.0446195602417,77.6009292602539,0x3bae17238fd1fce7:0x2461bb9aabad96fd,N_A,N_A,7,4.400000095367432,https://www.google.com/maps/place/?q=place_id:ChIJ5_zRjyMXrjsR_Zatq5q7YSQ,gmaps_v2,bar_pub,food,N_A,1687847039
ChIJ_cro2gUZrjsRhOa1zQoakpE,Bng,13.097369194030762,77.5960464477539,0x3bae1905dae8cafd:0x91921a0acdb5e684,N_A,N_A,0,0.0,https://www.google.com/maps/place/?q=place_id:ChIJ_cro2gUZrjsRhOa1zQoakpE,gmaps_v2,school,education,N_A,1687847039
ChIJkS7bDT0XrjsRe3-0S_zhNZw,FEDERAL COLLEGE OF NURSING,13.027778625488281,77.6324462890625,0x3bae173d0ddb2e91:0x9c35e1fc4bb47f7b,N_A,N_A,9,3.9000000953674316,https://www.google.com/maps/place/?q=place_id:ChIJkS7bDT0XrjsRe3-0S_zhNZw,gmaps_v2,college,education,N_A,1687847039
ChIJv-fuojwXrjsRHwGLE2X0yRc,INDO ASIAN ACADEMY CO-ED DEGREE College & PG CENTRE,13.027043342590332,77.6358413696289,0x3bae173ca2eee7bf:0x17c9f465138b011f,indoasianacademy,indoasianacademy,279,3.9000000953674316,https://www.google.com/maps/place/?q=place_id:ChIJv-fuojwXrjsRHwGLE2X0yRc,gmaps_v2,tuition_center,education,N_A,1687847039
ChIJ2wTCsjoXrjsRoxlVj5EYmPw,VJR High School,13.026037216186523,77.6413345336914,0x3bae173ab2c204db:0xfc9818918f5519a3,N_A,N_A,5,5.0,https://www.google.com/maps/place/?q=place_id:ChIJ2wTCsjoXrjsRoxlVj5EYmPw,gmaps_v2,school,education,N_A,1687847039
ChIJt2Q5Yn4XrjsRnT67ryBaYXk,"Narayana Pu College,Kuvempu Bhavan",13.055795669555664,77.61251068115234,0x3bae177e623964b7:0x79615a20afbb3e9d,N_A,N_A,78,4.300000190734863,https://www.google.com/maps/place/?q=place_id:ChIJt2Q5Yn4XrjsRnT67ryBaYXk,gmaps_v2,college,education,N_A,1687847039
ChIJV95U3WcXrjsR8Q7nER07rUo,Daisy Montessori School,13.057754516601562,77.62765502929688,0x3bae1767dd54de57:0x4aad3b1d11e70ef1,N_A,N_A,52,4.800000190734863,https://www.google.com/maps/place/?q=place_id:ChIJV95U3WcXrjsR8Q7nER07rUo,gmaps_v2,school,education,N_A,1687847039
ChIJ6_4rfX4XrjsRU80wUDIVnFI,Narayana PU college Dasarahalli Branch,13.055851936340332,77.61278533935547,0x3bae177e7d2bfeeb:0x529c15325030cd53,N_A,N_A,52,3.9000000953674316,https://www.google.com/maps/place/?q=place_id:ChIJ6_4rfX4XrjsRU80wUDIVnFI,gmaps_v2,college,education,N_A,1687847039
ChIJVYkujC4YrjsRuZtg7s571r4,H.E.H.S Institute Of Paramedical Sciences,13.0658597946167,77.60118103027344,0x3bae182e8c2e8955:0xbed67bceee609bb9,N_A,N_A,25,3.4000000953674316,https://www.google.com/maps/place/?q=place_id:ChIJVYkujC4YrjsRuZtg7s571r4,gmaps_v2,college,education,N_A,1687847039
ChIJXY8AFFEZrjsRMMxO3x9KFIY,"Trained Brain Pre School, Near Manyata Tech Park",13.061602592468262,77.61946105957031,0x3bae195114008f5d:0x86144a1fdf4ecc30,N_A,N_A,11,5.0,https://www.google.com/maps/place/?q=place_id:ChIJXY8AFFEZrjsRMMxO3x9KFIY,gmaps_v2,school,education,pre_school,1687847039
ChIJAyTa1CYXrjsRlKL4oksSH64,Coorg spicy kadai,13.028936386108398,77.63404846191406,0x3bae1726d4da2403:0xae1f124ba2f8a294,N_A,N_A,70,3.5,https://www.google.com/maps/place/?q=place_id:ChIJAyTa1CYXrjsRlKL4oksSH64,gmaps_v2,restaurant,food,N_A,1699615207
ChIJkR3v4PIZrjsREqm63z854f8,Petola,13.074116706848145,77.61878967285156,0x3bae19f2e0ef1d91:0xffe1393fdfbaa912,N_A,N_A,0,0.0,https://www.google.com/maps/place/?q=place_id:ChIJkR3v4PIZrjsREqm63z854f8,gmaps_v2,pet_care,service,N_A,1695212099
ChIJ12kNPeUZrjsR3h0I2SaOTLk,A- One Saloon,13.083303451538086,77.63738250732422,0x3bae19e53d0d69d7:0xb94c8e26d9081dde,N_A,N_A,0,0.0,https://www.google.com/maps/place/?q=place_id:ChIJ12kNPeUZrjsR3h0I2SaOTLk,gmaps_v2,clinic,medical,N_A,1695212099
ChIJbQ7fBtwZrjsR8PAz4-MQSX8,OM SAI Vetcare PVT LTD,13.0592679977417,77.5875244140625,0x3bae19dc06df0e6d:0x7f4910e3e333f0f0,N_A,N_A,1,5.0,https://www.google.com/maps/place/?q=place_id:ChIJbQ7fBtwZrjsR8PAz4-MQSX8,gmaps_v2,pet_care,service,N_A,1695212099
ChIJARHSAiQYrjsRtvLqbDme6ts,Tulasi Pharmacies,13.06325912475586,77.59124755859375,0x3bae182402d21101:0xdbea9e396ceaf2b6,N_A,N_A,5,4.400000095367432,https://www.google.com/maps/place/?q=place_id:ChIJARHSAiQYrjsRtvLqbDme6ts,gmaps_v2,pharmacy,medical,N_A,1687847039
ChIJWx86MRIXrjsR-hAXKaUKhHQ,Karmas mini super market,13.055373191833496,77.64423370361328,0x3bae1712313a1f5b:0x74840aa5291710fa,N_A,N_A,1,5.0,https://www.google.com/maps/place/?q=place_id:ChIJWx86MRIXrjsR-hAXKaUKhHQ,gmaps_v2,grocery_store,retail,N_A,1687847039
ChIJ17Og6KAXrjsRFHw0-UV-0y0,C K P Mini Mart,13.058289527893066,77.6248779296875,0x3bae17a0e8a0b3d7:0x2dd37e45f9347c14,N_A,N_A,0,0.0,https://www.google.com/maps/place/?q=place_id:ChIJ17Og6KAXrjsRFHw0-UV-0y0,gmaps_v2,grocery_store,retail,N_A,1687847039
ChIJ93h2cSsXrjsRPevTwyACHN0,JM All Kinds Of Clothing Alterations,13.037885665893555,77.6236343383789,0x3bae172b717678f7:0xdd1c0220c3d3eb3d,N_A,N_A,73,5.0,https://www.google.com/maps/place/?q=place_id:ChIJ93h2cSsXrjsRPevTwyACHN0,gmaps_v2,clothing_store,retail,N_A,1687847039
ChIJbRijVpoXrjsR1CoKTfST1Jw,AESTHETIC SALON AND SPA,13.04337215423584,77.59952545166016,0x3bae179a56a3186d:0x9cd493f44d0a2ad4,N_A,N_A,163,3.5999999046325684,https://www.google.com/maps/place/?q=place_id:ChIJbRijVpoXrjsR1CoKTfST1Jw,gmaps_v2,salon,service,N_A,1699615207
ChIJvRfgi38ZrjsRcnVTdq7rxe4,Srikshetra Sweets,13.057411193847656,77.58358764648438,0x3bae197f8be017bd:0xeec5ebae76537572,N_A,N_A,0,0.0,https://www.google.com/maps/place/?q=place_id:ChIJvRfgi38ZrjsRcnVTdq7rxe4,gmaps_v2,restaurant,food,N_A,1699615207
ChIJt_5dmRUXrjsRKKQH_G4vQpA,Zinc Salon,13.055708885192871,77.60452270507812,0x3bae1715995dfeb7:0x90422f6efc07a428,N_A,N_A,5,5.0,https://www.google.com/maps/place/?q=place_id:ChIJt_5dmRUXrjsRKKQH_G4vQpA,gmaps_v2,salon,service,N_A,1699615207
ChIJpQ6GTdMXrjsRwYL05X9Apa0,COMFORT ZONE,13.037482261657715,77.61397552490234,0x3bae17d34d860ea5:0xada5407fe5f482c1,N_A,N_A,1,5.0,https://www.google.com/maps/place/?q=place_id:ChIJpQ6GTdMXrjsRwYL05X9Apa0,gmaps_v2,home_decor,retail,N_A,1695212099
ChIJR2cIEzYXrjsRJbZPQDYnbzs,Imbros Electronic Shop,13.037983894348145,77.60710144042969,0x3bae173613086747:0x3b6f2736404fb625,N_A,N_A,0,0.0,https://www.google.com/maps/place/?q=place_id:ChIJR2cIEzYXrjsRJbZPQDYnbzs,gmaps_v2,electronic_store,retail,N_A,1695212099
ChIJicBS-E4XrjsR4bx7Kt4cDZ4,Danush Shop,13.039573669433594,77.6110610961914,0x3bae174ef852c089:0x9e0d1cde2a7bbce1,N_A,N_A,0,0.0,https://www.google.com/maps/place/?q=place_id:ChIJicBS-E4XrjsR4bx7Kt4cDZ4,gmaps_v2,clothing_store,retail,N_A,1687847039
ChIJQeEXLmoXrjsRYopwMOgLYZA,Krishna Provision Store,13.052143096923828,77.61181640625,0x3bae176a2e17e141:0x90610be830708a62,N_A,N_A,4,3.799999952316284,https://www.google.com/maps/place/?q=place_id:ChIJQeEXLmoXrjsRYopwMOgLYZA,gmaps_v2,grocery_store,retail,N_A,1687847039
ChIJyY-gkgoXrjsR8bBbSNF1gps,prathap motors,13.033625602722168,77.6091537475586,0x3bae170a92a08fc9:0x9b8275d1485bb0f1,N_A,N_A,4,4.0,https://www.google.com/maps/place/?q=place_id:ChIJyY-gkgoXrjsR8bBbSNF1gps,gmaps_v2,shoe_store,retail,N_A,1687847039
ChIJl4-I1-oZrjsRErXHGHBVWEM,Maths Tuition Classes - Cuemath,13.068739891052246,77.59928131103516,0x3bae19ead7888f97:0x4358557018c7b512,cuemath,Cuemath,4,4.800000190734863,https://www.google.com/maps/place/?q=place_id:ChIJl4-I1-oZrjsRErXHGHBVWEM,gmaps_v2,tuition_center,education,N_A,1687847039
20006477,Affaf Restaurant,13.0719626212,77.6338533685,20006477,N_A,N_A,36,3.3,,zomato,restaurant,food,N_A,1688639100
ChIJjdiJ2cIZrjsRjxdDZrvPH4M,Mahadeva Stores,13.071340560913086,77.62816619873047,0x3bae19c2d989d88d:0x831fcfbb6643178f,N_A,N_A,8,3.4000000953674316,https://www.google.com/maps/place/?q=place_id:ChIJjdiJ2cIZrjsRjxdDZrvPH4M,gmaps_v2,grocery_store,retail,N_A,1687847039
ChIJg9I1xh8XrjsRIIzRR4XWLuE,Tapasmondal,13.041749954223633,77.61585235595703,0x3bae171fc635d283:0xe12ed68547d18c20,N_A,N_A,0,0.0,https://www.google.com/maps/place/?q=place_id:ChIJg9I1xh8XrjsRIIzRR4XWLuE,gmaps_v2,grocery_store,retail,N_A,1687847039
ChIJtd98fJgZrjsRLuwPRowKEK4,AARAA COUTURE,13.087307929992676,77.6214828491211,0x3bae19987c7cdfb5:0xae100a8c460fec2e,N_A,N_A,5,5.0,https://www.google.com/maps/place/?q=place_id:ChIJtd98fJgZrjsRLuwPRowKEK4,gmaps_v2,clothing_store,retail,N_A,1687847039
ChIJkS7bDT0XrjsRgSrm5ntI75U,WEEFA WELLNESS SOLUTIONS PVT LTD,13.027778625488281,77.6324462890625,0x3bae173d0ddb2e91:0x95ef487be6e62a81,N_A,N_A,2,5.0,https://www.google.com/maps/place/?q=place_id:ChIJkS7bDT0XrjsRgSrm5ntI75U,gmaps_v2,grocery_store,retail,N_A,1687847039
ChIJYe674nEXrjsRPYdy2G1U9EQ,Chander Shop,13.036314010620117,77.62335968017578,0x3bae1771e2bbee61:0x44f4546dd872873d,N_A,N_A,0,0.0,https://www.google.com/maps/place/?q=place_id:ChIJYe674nEXrjsRPYdy2G1U9EQ,gmaps_v2,clothing_store,retail,N_A,1687847039
ChIJeVkRMZ0XrjsR4Wdg0tKu2N8,Baby,13.034363746643066,77.63102722167969,0x3bae179d31115979:0xdfd8aed2d26067e1,N_A,N_A,0,0.0,https://www.google.com/maps/place/?q=place_id:ChIJeVkRMZ0XrjsR4Wdg0tKu2N8,gmaps_v2,clothing_store,retail,N_A,1687847039
ChIJP5fLZo8XrjsRkLYeB5hH8qo,Smile Mantra Dental & Cosmetic Care,13.027138710021973,77.63323974609375,0x3bae178f66cb973f:0xaaf24798071eb690,N_A,N_A,33,5.0,https://www.google.com/maps/place/?q=place_id:ChIJP5fLZo8XrjsRkLYeB5hH8qo,gmaps_v2,clinic,medical,N_A,1687847039
ChIJG6G9gN0ZrjsRMhs9e4nBBcI,HEALTH BEAT FITNESS,13.067865371704102,77.63005828857422,0x3bae19dd80bda11b:0xc205c1897b3d1b32,N_A,N_A,159,4.400000095367432,https://www.google.com/maps/place/?q=place_id:ChIJG6G9gN0ZrjsRMhs9e4nBBcI,gmaps_v2,gym_fitness,leisure,N_A,1687847039
ChIJMTXRWOQXrjsR8OtAQhh9BwM,"Om Medical Kanaka Nagar, Rt nagar Post",13.035941123962402,77.60482788085938,0x3bae17e458d13531:0x3077d184240ebf0,N_A,N_A,8,5.0,https://www.google.com/maps/place/?q=place_id:ChIJMTXRWOQXrjsR8OtAQhh9BwM,gmaps_v2,pharmacy,medical,N_A,1687847039
ChIJjw_rZPYXrjsRUrM9KZnRvsk,FALAK BOUTIQUE,13.034734725952148,77.60604095458984,0x3bae17f664eb0f8f:0xc9bed199293db352,N_A,N_A,0,0.0,https://www.google.com/maps/place/?q=place_id:ChIJjw_rZPYXrjsRUrM9KZnRvsk,gmaps_v2,clothing_store,retail,N_A,1687847039
ChIJ2XctJOYXrjsRilhHLCU9KkY,Kings Salon (SM) Men's and Kids salon,13.031472206115723,77.61203002929688,0x3bae17e6242d77d9:0x462a3d252c47588a,N_A,N_A,2,3.0,https://www.google.com/maps/place/?q=place_id:ChIJ2XctJOYXrjsRilhHLCU9KkY,gmaps_v2,salon,service,N_A,1699615207
18814342,Nandhana Mithai,13.0595924628,77.5926864892,18814342,N_A,N_A,1,3.3,,zomato,restaurant,food,N_A,1688639100
8b2f470d-5691-4e89-b48c-c85652ad62df,Silicon Valley Bank,13.0479572,77.622419,,N_A,N_A,0,0.0,,fundoo,Private Sector,company,MNC,1701844461
ChIJs_MGqYsXrjsR_giHTRvqrPg,Bismilla Chiken,13.048895835876465,77.63211059570312,0x3bae178ba906f3b3:0xf8acea1b4d8708fe,N_A,N_A,0,0.0,https://www.google.com/maps/place/?q=place_id:ChIJs_MGqYsXrjsR_giHTRvqrPg,gmaps_v2,restaurant,food,N_A,1699615207
ChIJ-cAF0KEXrjsRdzNT6caY5Gw,Sri Mookambika Provision Store,13.034812927246094,77.60413360595703,0x3bae17a1d005c0f9:0x6ce498c6e9533377,N_A,N_A,6,3.799999952316284,https://www.google.com/maps/place/?q=place_id:ChIJ-cAF0KEXrjsRdzNT6caY5Gw,gmaps_v2,grocery_store,retail,N_A,1687847039
ChIJkbH_JDMXrjsR7e_STXSuYq4,S A Enterprises groceries,13.036294937133789,77.60655212402344,0x3bae173324ffb191:0xae62ae744dd2efed,N_A,N_A,1,5.0,https://www.google.com/maps/place/?q=place_id:ChIJkbH_JDMXrjsR7e_STXSuYq4,gmaps_v2,grocery_store,retail,N_A,1687847039
ChIJX-M4eCkXrjsRC4k4qd0V7Ng,Nisar Ahmed Shop,13.02786636352539,77.63314819335938,0x3bae17297838e35f:0xd8ec15dda938890b,N_A,N_A,0,0.0,https://www.google.com/maps/place/?q=place_id:ChIJX-M4eCkXrjsRC4k4qd0V7Ng,gmaps_v2,clothing_store,retail,N_A,1687847039
ChIJb5w2yikYrjsReKmt_4SGMVk,Sri Krishna Medical,13.059186935424805,77.599609375,0x3bae1829ca369c6f:0x59318684ffada978,N_A,N_A,0,0.0,https://www.google.com/maps/place/?q=place_id:ChIJb5w2yikYrjsReKmt_4SGMVk,gmaps_v2,pharmacy,medical,N_A,1687847039
ChIJPeE6Yi4YrjsRkXR9gG1KykU,KRIYA HOMEOPATHY,13.066543579101562,77.60102844238281,0x3bae182e623ae13d:0x45ca4a6d807d7491,N_A,N_A,10,4.400000095367432,https://www.google.com/maps/place/?q=place_id:ChIJPeE6Yi4YrjsRkXR9gG1KykU,gmaps_v2,pharmacy,medical,N_A,1687847039
ChIJxUGZGZwXrjsRAk4sWqSu46U,Universal Fabric (JWL Group),13.034777641296387,77.60456085205078,0x3bae179c199941c5:0xa5e3aea45a2c4e02,N_A,N_A,4,4.800000190734863,https://www.google.com/maps/place/?q=place_id:ChIJxUGZGZwXrjsRAk4sWqSu46U,gmaps_v2,clothing_store,retail,N_A,1687847039
ChIJjQqtz-YZrjsR0aQqUyPJU7o,Mumma's Kitchen BLR.,13.060440063476562,77.60331726074219,0x3bae19e6cfad0a8d:0xba53c923532aa4d1,N_A,N_A,9,4.900000095367432,https://www.google.com/maps/place/?q=place_id:ChIJjQqtz-YZrjsR0aQqUyPJU7o,gmaps_v2,restaurant,food,N_A,1687847039
ChIJq3qGVL8ZrjsRAAAAMAuxJmA,Abhimanyu Chats,13.082467079162598,77.62494659423828,0x3bae19bf54867aab:0x6026b10b30000000,N_A,N_A,1,5.0,https://www.google.com/maps/place/?q=place_id:ChIJq3qGVL8ZrjsRAAAAMAuxJmA,gmaps_v2,restaurant,food,N_A,1699615207
ChIJsSwEJncXrjsRTRkqEXBEDMA,Pinky blush Beauty Saloon,13.051262855529785,77.63475036621094,0x3bae177726042cb1:0xc00c4470112a194d,N_A,N_A,16,4.599999904632568,https://www.google.com/maps/place/?q=place_id:ChIJsSwEJncXrjsRTRkqEXBEDMA,gmaps_v2,salon,service,N_A,1695212099
ChIJPTJQpfYXrjsRgC38fqNBG_M,Matsya Incorporation,13.048233032226562,77.6024398803711,0x3bae17f6a550323d:0xf31b41a37efc2d80,N_A,N_A,98,4.5,https://www.google.com/maps/place/?q=place_id:ChIJPTJQpfYXrjsRgC38fqNBG_M,gmaps_v2,gym_fitness,leisure,N_A,1687847039
ChIJESjOqiEYrjsR4V-qjEAj_d0,Vidya Vrudhi School,13.059799194335938,77.5881576538086,0x3bae1821aace2811:0xddfd23408caa5fe1,N_A,N_A,1,5.0,https://www.google.com/maps/place/?q=place_id:ChIJESjOqiEYrjsR4V-qjEAj_d0,gmaps_v2,school,education,N_A,1687847039
ChIJ19YDimAXrjsRRH1TAENjQTw,Families Supermarket Rachanahalli Main Road Thanisandra,13.056729316711426,77.6296157836914,0x3bae17608a03d6d7:0x3c41634300537d44,N_A,N_A,1892,4.0,https://www.google.com/maps/place/?q=place_id:ChIJ19YDimAXrjsRRH1TAENjQTw,gmaps_v2,supermarket,retail,N_A,1699615207
ChIJmUtXOagZrjsRIXiVzXi039E,KAM'S ADDA,13.091316223144531,77.6017837524414,0x3bae19a839574b99:0xd1dfb478cd957821,N_A,N_A,18,4.599999904632568,https://www.google.com/maps/place/?q=place_id:ChIJmUtXOagZrjsRIXiVzXi039E,gmaps_v2,restaurant,food,N_A,1699615207
ChIJaQV8WpQZrjsRfmmDtKNaaN4,Wedotedesign LLP,13.068827629089355,77.6256332397461,0x3bae19945a7c0569:0xde685aa3b483697e,N_A,N_A,8,5.0,https://www.google.com/maps/place/?q=place_id:ChIJaQV8WpQZrjsRfmmDtKNaaN4,gmaps_v2,home_decor,retail,N_A,1695212099
ChIJrxf7VsYZrjsR4D888PFSuoE,Pebbles women world,13.068507194519043,77.6042251586914,0x3bae19c656fb17af:0x81ba52f1f03c3fe0,N_A,N_A,3,5.0,https://www.google.com/maps/place/?q=place_id:ChIJrxf7VsYZrjsR4D888PFSuoE,gmaps_v2,clothing_store,retail,N_A,1687847039
ChIJlcULOSIYrjsRET7Z0rRTz1U,Balaji Home Made Foods,13.06408405303955,77.58682250976562,0x3bae1822390bc595:0x55cf53b4d2d93e11,N_A,N_A,1,5.0,https://www.google.com/maps/place/?q=place_id:ChIJlcULOSIYrjsRET7Z0rRTz1U,gmaps_v2,restaurant,food,N_A,1687847039
ChIJlakUaAoXrjsRIfGPx5FG2c0,Sri Krishna Stores,13.049379348754883,77.63693237304688,0x3bae170a6814a995:0xcdd94691c78ff121,N_A,N_A,9,4.699999809265137,https://www.google.com/maps/place/?q=place_id:ChIJlakUaAoXrjsRIfGPx5FG2c0,gmaps_v2,grocery_store,retail,N_A,1687847039
ChIJpVjoG6MXrjsRyT06-sO2q38,Cafe 4,13.04916000366211,77.59707641601562,0x3bae17a31be858a5:0x7fabb6c3fa3a3dc9,N_A,N_A,9,4.0,https://www.google.com/maps/place/?q=place_id:ChIJpVjoG6MXrjsRyT06-sO2q38,gmaps_v2,coffee_shop,food,N_A,1687847039
ChIJ2XndOSMYrjsRooTOFukoRQY,Sitar Class,13.068320274353027,77.58905792236328,0x3bae182339dd79d9:0x64528e916ce84a2,N_A,N_A,13,4.099999904632568,https://www.google.com/maps/place/?q=place_id:ChIJ2XndOSMYrjsRooTOFukoRQY,gmaps_v2,electronic_store,retail,N_A,1695212099
ChIJCQRWDDAXrjsRSshvOm63WhY,ONE School of Business,13.03760051727295,77.61897277832031,0x3bae17300c560409:0x165ab76e3a6fc84a,N_A,N_A,0,0.0,https://www.google.com/maps/place/?q=place_id:ChIJCQRWDDAXrjsRSshvOm63WhY,gmaps_v2,college,education,N_A,1687847039
ChIJGSsedXQXrjsRAAAAMKB9EkI,Gayathri Texiles,13.040064811706543,77.61334991455078,0x3bae1774751e2b19:0x42127da030000000,N_A,N_A,0,0.0,https://www.google.com/maps/place/?q=place_id:ChIJGSsedXQXrjsRAAAAMKB9EkI,gmaps_v2,clothing_store,retail,N_A,1687847039
ChIJ29hadgoXrjsR58I-TeGSnZk,AL AMEEN PROVISION STOTE,13.045961380004883,77.62983703613281,0x3bae170a765ad8db:0x999d92e14d3ec2e7,N_A,N_A,1,5.0,https://www.google.com/maps/place/?q=place_id:ChIJ29hadgoXrjsR58I-TeGSnZk,gmaps_v2,grocery_store,retail,N_A,1687847039
ChIJTUyiWgcXrjsRZHPnzF-omug,Tripureswari Medical,13.034893035888672,77.60450744628906,0x3bae17075aa24c4d:0xe89aa85fcce77364,N_A,N_A,2,5.0,https://www.google.com/maps/place/?q=place_id:ChIJTUyiWgcXrjsRZHPnzF-omug,gmaps_v2,pharmacy,medical,N_A,1687847039
ChIJLQ_jkjAYrjsRZGfNJ6fEVKg,Ashok Mens Wear,13.0692777633667,77.60213470458984,0x3bae183092e30f2d:0xa854c4a727cd6764,N_A,N_A,9,4.599999904632568,https://www.google.com/maps/place/?q=place_id:ChIJLQ_jkjAYrjsRZGfNJ6fEVKg,gmaps_v2,clothing_store,retail,N_A,1687847039
ChIJYb1igj4XrjsR4f2HUvNEB48,Apna Kitchen,13.031988143920898,77.61651611328125,0x3bae173e8262bd61:0x8f0744f35287fde1,N_A,N_A,6,3.299999952316284,https://www.google.com/maps/place/?q=place_id:ChIJYb1igj4XrjsR4f2HUvNEB48,gmaps_v2,restaurant,food,N_A,1699615207
ChIJp0u_b6cXrjsR3UgaM42aj4M,Sapthagiri Diagnostic Centre,13.031953811645508,77.60834503173828,0x3bae17a76fbf4ba7:0x838f9a8d331a48dd,N_A,N_A,1,5.0,https://www.google.com/maps/place/?q=place_id:ChIJp0u_b6cXrjsR3UgaM42aj4M,gmaps_v2,clinic,medical,N_A,1695212099
ChIJCfDKs5gZrjsRq6ixUZldbIs,"Baby Love The Baby Shop, Byatrayanpura",13.06636905670166,77.59354400634766,0x3bae1998b3caf009:0x8b6c5d9951b1a8ab,N_A,N_A,106,5.0,https://www.google.com/maps/place/?q=place_id:ChIJCfDKs5gZrjsRq6ixUZldbIs,gmaps_v2,clinic,medical,N_A,1695212099
ChIJn1ypeJ8XrjsRMPL9R--vIaU,AMB Public School,13.035807609558105,77.60487365722656,0x3bae179f78a95c9f:0xa521afef47fdf230,N_A,N_A,17,4.099999904632568,https://www.google.com/maps/place/?q=place_id:ChIJn1ypeJ8XrjsRMPL9R--vIaU,gmaps_v2,school,education,N_A,1687847039
ChIJbXblS5MXrjsRazpgDVapBqQ,MATRIX ABACUS Kempapura,13.046734809875488,77.59880065917969,0x3bae17934be5766d:0xa406a9560d603a6b,N_A,N_A,0,0.0,https://www.google.com/maps/place/?q=place_id:ChIJbXblS5MXrjsRazpgDVapBqQ,gmaps_v2,school,education,N_A,1687847039
ChIJIdxFaggZrjsRhc1ssfCloRo,Dr. Abdul Hadi Shareef- Orthopedist In Bengaluru,13.083333969116211,77.63277435302734,0x3bae19086a45dc21:0x1aa1a5f0b16ccd85,N_A,N_A,0,0.0,https://www.google.com/maps/place/?q=place_id:ChIJIdxFaggZrjsRhc1ssfCloRo,gmaps_v2,hospital,medical,N_A,1687847039
ChIJyboIMksXrjsRTn4ffo_3FHw,UK Hair & Tattoo Studio ‡≤Ø‡≥Å‡≤ï‡≥Ü ‡≤π‡≥á‡≤∞‡≥ç & ‡≤ü‡≥ç‡≤Ø‡≤æ‡≤ü‡≥Ç ‡≤∏‡≥ç‡≤ü‡≥Å‡≤°‡≤ø‡≤Ø‡≥ã,13.051122665405273,77.61204528808594,0x3bae174b3208bac9:0x7c14f78f7e1f7e4e,N_A,N_A,494,5.0,https://www.google.com/maps/place/?q=place_id:ChIJyboIMksXrjsRTn4ffo_3FHw,gmaps_v2,salon,service,N_A,1695212099
ChIJCYt3gjQXrjsR30AuDxmas08,Greens bakery and sweet,13.046308517456055,77.60103607177734,0x3bae173482778b09:0x4fb39a190f2e40df,N_A,N_A,10,4.400000095367432,https://www.google.com/maps/place/?q=place_id:ChIJCYt3gjQXrjsR30AuDxmas08,gmaps_v2,coffee_shop,food,N_A,1687847039
ChIJ30wuaacXrjsR2XkTYFpQhZY,A.A.Chicken Center,13.029021263122559,77.62077331542969,0x3bae17a7692e4cdf:0x9685505a601379d9,N_A,N_A,0,0.0,https://www.google.com/maps/place/?q=place_id:ChIJ30wuaacXrjsR2XkTYFpQhZY,gmaps_v2,grocery_store,retail,N_A,1687847039
ChIJ2emdXtcYrjsRCY2Rwr29weI,Jawaharlal Nehru Centre For Advanced Scientific Research,13.068086624145508,77.61026763916016,0x3bae18d75e9de9d9:0xe2c1bdbdc2918d09,N_A,N_A,743,4.5,https://www.google.com/maps/place/?q=place_id:ChIJ2emdXtcYrjsRCY2Rwr29weI,gmaps_v2,college,education,N_A,1687847039
ChIJV5g0-xgYrjsRkRh1PhGRCwg,Nv Life Reversing Disorder,13.053071975708008,77.61183166503906,0x3bae1818fb349857:0x80b91113e751891,N_A,N_A,0,0.0,https://www.google.com/maps/place/?q=place_id:ChIJV5g0-xgYrjsRkRh1PhGRCwg,gmaps_v2,clinic,medical,N_A,1687847039
ChIJqZXOp10XrjsRsoJf76W9ckk,Mehak Boutique,13.051151275634766,77.6327896118164,0x3bae175da7ce95a9:0x4972bda5ef5f82b2,N_A,N_A,0,0.0,https://www.google.com/maps/place/?q=place_id:ChIJqZXOp10XrjsRsoJf76W9ckk,gmaps_v2,clothing_store,retail,N_A,1687847039
ChIJRTFcn2QXrjsR8NFZYY8yorQ,Gurbhej Shop,13.032637596130371,77.62217712402344,0x3bae17649f5c3145:0xb4a2328f6159d1f0,N_A,N_A,0,0.0,https://www.google.com/maps/place/?q=place_id:ChIJRTFcn2QXrjsR8NFZYY8yorQ,gmaps_v2,clothing_store,retail,N_A,1687847039
ChIJya_id4UXrjsRRNb9HhPEvME,Kreations,13.049274444580078,77.59709167480469,0x3bae178577e2afc9:0xc1bcc4131efdd644,N_A,N_A,20,4.0,https://www.google.com/maps/place/?q=place_id:ChIJya_id4UXrjsRRNb9HhPEvME,gmaps_v2,salon,service,N_A,1699615207
ChIJYaPZp1oXrjsROiDfWBlOuZM,A.R.Interior & Wood Works,13.051800727844238,77.60132598876953,0x3bae175aa7d9a361:0x93b94e1958df203a,N_A,N_A,8,5.0,https://www.google.com/maps/place/?q=place_id:ChIJYaPZp1oXrjsROiDfWBlOuZM,gmaps_v2,home_decor,retail,N_A,1695212099
